     3.03           OBSERVATION DATA    M: Mixed            RINEX VERSION / TYPE
RTKCONV demo5 b33c                      20200915 114736 UTC PGM / RUN BY / DATE 
log: C:\Users\Isaac H E\Desktop\Test Omar\Argonaut\Rokubun  COMMENT             
format: u-blox                                              COMMENT             
                                                            MARKER NAME         
                                                            MARKER NUMBER       
                                                            MARKER TYPE         
                                                            OBSERVER / AGENCY   
                                                            REC # / TYPE / VERS 
                                                            ANT # / TYPE        
        0.0000        0.0000        0.0000                  APPROX POSITION XYZ 
        0.0000        0.0000        0.0000                  ANTENNA: DELTA H/E/N
G    4 C1C L1C D1C S1C                                      SYS / # / OBS TYPES 
R    4 C1C L1C D1C S1C                                      SYS / # / OBS TYPES 
E    4 C1C L1C D1C S1C                                      SYS / # / OBS TYPES 
  2020     9    15    11     4   32.6930000     GPS         TIME OF FIRST OBS   
  2020     9    15    11     7   31.3930000     GPS         TIME OF LAST OBS    
G                                                           SYS / PHASE SHIFT   
R                                                           SYS / PHASE SHIFT   
E                                                           SYS / PHASE SHIFT   
  0                                                         GLONASS SLOT / FRQ #
 C1C    0.000 C1P    0.000 C2C    0.000 C2P    0.000        GLONASS COD/PHS/BIS 
                                                            END OF HEADER       
> 2020  9 15 11  4 32.6930000  0 23                     
G22  18375473.367 1  96563756.34821        46.995          49.000  
G 1  18042952.863 1  94816376.97421       143.039          51.000  
G11  18075957.707 1  94989772.37121     -1559.678          46.000  
G 3  18684558.891 1  98187985.90021      1557.574          48.000  
G 8  20434685.037 1 107385075.61121     -3266.771          46.000  
G21  21254396.513 1 111692608.06221     -2126.750          46.000  
G32  20944432.858 1 110063699.37121     -2142.852          44.000  
G28  21442026.663 1 112678596.82421      -631.082          44.000  
E11  19543438.338 2 102701469.859 1       606.304          44.000  
E 4  21718746.456 1 114132789.494 1       990.661          45.000  
E12  21104061.245 1 110902601.172 1     -1689.916          40.000  
E19  23539446.919 2 123700590.179 1     -1970.814          37.000  
R23  16993874.321 1  90905754.04431       638.102          51.000  
R 8  17226639.366 1  92247857.72531     -1142.256          45.000  
R 1  17649939.704 1  94348985.40931      2349.323          46.000  
R24  18658768.854 1  99776815.53531      3025.854          48.000  
R22  20229154.589 1 107984485.65821     -3326.635          44.000  
R 7  20336907.114 1 108865012.57721     -3908.987          45.000  
E36  23923116.113 2 125716822.171 1      2326.279          41.000  
E 9  22324324.896 1 117315133.936 1      2999.472          43.000  
G17  22113626.815 2 116207917.58321      3223.614          34.000  
G 4  22116111.438 1 116220974.53821      3755.155          42.000  
G27  23483494.787 2 123406438.51021     -3766.316          35.000  
> 2020  9 15 11  4 32.7930000  0 24                     
G22  18375472.521 1  96563751.67321        46.590          49.000  
G 1  18042950.542 1  94816362.70321       142.546          51.000  
G11  18075987.076 1  94989928.36421     -1560.160          46.000  
G 3  18684529.671 1  98187830.16621      1557.166          49.000  
G 8  20434747.282 1 107385402.31021     -3267.160          46.000  
G21  21254436.622 1 111692820.76921     -2127.180          46.000  
G32  20944473.744 1 110063913.68721     -2143.311          44.000  
G28  21442038.748 1 112678659.97921      -631.843          44.000  
E11  19543426.873 2 102701409.235 1       605.879          44.000  
E 4  21718728.561 1 114132690.432 1       990.378          45.000  
E12  21104093.789 1 110902770.186 1     -1690.253          40.000  
E19  23539483.782 2 123700787.291 1     -1971.322          37.000  
R23  16993862.787 1  90905690.27321       637.499          51.000  
R 8  17226661.205 1  92247971.97821     -1142.761          46.000  
R 1  17649895.563 1  94348750.49021      2349.009          47.000  
R24  18658712.263 1  99776512.97021      3025.415          48.000  
R22  20229218.387 1 107984818.33321     -3326.895          44.000  
R 7  20336979.681 1 108865403.49621     -3909.344          44.000  
E36  23923072.322 1 125716589.578 1      2325.813          41.000  
E 9  22324267.066 1 117314833.993 1      2999.292          43.000  
G17  22113565.792 2 116207595.24821      3223.075          34.000  
G 4  22116039.928 1 116220599.03121      3754.812          42.000  
G27  23483567.039 2 123406815.18821     -3767.035          36.000  
G31  23313802.003 9               9      2395.766          30.000  
> 2020  9 15 11  4 32.8930000  0 24                     
G22  18375471.500 1  96563747.04521        46.027          49.000  
G 1  18042948.134 1  94816348.46521       142.128          51.000  
G11  18076017.082 1  94990084.40421     -1560.636          46.000  
G 3  18684499.936 1  98187674.49221      1556.415          49.000  
G 8  20434809.475 1 107385729.03721     -3267.574          46.000  
G21  21254476.723 1 111693033.51021     -2127.659          46.000  
G32  20944514.717 1 110064128.03721     -2143.766          44.000  
G28  21442051.076 1 112678723.16821      -632.127          44.000  
E11  19543415.915 2 102701348.639 1       605.549          44.000  
E 4  21718709.959 1 114132591.417 1       989.939          45.000  
E12  21104124.728 1 110902939.234 1     -1690.726          40.000  
E19  23539520.087 2 123700984.445 1     -1971.534          37.000  
R23  16993850.301 1  90905626.53421       637.055          51.000  
R 8  17226682.399 1  92248086.27421     -1143.162          46.000  
R 1  17649851.781 1  94348515.63721      2348.298          47.000  
R24  18658656.553 1  99776210.45121      3024.908          48.000  
R22  20229280.309 1 107985151.06021     -3327.498          45.000  
R 7  20337052.282 1 108865794.45021     -3909.850          44.000  
E36  23923028.749 1 125716357.027 1      2325.293          41.000  
E 9  22324210.710 1 117314534.077 1      2998.989          43.000  
G17  22113504.324 4 116207272.98921      3222.265          34.000  
G 4  22115968.373 1 116220223.58821      3754.260          42.000  
G27  23483639.301 2 123407191.89421     -3767.360          36.000  
G31  23313765.479 9               9      2395.766          30.000  
> 2020  9 15 11  4 32.9930000  0 24                     
G22  18375469.903 1  96563742.43721        46.026          49.000  
G 1  18042945.656 1  94816334.24721       142.105          51.000  
G11  18076047.140 1  94990240.45521     -1560.598          46.000  
G 3  18684470.419 1  98187518.81921      1556.689          49.000  
G 8  20434871.310 1 107386055.78821     -3267.590          46.000  
G21  21254517.792 1 111693246.26621     -2127.665          46.000  
G32  20944554.783 1 110064342.43221     -2144.160          44.000  
G28  21442062.733 1 112678786.34821      -631.767          44.000  
E11  19543403.717 2 102701288.065 1       605.543          44.000  
E 4  21718691.008 1 114132492.426 1       989.744          45.000  
E12  21104157.622 1 110903108.332 1     -1691.044          40.000  
E19  23539558.207 2 123701181.635 1     -1972.072          37.000  
R23  16993838.339 1  90905562.81421       637.080          51.000  
R 8  17226704.176 1  92248200.60321     -1143.292          46.000  
R 1  17649807.553 1  94348280.78521      2348.460          47.000  
R24  18658599.971 1  99775907.94421      3025.061          48.000  
R22  20229342.729 1 107985483.79621     -3327.415          45.000  
R 7  20337124.806 1 108866185.43621     -3909.985          44.000  
E36  23922983.029 1 125716124.478 1      2325.411          41.000  
E 9  22324153.334 1 117314234.191 1      2998.786          43.000  
G17  22113443.405 4 116206950.70721      3222.723          34.000  
G 4  22115897.202 1 116219848.13021      3754.573          42.000  
G27  23483711.143 2 123407568.59921     -3767.226          35.000  
G31  23313727.290 9               9      2395.766          30.000  
> 2020  9 15 11  4 33.0930000  0 24                     
G22  18375469.475 1  96563737.83921        45.791          49.000  
G 1  18042943.038 1  94816320.04121       141.857          51.000  
G11  18076076.849 1  94990396.52721     -1560.864          46.000  
G 3  18684440.727 1  98187363.16421      1556.409          49.000  
G 8  20434933.869 1 107386382.55221     -3267.856          46.000  
G21  21254558.075 1 111693459.03621     -2127.932          46.000  
G32  20944596.149 1 110064556.80021     -2143.819          44.000  
G28  21442074.983 1 112678849.56521      -632.303          44.000  
E11  19543392.182 2 102701227.492 1       605.603          44.000  
E 4  21718672.528 1 114132393.444 1       989.587          45.000  
E12  21104189.818 1 110903277.401 1     -1690.802          40.000  
E19  23539596.162 2 123701378.824 1     -1972.156          36.000  
R23  16993827.031 1  90905499.11821       636.750          51.000  
R 8  17226725.754 1  92248314.94221     -1143.520          46.000  
R 1  17649763.509 1  94348045.95721      2348.124          47.000  
R24  18658543.711 1  99775605.45121      3024.756          48.000  
R22  20229405.052 1 107985816.55821     -3327.809          45.000  
R 7  20337197.521 1 108866576.40821     -3909.799          44.000  
E36  23922939.247 1 125715891.930 1      2325.408          41.000  
E 9  22324096.053 1 117313934.309 1      2998.695          43.000  
G17  22113381.666 2 116206628.43621      3222.657          34.000  
G 4  22115826.459 1 116219472.69721      3754.174          42.000  
G27  23483782.471 2 123407945.33021     -3767.429          35.000  
G31  23313684.720 9               9      2395.766          30.000  
> 2020  9 15 11  4 33.1930000  0 24                     
G22  18375468.777 1  96563733.28521        45.382          49.000  
G 1  18042940.892 1  94816305.88621       141.392          51.000  
G11  18076106.392 1  94990552.64521     -1561.336          46.000  
G 3  18684411.210 1  98187207.55621      1555.902          49.000  
G 8  20434996.358 1 107386709.36121     -3268.266          46.000  
G21  21254598.534 1 111693671.84621     -2128.273          46.000  
G32  20944636.851 1 110064771.23021     -2144.504          44.000  
G28  21442086.928 1 112678912.82721      -632.724          44.000  
E11  19543380.953 1 102701166.963 1       605.293          44.000  
E 4  21718652.774 1 114132294.505 1       989.234          45.000  
E12  21104221.420 1 110903446.529 1     -1691.420          40.000  
E19  23539633.994 2 123701576.030 1     -1972.254          36.000  
R23  16993814.738 1  90905435.45521       636.487          51.000  
R 8  17226747.087 1  92248429.31921     -1143.941          46.000  
R 1  17649719.342 1  94347811.17021      2347.720          47.000  
R24  18658486.850 1  99775303.00821      3024.219          48.000  
R22  20229467.576 1 107986149.34421     -3328.010          45.000  
R 7  20337270.410 1 108866967.44321     -3910.419          44.000  
E36  23922896.110 1 125715659.437 1      2324.764          41.000  
E 9  22324039.480 1 117313634.472 1      2998.254          43.000  
G17  22113319.918 2 116206306.22121      3222.128          34.000  
G 4  22115754.843 1 116219097.29821      3753.874          42.000  
G27  23483854.078 2 123408322.07621     -3767.801          35.000  
G31  23313637.351 9               9      2395.766          31.000  
> 2020  9 15 11  4 33.2930000  0 24                     
G22  18375467.966 1  96563728.72221        45.581          49.000  
G 1  18042938.083 1  94816291.71521       141.663          51.000  
G11  18076136.380 1  94990708.74221     -1561.035          46.000  
G 3  18684381.615 1  98187051.94321      1556.085          49.000  
G 8  20435058.402 1 107387036.15521     -3268.071          46.000  
G21  21254639.114 1 111693884.64021     -2127.990          46.000  
G32  20944677.842 1 110064985.67321     -2144.608          44.000  
G28  21442099.291 1 112678976.07921      -632.662          44.000  
E11  19543369.750 1 102701106.445 1       605.289          44.000  
E 4  21718634.486 1 114132195.561 1       989.289          45.000  
E12  21104254.139 1 110903615.646 1     -1691.217          40.000  
E19  23539671.660 2 123701773.256 1     -1972.267          36.000  
R23  16993802.968 1  90905371.79721       636.504          51.000  
R 8  17226768.481 1  92248543.70721     -1144.019          46.000  
R 1  17649675.743 1  94347576.38821      2347.757          47.000  
R24  18658430.294 1  99775000.53921      3024.634          48.000  
R22  20229529.219 1 107986482.12921     -3328.007          45.000  
R 7  20337343.082 1 108867358.47221     -3910.404          44.000  
E36  23922850.591 1 125715426.932 1      2324.984          41.000  
E 9  22323983.508 1 117313334.625 1      2998.339          43.000  
G17  22113258.494 2 116205984.00521      3222.072          34.000  
G 4  22115683.646 1 116218721.89821      3754.035          42.000  
G27  23483925.790 2 123408698.83121     -3767.611          35.000  
G31  23313593.272 9               9      2395.264          31.000  
> 2020  9 15 11  4 33.3930000  0 24                     
G22  18375466.788 1  96563724.20021        44.996          49.000  
G 1  18042935.221 1  94816277.59021       141.029          51.000  
G11  18076166.229 1  94990864.90521     -1561.872          46.000  
G 3  18684352.202 1  98186896.36021      1555.597          49.000  
G 8  20435120.237 1 107387362.98921     -3268.503          46.000  
G21  21254679.424 1 111694097.47721     -2128.644          46.000  
G32  20944718.396 1 110065200.13021     -2144.812          44.000  
G28  21442110.712 1 112679039.37221      -633.153          44.000  
E11  19543358.521 1 102701045.957 1       604.781          44.000  
E 4  21718614.933 1 114132096.647 1       988.933          45.000  
E12  21104287.085 1 110903784.792 1     -1691.669          40.000  
E19  23539708.715 2 123701970.527 1     -1972.911          36.000  
R23  16993791.433 1  90905308.18121       635.971          51.000  
R 8  17226789.936 1  92248658.12921     -1144.377          46.000  
R 1  17649631.908 1  94347341.64921      2347.211          47.000  
R24  18658373.528 1  99774698.12221      3023.907          48.000  
R22  20229591.900 1 107986814.95321     -3328.406          45.000  
R 7  20337416.329 1 108867749.52721     -3910.757          44.000  
E36  23922806.573 1 125715194.442 1      2324.729          41.000  
E 9  22323926.559 1 117313034.810 1      2998.023          43.000  
G17  22113197.147 2 116205661.81121      3221.813          34.000  
G 4  22115612.580 1 116218346.53121      3753.501          42.000  
G27  23483997.344 2 123409075.62421     -3768.051          35.000  
G31  23313550.266 9               9      2393.262          31.000  
> 2020  9 15 11  4 33.4930000  0 24                     
G22  18375465.602 1  96563719.70121        44.939          49.000  
G 1  18042932.429 1  94816263.47321       141.111          51.000  
G11  18076196.409 1  94991021.07221     -1561.777          46.000  
G 3  18684322.677 1  98186740.80621      1555.444          49.000  
G 8  20435182.883 1 107387689.84121     -3268.605          46.000  
G21  21254719.473 1 111694310.32221     -2128.517          46.000  
G32  20944759.352 1 110065414.62321     -2145.052          44.000  
G28  21442123.032 1 112679102.67921      -633.131          44.000  
E11  19543346.917 1 102700985.491 1       604.474          44.000  
E 4  21718595.913 1 114131997.775 1       988.570          45.000  
E12  21104318.443 1 110903953.963 1     -1691.779          40.000  
E19  23539746.783 1 123702167.815 1     -1973.107          36.000  
R23  16993779.165 1  90905244.58421       635.937          51.000  
R 8  17226810.850 1  92248772.58221     -1144.604          46.000  
R 1  17649588.274 1  94347106.92021      2347.204          47.000  
R24  18658317.173 1  99774395.73521      3023.785          48.000  
R22  20229653.770 1 107987147.80321     -3328.535          45.000  
R 7  20337489.053 1 108868140.59821     -3910.781          44.000  
E36  23922762.336 1 125714961.997 1      2324.373          41.000  
E 9  22323869.515 1 117312735.021 1      2997.788          43.000  
G17  22113135.653 2 116205339.65221      3221.728          34.000  
G 4  22115541.061 1 116217971.17121      3753.560          42.000  
G27  23484068.323 2 123409452.40921     -3768.020          35.000  
G31  23313502.243 9               9      2389.795          31.000  
> 2020  9 15 11  4 33.5930000  0 24                     
G22  18375464.860 1  96563715.19621        44.976          49.000  
G 1  18042930.117 1  94816249.36421       140.994          51.000  
G11  18076225.725 1  94991177.24221     -1561.770          46.000  
G 3  18684293.160 1  98186585.25321      1555.438          49.000  
G 8  20435244.901 1 107388016.70221     -3268.708          46.000  
G21  21254759.974 1 111694523.17821     -2128.641          46.000  
G32  20944800.124 1 110065629.10821     -2144.885          44.000  
G28  21442135.160 1 112679166.00721      -633.445          44.000  
E11  19543335.967 1 102700925.012 1       604.552          44.000  
E 4  21718577.468 1 114131898.880 1       988.843          45.000  
E12  21104349.592 1 110904123.144 1     -1691.924          40.000  
E19  23539785.017 1 123702365.086 1     -1972.826          36.000  
R23  16993766.627 1  90905180.99621       635.731          51.000  
R 8  17226832.034 1  92248887.02121     -1144.435          46.000  
R 1  17649544.692 1  94346872.20921      2347.013          47.000  
R24  18658260.756 1  99774093.32121      3024.084          48.000  
R22  20229716.198 1 107987480.65221     -3328.583          45.000  
R 7  20337561.646 1 108868531.68621     -3911.021          44.000  
E36  23922716.879 1 125714729.528 1      2324.641          41.000  
E 9  22323811.301 1 117312435.226 1      2997.909          43.000  
G17  22113074.228 2 116205017.42921      3222.508          34.000  
G 4  22115469.436 1 116217595.81121      3753.529          42.000  
G27  23484139.982 2 123409829.22921     -3768.353          35.000  
G31  23313459.638 9               9      2387.354          31.000  
> 2020  9 15 11  4 33.6930000  0 24                     
G22  18375463.420 1  96563710.72621        44.577          49.000  
G 1  18042927.656 1  94816235.28221       140.749          51.000  
G11  18076255.478 1  94991333.43921     -1562.078          46.000  
G 3  18684263.189 1  98186429.71421      1555.286          49.000  
G 8  20435307.312 1 107388343.57821     -3268.862          46.000  
G21  21254800.625 1 111694736.05521     -2128.894          46.000  
G32  20944840.713 1 110065843.62421     -2145.311          44.000  
G28  21442147.175 1 112679229.34621      -633.473          44.000  
E11  19543324.310 1 102700864.557 1       604.365          44.000  
E 4  21718558.718 1 114131800.019 1       988.530          45.000  
E12  21104382.198 1 110904292.334 1     -1692.089          40.000  
E19  23539821.889 1 123702562.395 1     -1973.183          36.000  
R23  16993754.822 1  90905117.42921       635.584          51.000  
R 8  17226853.681 1  92249001.52121     -1145.147          46.000  
R 1  17649500.787 1  94346637.52021      2346.759          47.000  
R24  18658204.357 1  99773790.93921      3023.810          48.000  
R22  20229778.522 1 107987813.53621     -3329.037          45.000  
R 7  20337635.128 1 108868922.78621     -3911.093          44.000  
E36  23922673.218 1 125714497.088 1      2324.318          41.000  
E 9  22323754.544 1 117312135.452 1      2997.645          43.000  
G17  22113012.699 2 116204695.34221      3220.788          34.000  
G 4  22115398.318 1 116217220.48821      3753.051          42.000  
G27  23484211.493 2 123410206.04621     -3768.390          35.000  
G31  23313414.556 9               9      2385.889          31.000  
> 2020  9 15 11  4 33.7930000  0 24                     
G22  18375462.705 1  96563706.24621        44.757          49.000  
G 1  18042924.986 1  94816221.19721       140.738          51.000  
G11  18076285.030 1  94991489.64321     -1562.169          46.000  
G 3  18684233.829 1  98186274.19121      1555.109          49.000  
G 8  20435369.409 1 107388670.45821     -3268.864          46.000  
G21  21254841.327 1 111694948.92021     -2128.737          46.000  
G32  20944881.791 1 110066058.15121     -2145.380          44.000  
G28  21442159.119 1 112679292.68021      -633.319          44.000  
E11  19543312.714 1 102700804.107 1       604.355          44.000  
E 4  21718539.828 1 114131701.168 1       988.395          45.000  
E12  21104414.795 1 110904461.525 1     -1692.057          40.000  
E19  23539859.782 1 123702759.684 1     -1973.087          37.000  
R23  16993742.948 1  90905053.86421       635.584          51.000  
R 8  17226874.988 1  92249115.99721     -1144.811          46.000  
R 1  17649456.359 1  94346402.83221      2346.797          47.000  
R24  18658148.106 1  99773488.57421      3023.608          48.000  
R22  20229840.601 1 107988146.40621     -3328.786          45.000  
R 7  20337707.913 1 108869313.88321     -3911.118          44.000  
E36  23922629.610 1 125714264.659 1      2324.231          41.000  
E 9  22323697.438 1 117311835.669 1      2997.759          43.000  
G17  22112951.509 2 116204373.15021      3221.862          34.000  
G 4  22115326.624 1 116216845.13721      3753.469          42.000  
G27  23484282.655 2 123410582.82721     -3767.997          35.000  
G31  23313365.974 9               6      2390.983          32.000  
> 2020  9 15 11  4 33.8930000  0 24                     
G22  18375461.509 1  96563701.79921        44.363          49.000  
G 1  18042922.185 1  94816207.13421       140.535          51.000  
G11  18076314.756 1  94991645.87221     -1562.414          46.000  
G 3  18684204.225 1  98186118.68621      1555.011          49.000  
G 8  20435431.566 1 107388997.35621     -3269.071          46.000  
G21  21254881.716 1 111695161.81621     -2129.058          46.000  
G32  20944922.529 1 110066272.68521     -2145.420          44.000  
G28  21442171.369 1 112679356.05721      -633.903          43.000  
E11  19543301.023 1 102700743.672 1       604.266          44.000  
E 4  21718520.746 1 114131602.337 1       988.177          45.000  
E12  21104446.781 1 110904630.741 1     -1692.242          40.000  
E19  23539897.448 1 123702957.015 1     -1973.284          37.000  
R23  16993730.968 1  90904990.34021       635.122          51.000  
R 8  17226896.487 1  92249230.51221     -1145.170          46.000  
R 1  17649412.655 1  94346168.17621      2346.488          47.000  
R24  18658091.376 1  99773186.21621      3023.486          48.000  
R22  20229903.177 1 107988479.29021     -3328.942          45.000  
R 7  20337781.091 1 108869705.00421     -3911.316          44.000  
E36  23922585.426 1 125714032.233 1      2324.027          41.000  
E 9  22323640.167 1 117311535.916 1      2997.458          43.000  
G17  22112890.268 2 116204051.02721      3221.297          34.000  
G 4  22115255.034 1 116216469.81821      3753.150          42.000  
G27  23484354.245 2 123410959.69821     -3769.139          35.000  
G31  23313316.442 9               6      2390.662          32.000  
> 2020  9 15 11  4 33.9930000  0 24                     
G22  18375460.375 1  96563697.34921        44.352          49.000  
G 1  18042919.280 1  94816193.07821       140.381          51.000  
G11  18076344.396 1  94991802.09821     -1562.394          46.000  
G 3  18684174.603 1  98185963.18121      1554.895          49.000  
G 8  20435493.558 1 107389324.26221     -3269.206          46.000  
G21  21254922.008 1 111695374.70621     -2129.083          46.000  
G32  20944963.249 1 110066487.22421     -2145.591          44.000  
G28  21442183.035 1 112679419.43421      -633.932          43.000  
E11  19543289.296 1 102700683.241 1       604.353          44.000  
E 4  21718501.900 1 114131503.491 1       988.373          45.000  
E12  21104478.654 1 110904799.948 1     -1692.211          40.000  
E19  23539934.862 1 123703154.331 1     -1973.106          37.000  
R23  16993719.294 1  90904926.80421       635.159          51.000  
R 8  17226917.811 1  92249345.04221     -1145.432          46.000  
R 1  17649368.811 1  94345933.52521      2346.344          47.000  
R24  18658034.889 1  99772883.86621      3023.358          48.000  
R22  20229965.640 1 107988812.18821     -3329.207          45.000  
R 7  20337854.530 1 108870096.12821     -3911.315          44.000  
E36  23922540.937 1 125713799.812 1      2324.075          41.000  
E 9  22323583.453 1 117311236.161 1      2997.476          43.000  
G17  22112829.166 2 116203728.93121      3220.647          34.000  
G 4  22115183.671 1 116216094.50921      3752.854          42.000  
G27  23484425.764 2 123411336.51021     -3768.255          35.000  
G31  23313266.770 9 122512086.96935      2389.117          32.000  
> 2020  9 15 11  4 34.0930000  0 24                     
G22  18375459.764 1  96563692.93521        43.941          49.000  
G 1  18042916.715 1  94816179.05021       140.137          51.000  
G11  18076374.113 1  94991958.36421     -1562.806          46.000  
G 3  18684145.208 1  98185807.71621      1554.504          49.000  
G 8  20435555.838 1 107389651.19521     -3269.509          46.000  
G21  21254962.353 1 111695587.64321     -2129.493          46.000  
G32  20945004.143 1 110066701.80621     -2145.951          44.000  
G28  21442195.154 1 112679482.83821      -634.325          43.000  
E11  19543277.796 1 102700622.844 1       603.943          44.000  
E 4  21718483.184 1 114131404.704 1       987.694          45.000  
E12  21104511.024 1 110904969.205 1     -1692.713          40.000  
E19  23539972.458 1 123703351.697 1     -1973.699          37.000  
R23  16993707.297 1  90904863.31021       634.733          51.000  
R 8  17226939.344 1  92249459.59721     -1145.780          46.000  
R 1  17649325.055 1  94345698.90921      2345.982          47.000  
R24  18657978.446 1  99772581.53021      3023.242          48.000  
R22  20230028.130 1 107989145.11121     -3329.383          45.000  
R 7  20337927.655 1 108870487.28121     -3911.601          44.000  
E36  23922496.709 1 125713567.416 1      2324.008          41.000  
E 9  22323526.400 1 117310936.438 1      2997.120          43.000  
G17  22112767.933 2 116203406.78821      3221.296          34.000  
G 4  22115112.300 1 116215719.22221      3752.735          42.000  
G27  23484497.633 2 123411713.35721     -3768.454          35.000  
G31  23313220.980 9 122511848.08525      2388.325          32.000  
> 2020  9 15 11  4 34.1930000  0 24                     
G22  18375458.892 1  96563688.52521        43.986          49.000  
G 1  18042913.818 1  94816165.02821       140.077          51.000  
G11  18076403.840 1  94992114.64321     -1562.983          46.000  
G 3  18684115.577 1  98185652.25921      1554.401          49.000  
G 8  20435618.031 1 107389978.13521     -3269.579          46.000  
G21  21255002.803 1 111695800.57321     -2129.485          46.000  
G32  20945045.160 1 110066916.38221     -2145.878          44.000  
G28  21442207.212 1 112679546.26121      -634.464          43.000  
E11  19543266.061 1 102700562.448 1       603.892          44.000  
E 4  21718464.434 1 114131305.918 1       987.700          45.000  
E12  21104543.246 1 110905138.461 1     -1692.694          40.000  
E19  23540009.993 1 123703549.069 1     -1973.744          36.000  
R23  16993695.544 1  90904799.82721       634.678          51.000  
R 8  17226960.817 1  92249574.16721     -1145.890          46.000  
R 1  17649281.167 1  94345464.29621      2345.988          47.000  
R24  18657921.725 1  99772279.21021      3023.138          48.000  
R22  20230090.601 1 107989478.04321     -3329.507          45.000  
R 7  20338000.684 1 108870878.44821     -3911.726          44.000  
E36  23922452.813 1 125713335.035 1      2323.688          41.000  
E 9  22323469.425 1 117310636.726 1      2996.961          43.000  
G17  22112706.779 2 116203084.69521      3220.861          34.000  
G 4  22115040.833 1 116215343.92521      3752.910          42.000  
G27  23484569.275 2 123412090.24321     -3769.063          35.000  
G31  23313172.277 9 122511609.13024      2389.384          32.000  
> 2020  9 15 11  4 34.2930000  0 24                     
G22  18375458.072 1  96563684.13121        43.752          49.000  
G 1  18042911.078 1  94816151.02521       139.880          51.000  
G11  18076433.592 1  94992270.93321     -1563.029          46.000  
G 3  18684085.964 1  98185496.81521      1554.272          49.000  
G 8  20435680.162 1 107390305.08821     -3269.720          46.000  
G21  21255043.314 1 111696013.50521     -2129.453          46.000  
G32  20945085.793 1 110067130.99321     -2146.200          44.000  
G28  21442219.375 1 112679609.68221      -634.284          44.000  
E11  19543254.823 1 102700502.081 1       603.560          44.000  
E 4  21718445.954 1 114131207.134 1       987.723          45.000  
E12  21104575.345 1 110905307.726 1     -1692.725          40.000  
E19  23540047.267 1 123703746.430 1     -1973.636          36.000  
R23  16993683.870 1  90904736.35521       634.574          51.000  
R 8  17226982.158 1  92249688.73921     -1145.854          46.000  
R 1  17649237.254 1  94345229.70821      2345.747          47.000  
R24  18657865.212 1  99771976.90821      3022.913          48.000  
R22  20230153.108 1 107989811.00521     -3329.763          45.000  
R 7  20338073.626 1 108871269.61821     -3911.762          44.000  
E36  23922407.949 1 125713102.650 1      2323.781          41.000  
E 9  22323412.799 1 117310337.020 1      2996.935          43.000  
G17  22112645.363 2 116202762.65621      3220.105          34.000  
G 4  22114969.374 1 116214968.64721      3752.558          42.000  
G27  23484640.708 2 123412467.10821     -3768.973          35.000  
G31  23313123.783 9 122511370.22224      2389.200          32.000  
> 2020  9 15 11  4 34.3930000  0 24                     
G22  18375457.164 1  96563679.74721        43.736          49.000  
G 1  18042908.103 1  94816137.03221       139.860          51.000  
G11  18076463.310 1  94992427.24221     -1563.282          46.000  
G 3  18684056.430 1  98185341.38221      1554.248          49.000  
G 8  20435742.407 1 107390632.05221     -3269.771          46.000  
G21  21255083.824 1 111696226.45921     -2129.612          46.000  
G32  20945126.661 1 110067345.62321     -2146.450          44.000  
G28  21442231.573 1 112679673.13121      -634.616          43.000  
E11  19543243.280 1 102700441.714 1       603.394          44.000  
E 4  21718426.742 1 114131108.384 1       987.365          45.000  
E12  21104607.637 1 110905476.986 1     -1692.622          40.000  
E19  23540084.419 1 123703943.845 1     -1974.242          36.000  
R23  16993671.986 1  90904672.90621       634.379          51.000  
R 8  17227003.491 1  92249803.34821     -1146.174          46.000  
R 1  17649193.393 1  94344995.13321      2345.660          47.000  
R24  18657808.542 1  99771674.62121      3022.754          48.000  
R22  20230215.650 1 107990143.95621     -3329.546          45.000  
R 7  20338146.655 1 108871660.80421     -3911.923          44.000  
E36  23922363.931 1 125712870.272 1      2323.751          41.000  
E 9  22323355.763 1 117310037.316 1      2997.010          43.000  
G17  22112584.121 2 116202440.55021      3220.941          34.000  
G 4  22114897.968 1 116214593.37921      3752.633          42.000  
G27  23484712.280 2 123412843.97321     -3768.772          35.000  
G31  23313078.316 9 122511131.35923      2388.357          32.000  
> 2020  9 15 11  4 34.4930000  0 24                     
G22  18375456.274 1  96563675.36821        43.693          49.000  
G 1  18042905.416 1  94816123.04121       139.797          51.000  
G11  18076493.132 1  94992583.54721     -1563.143          46.000  
G 3  18684026.808 1  98185185.94721      1554.242          49.000  
G 8  20435804.608 1 107390959.00621     -3269.555          46.000  
G21  21255124.248 1 111696439.41221     -2129.612          46.000  
G32  20945167.521 1 110067560.23921     -2146.254          44.000  
G28  21442243.700 1 112679736.58121      -634.534          44.000  
E11  19543232.068 1 102700381.343 1       603.480          44.000  
E 4  21718407.677 1 114131009.623 1       987.520          45.000  
E12  21104640.155 1 110905646.276 1     -1692.972          40.000  
E19  23540121.849 1 123704141.235 1     -1974.089          36.000  
R23  16993660.094 1  90904609.44921       634.485          51.000  
R 8  17227024.868 1  92249917.95521     -1146.069          46.000  
R 1  17649149.802 1  94344760.57021      2345.506          47.000  
R24  18657752.117 1  99771372.32321      3022.882          48.000  
R22  20230278.052 1 107990476.92721     -3329.868          45.000  
R 7  20338219.781 1 108872051.98421     -3911.884          44.000  
E36  23922319.773 1 125712637.910 1      2323.501          41.000  
E 9  22323298.666 1 117309737.619 1      2996.893          43.000  
G17  22112522.880 2 116202118.49421      3220.413          34.000  
G 4  22114826.605 1 116214218.10521      3752.624          42.000  
G27  23484783.921 2 123413220.84721     -3768.661          35.000  
G31  23313032.675 9 122510892.45523      2388.998          32.000  
> 2020  9 15 11  4 34.5930000  0 24                     
G22  18375455.454 1  96563671.00421        43.683          49.000  
G 1  18042902.746 1  94816109.06421       139.694          51.000  
G11  18076522.937 1  94992739.86321     -1563.204          46.000  
G 3  18683997.152 1  98185030.53221      1554.144          49.000  
G 8  20435866.810 1 107391285.99221     -3269.946          46.000  
G21  21255164.863 1 111696652.37221     -2129.590          46.000  
G32  20945208.346 1 110067774.86821     -2146.277          44.000  
G28  21442255.837 1 112679800.04721      -634.725          44.000  
E11  19543220.594 1 102700320.989 1       603.458          44.000  
E 4  21718389.040 1 114130910.868 1       987.597          45.000  
E12  21104672.657 1 110905815.555 1     -1692.814          40.000  
E19  23540159.367 1 123704338.622 1     -1973.945          36.000  
R23  16993648.315 1  90904546.01821       634.280          51.000  
R 8  17227046.271 1  92250032.57821     -1146.161          46.000  
R 1  17649105.767 1  94344526.01921      2345.500          47.000  
R24  18657695.596 1  99771070.06121      3022.583          48.000  
R22  20230340.523 1 107990809.90021     -3329.729          45.000  
R 7  20338292.888 1 108872443.19121     -3912.106          44.000  
E36  23922275.641 1 125712405.547 1      2323.574          41.000  
E 9  22323241.255 1 117309437.939 1      2996.708          43.000  
G17  22112461.507 2 116201796.44321      3220.314          34.000  
G 4  22114755.155 1 116213842.85421      3752.558          42.000  
G27  23484855.747 2 123413597.76221     -3769.019          35.000  
G31  23312988.229 9 122510653.55323      2389.252          33.000  
> 2020  9 15 11  4 34.6930000  0 24                     
G22  18375454.652 1  96563666.64521        43.491          49.000  
G 1  18042900.102 1  94816095.09321       139.564          51.000  
G11  18076552.699 1  94992896.20121     -1563.431          46.000  
G 3  18683967.608 1  98184875.12321      1553.967          49.000  
G 8  20435929.029 1 107391612.97821     -3269.933          46.000  
G21  21255205.452 1 111696865.34421     -2129.777          46.000  
G32  20945249.223 1 110067989.51321     -2146.585          44.000  
G28  21442267.843 1 112679863.52521      -634.884          43.000  
E11  19543209.025 1 102700260.622 1       603.718          44.000  
E 4  21718369.967 1 114130812.141 1       987.185          45.000  
E12  21104704.948 1 110905984.838 1     -1692.792          40.000  
E19  23540196.877 1 123704536.026 1     -1974.088          36.000  
R23  16993636.554 1  90904482.59421       634.090          51.000  
R 8  17227067.691 1  92250147.22121     -1146.607          46.000  
R 1  17649061.967 1  94344291.47021      2345.333          47.000  
R24  18657639.022 1  99770767.78221      3022.778          48.000  
R22  20230402.925 1 107991142.87521     -3329.790          45.000  
R 7  20338366.048 1 108872834.36921     -3911.821          44.000  
E36  23922231.510 1 125712173.187 1      2323.550          41.000  
E 9  22323184.236 1 117309138.252 1      2996.778          43.000  
G17  22112400.266 2 116201474.37821      3220.395          34.000  
G 4  22114683.740 1 116213467.60021      3752.407          42.000  
G27  23484927.397 2 123413974.65621     -3769.030          35.000  
G31  23312943.618 9 122510414.69923      2388.447          33.000  
> 2020  9 15 11  4 34.7930000  0 24                     
G22  18375453.779 1  96563662.26321        43.855          49.000  
G 1  18042897.441 1  94816081.10121       139.957          51.000  
G11  18076582.408 1  94993052.51221     -1563.102          46.000  
G 3  18683938.083 1  98184719.70021      1554.279          49.000  
G 8  20435991.195 1 107391939.94021     -3269.567          46.000  
G21  21255246.007 1 111697078.29221     -2129.403          46.000  
G32  20945290.030 1 110068204.13821     -2146.090          44.000  
G28  21442279.953 1 112679926.96421      -634.349          44.000  
E11  19543197.857 1 102700200.248 1       603.963          44.000  
E 4  21718351.287 1 114130713.382 1       987.625          45.000  
E12  21104737.135 1 110906154.130 1     -1692.791          40.000  
E19  23540234.473 1 123704733.420 1     -1973.843          36.000  
R23  16993624.626 1  90904419.15321       634.384          51.000  
R 8  17227089.076 1  92250261.84421     -1146.090          46.000  
R 1  17649018.036 1  94344056.92421      2345.459          47.000  
R24  18657582.440 1  99770465.49621      3022.968          48.000  
R22  20230465.301 1 107991475.85221     -3329.801          45.000  
R 7  20338439.191 1 108873225.54621     -3911.636          44.000  
E36  23922187.352 1 125711940.795 1      2323.974          41.000  
E 9  22323127.165 1 117308838.557 1      2996.979          43.000  
G17  22112338.981 2 116201152.25521      3221.165          34.000  
G 4  22114612.386 1 116213092.31721      3752.839          42.000  
G27  23484999.004 2 123414351.53021     -3768.970          35.000  
G31  23312892.986 9 122510175.79523      2388.813          33.000  
> 2020  9 15 11  4 34.8930000  0 24                     
G22  18375452.968 1  96563657.88521        43.773          49.000  
G 1  18042894.867 1  94816067.10121       139.971          51.000  
G11  18076612.213 1  94993208.82221     -1563.149          46.000  
G 3  18683908.513 1  98184564.26521      1554.333          49.000  
G 8  20436053.300 1 107392266.89521     -3269.519          46.000  
G21  21255286.552 1 111697291.22621     -2129.302          46.000  
G32  20945330.785 1 110068418.75121     -2146.144          44.000  
G28  21442292.029 1 112679990.41721      -634.615          44.000  
E11  19543186.392 1 102700139.879 1       603.807          44.000  
E 4  21718332.519 1 114130614.613 1       987.738          45.000  
E12  21104769.305 1 110906323.392 1     -1692.621          40.000  
E19  23540272.008 1 123704930.819 1     -1974.020          36.000  
R23  16993612.821 1  90904355.70321       634.458          51.000  
R 8  17227110.496 1  92250376.45721     -1146.185          46.000  
R 1  17648974.148 1  94343822.35421      2345.694          47.000  
R24  18657525.971 1  99770163.19421      3023.010          48.000  
R22  20230527.677 1 107991808.79121     -3329.421          45.000  
R 7  20338512.299 1 108873616.72521     -3911.831          44.000  
E36  23922143.238 1 125711708.412 1      2323.829          41.000  
E 9  22323070.120 1 117308538.840 1      2997.190          43.000  
G17  22112277.661 2 116200830.21321      3220.507          34.000  
G 4  22114541.076 1 116212717.02721      3752.890          42.000  
G27  23485070.698 2 123414728.39521     -3768.777          35.000  
G31  23312846.010 9 122509936.88422      2389.139          33.000  
> 2020  9 15 11  4 34.9930000  0 24                     
G22  18375452.156 1  96563653.49821        43.891          49.000  
G 1  18042892.223 1  94816053.10621       139.903          51.000  
G11  18076642.000 1  94993365.12621     -1563.055          46.000  
G 3  18683878.961 1  98184408.82721      1554.340          49.000  
G 8  20436115.589 1 107392593.85221     -3269.602          46.000  
G21  21255327.037 1 111697504.16521     -2129.389          46.000  
G32  20945371.654 1 110068633.37521     -2146.223          44.000  
G28  21442304.026 1 112680053.86621      -634.485          44.000  
E11  19543175.041 1 102700079.501 1       603.794          44.000  
E 4  21718313.586 1 114130515.852 1       987.617          45.000  
E12  21104801.509 1 110906492.656 1     -1692.571          40.000  
E19  23540309.622 1 123705128.193 1     -1973.631          36.000  
R23  16993601.095 1  90904292.25721       634.498          51.000  
R 8  17227131.951 1  92250491.08121     -1146.303          46.000  
R 1  17648930.322 1  94343587.79921      2345.585          47.000  
R24  18657469.406 1  99769860.89221      3023.053          48.000  
R22  20230590.096 1 107992141.75121     -3329.607          45.000  
R 7  20338585.389 1 108874007.89721     -3911.599          44.000  
E36  23922099.028 1 125711476.016 1      2323.959          41.000  
E 9  22323013.041 1 117308239.125 1      2997.221          43.000  
G17  22112216.332 2 116200508.09121      3221.426          34.000  
G 4  22114469.705 1 116212341.75221      3752.696          42.000  
G27  23485142.358 2 123415105.23421     -3768.378          35.000  
G31  23312803.876 9 122509697.98222      2388.814          33.000  
> 2020  9 15 11  4 35.0930000  0 24                     
G22  18375451.336 1  96563649.11121        43.965          49.000  
G 1  18042889.588 1  94816039.10321       140.115          51.000  
G11  18076671.823 1  94993521.43821     -1563.111          46.000  
G 3  18683849.366 1  98184253.39921      1554.272          49.000  
G 8  20436177.808 1 107392920.80121     -3269.384          46.000  
G21  21255367.530 1 111697717.09321     -2129.196          46.000  
G32  20945412.417 1 110068847.98821     -2146.061          44.000  
G28  21442316.136 1 112680117.31121      -634.430          44.000  
E11  19543163.401 1 102700019.116 1       603.821          44.000  
E 4  21718294.853 1 114130417.098 1       987.557          45.000  
E12  21104833.748 1 110906661.904 1     -1692.573          40.000  
E19  23540347.071 1 123705325.561 1     -1973.578          36.000  
R23  16993589.263 1  90904228.81121       634.526          51.000  
R 8  17227153.275 1  92250605.69321     -1146.031          46.000  
R 1  17648886.391 1  94343353.24321      2345.652          47.000  
R24  18657412.798 1  99769558.59421      3023.022          48.000  
R22  20230652.516 1 107992474.70921     -3329.552          45.000  
R 7  20338658.523 1 108874399.04621     -3911.346          44.000  
E36  23922054.835 1 125711243.618 1      2323.934          41.000  
E 9  22322955.961 1 117307939.403 1      2997.257          43.000  
G17  22112155.064 2 116200186.00521      3220.957          34.000  
G 4  22114398.333 1 116211966.44121      3753.101          42.000  
G27  23485214.052 2 123415482.09621     -3768.537          35.000  
G31  23312757.790 9 122509459.07122      2388.975          33.000  
> 2020  9 15 11  4 35.1930000  0 24                     
G22  18375450.603 1  96563644.72421        43.840          49.000  
G 1  18042887.032 1  94816025.09321       140.049          51.000  
G11  18076701.514 1  94993677.73821     -1563.025          46.000  
G 3  18683819.779 1  98184097.95221      1554.395          49.000  
G 8  20436239.974 1 107393247.74321     -3269.410          46.000  
G21  21255408.058 1 111697930.01421     -2129.168          46.000  
G32  20945453.303 1 110069062.60421     -2146.240          44.000  
G28  21442328.203 1 112680180.74821      -634.350          44.000  
E11  19543151.945 1 102699958.722 1       603.816          44.000  
E 4  21718276.068 1 114130318.326 1       987.739          45.000  
E12  21104865.909 1 110906831.156 1     -1692.611          40.000  
E19  23540384.589 1 123705522.957 1     -1974.037          36.000  
R23  16993577.423 1  90904165.36021       634.479          51.000  
R 8  17227174.756 1  92250720.31621     -1146.280          46.000  
R 1  17648842.530 1  94343118.67621      2345.628          47.000  
R24  18657356.207 1  99769256.28021      3023.077          48.000  
R22  20230714.935 1 107992807.65021     -3329.516          45.000  
R 7  20338731.709 1 108874790.21421     -3911.718          44.000  
E36  23922010.564 1 125711011.202 1      2324.178          41.000  
E 9  22322898.820 1 117307639.675 1      2997.302          43.000  
G17  22112093.770 2 116199863.89021      3221.175          34.000  
G 4  22114326.848 1 116211591.13721      3752.927          42.000  
G27  23485285.781 2 123415858.93321     -3768.266          35.000  
G31  23312709.558 9 122509220.14422      2388.965          33.000  
> 2020  9 15 11  4 35.2930000  0 24                     
G22  18375449.818 1  96563640.35721        43.552          49.000  
G 1  18042884.467 1  94816011.11221       139.672          51.000  
G11  18076731.232 1  94993834.07721     -1563.609          46.000  
G 3  18683790.192 1  98183942.53521      1554.028          49.000  
G 8  20436302.245 1 107393574.71621     -3269.902          46.000  
G21  21255448.569 1 111698142.96421     -2129.621          45.000  
G32  20945494.137 1 110069277.24321     -2146.574          44.000  
G28  21442340.200 1 112680244.22421      -635.028          44.000  
E11  19543140.446 1 102699898.344 1       603.517          44.000  
E 4  21718257.221 1 114130219.578 1       987.375          45.000  
E12  21104898.131 1 110907000.425 1     -1692.736          40.000  
E19  23540422.264 1 123705720.327 1     -1973.825          36.000  
R23  16993565.514 1  90904101.94621       633.958          51.000  
R 8  17227196.159 1  92250834.97121     -1146.758          46.000  
R 1  17648798.704 1  94342884.15221      2345.082          47.000  
R24  18657299.764 1  99768953.99221      3022.754          48.000  
R22  20230777.276 1 107993140.62421     -3329.914          45.000  
R 7  20338804.773 1 108875181.41021     -3912.137          44.000  
E36  23921966.502 1 125710778.809 1      2323.849          41.000  
E 9  22322841.732 1 117307339.966 1      2997.075          43.000  
G17  22112032.441 2 116199541.82721      3220.315          34.000  
G 4  22114255.425 1 116211215.86321      3752.589          42.000  
G27  23485357.484 2 123416235.79521     -3768.825          35.000  
G31  23312664.440 9 122508981.24722      2388.766          33.000  
> 2020  9 15 11  4 35.3930000  0 24                     
G22  18375449.041 1  96563635.99221        43.702          49.000  
G 1  18042881.736 1  94815997.13221       139.820          51.000  
G11  18076760.924 1  94993990.40821     -1563.374          46.000  
G 3  18683760.657 1  98183787.12521      1554.156          49.000  
G 8  20436364.446 1 107393901.69021     -3269.725          46.000  
G21  21255489.036 1 111698355.91421     -2129.511          45.000  
G32  20945534.996 1 110069491.88221     -2146.366          44.000  
G28  21442352.232 1 112680307.69521      -634.698          44.000  
E11  19543128.867 1 102699837.977 1       603.631          44.000  
E 4  21718238.419 1 114130120.849 1       987.242          45.000  
E12  21104930.431 1 110907169.703 1     -1692.747          40.000  
E19  23540459.808 1 123705917.763 1     -1974.525          36.000  
R23  16993553.613 1  90904038.53021       634.144          51.000  
R 8  17227217.544 1  92250949.62921     -1146.622          46.000  
R 1  17648754.851 1  94342649.62621      2345.181          47.000  
R24  18657243.164 1  99768651.70921      3022.839          48.000  
R22  20230839.634 1 107993473.60521     -3329.834          45.000  
R 7  20338877.863 1 108875572.58721     -3911.715          44.000  
E36  23921922.300 1 125710546.436 1      2323.675          41.000  
E 9  22322784.722 1 117307040.270 1      2996.930          43.000  
G17  22111971.226 2 116199219.73321      3220.797          34.000  
G 4  22114184.001 1 116210840.55321      3753.063          42.000  
G27  23485429.239 2 123416612.66121     -3768.839          35.000  
G31  23312619.707 9 122508742.31822      2389.390          33.000  
> 2020  9 15 11  4 35.4930000  0 24                     
G22  18375448.160 1  96563631.65021        43.227          49.000  
G 1  18042879.171 1  94815983.17221       139.490          51.000  
G11  18076790.694 1  94994146.76721     -1563.733          46.000  
G 3  18683731.079 1  98183631.73421      1553.772          49.000  
G 8  20436426.639 1 107394228.67421     -3269.951          46.000  
G21  21255529.503 1 111698568.86621     -2129.643          45.000  
G32  20945575.926 1 110069706.54621     -2146.814          44.000  
G28  21442364.342 1 112680371.18521      -635.000          44.000  
E11  19543117.446 1 102699777.610 1       603.606          44.000  
E 4  21718219.686 1 114130022.117 1       987.244          45.000  
E12  21104962.601 1 110907338.990 1     -1692.925          40.000  
E19  23540497.439 1 123706115.160 1     -1973.922          36.000  
R23  16993541.895 1  90903975.13021       633.851          51.000  
R 8  17227238.930 1  92251064.29721     -1146.822          46.000  
R 1  17648710.990 1  94342415.11421      2345.018          47.000  
R24  18657186.739 1  99768349.44521      3022.473          48.000  
R22  20230902.150 1 107993806.58721     -3329.935          45.000  
R 7  20338950.997 1 108875963.79421     -3912.181          44.000  
E36  23921878.134 1 125710314.051 1      2323.759          41.000  
E 9  22322727.747 1 117306740.584 1      2996.749          43.000  
G17  22111909.976 2 116198897.67821      3220.717          34.000  
G 4  22114112.586 1 116210465.29221      3752.456          42.000  
G27  23485500.977 2 123416989.54421     -3768.974          35.000  
G31  23312577.739 9 122508503.40622      2389.171          33.000  
> 2020  9 15 11  4 35.5930000  0 24                     
G22  18375447.349 1  96563627.30821        43.414          49.000  
G 1  18042876.483 1  94815969.21521       139.518          51.000  
G11  18076820.429 1  94994303.12521     -1563.675          46.000  
G 3  18683701.414 1  98183476.34321      1553.876          49.000  
G 8  20436488.875 1 107394555.66621     -3269.982          46.000  
G21  21255570.101 1 111698781.83921     -2129.826          45.000  
G32  20945616.821 1 110069921.21221     -2146.699          44.000  
G28  21442376.435 1 112680434.68021      -635.017          44.000  
E11  19543105.868 1 102699717.256 1       603.686          44.000  
E 4  21718200.944 1 114129923.398 1       987.174          45.000  
E12  21104994.718 1 110907508.277 1     -1692.847          40.000  
E19  23540534.922 1 123706312.573 1     -1974.100          36.000  
R23  16993530.064 1  90903911.74921       633.715          51.000  
R 8  17227260.324 1  92251178.98621     -1146.904          46.000  
R 1  17648667.103 1  94342180.61921      2344.936          47.000  
R24  18657130.156 1  99768047.17721      3022.607          48.000  
R22  20230964.473 1 107994139.59221     -3330.185          45.000  
R 7  20339024.044 1 108876354.99521     -3911.999          44.000  
E36  23921833.985 1 125710081.668 1      2323.867          41.000  
E 9  22322670.676 1 117306440.891 1      2996.806          43.000  
G17  22111848.647 2 116198575.63321      3219.806          34.000  
G 4  22114041.162 1 116210090.03121      3752.473          42.000  
G27  23485572.750 2 123417366.39021     -3768.481          35.000  
G31  23312530.144 9 122508264.59122      2388.068          33.000  
> 2020  9 15 11  4 35.6930000  0 24                     
G22  18375446.624 1  96563622.98721        43.137          49.000  
G 1  18042873.848 1  94815955.27821       139.328          51.000  
G11  18076850.112 1  94994459.51021     -1563.964          46.000  
G 3  18683671.862 1  98183320.96921      1553.656          49.000  
G 8  20436551.094 1 107394882.67521     -3270.090          46.000  
G21  21255610.690 1 111698994.81821     -2129.817          45.000  
G32  20945657.584 1 110070135.89921     -2146.980          44.000  
G28  21442388.546 1 112680498.20121      -635.312          44.000  
E11  19543094.333 1 102699656.936 1       603.298          44.000  
E 4  21718182.124 1 114129824.698 1       986.908          45.000  
E12  21105026.974 1 110907677.594 1     -1693.167          40.000  
E19  23540572.458 1 123706510.020 1     -1974.544          36.000  
R23  16993518.101 1  90903848.37421       633.652          51.000  
R 8  17227281.744 1  92251293.69621     -1147.253          46.000  
R 1  17648623.364 1  94341946.14521      2344.624          47.000  
R24  18657073.679 1  99767744.93821      3022.229          48.000  
R22  20231026.823 1 107994472.58721     -3329.988          45.000  
R 7  20339097.160 1 108876746.21321     -3912.287          44.000  
E36  23921790.019 1 125709849.306 1      2323.543          41.000  
E 9  22322613.788 1 117306141.223 1      2996.657          43.000  
G17  22111787.379 2 116198253.59721      3220.068          34.000  
G 4  22113969.730 1 116209714.76321      3752.515          42.000  
G27  23485644.584 2 123417743.29721     -3769.254          35.000  
G31  23312483.272 8 122508025.68622      2389.519          33.000  
> 2020  9 15 11  4 35.7930000  0 24                     
G22  18375445.839 1  96563618.66921        43.102          49.000  
G 1  18042871.170 1  94815941.34421       139.260          51.000  
G11  18076879.917 1  94994615.88721     -1563.807          46.000  
G 3  18683642.258 1  98183165.61121      1553.485          49.000  
G 8  20436613.286 1 107395209.69921     -3270.295          46.000  
G21  21255651.183 1 111699207.79121     -2129.756          45.000  
G32  20945698.461 1 110070350.59021     -2147.003          44.000  
G28  21442400.595 1 112680561.72121      -635.311          44.000  
E11  19543082.921 1 102699596.607 1       603.329          44.000  
E 4  21718163.252 1 114129726.010 1       986.844          45.000  
E12  21105059.214 1 110907846.903 1     -1693.194          40.000  
E19  23540610.010 1 123706707.471 1     -1974.461          36.000  
R23  16993506.262 1  90903785.01821       633.396          51.000  
R 8  17227303.129 1  92251408.41221     -1147.163          46.000  
R 1  17648579.424 1  94341711.68521      2344.413          47.000  
R24  18657017.070 1  99767442.69421      3022.351          48.000  
R22  20231089.112 1 107994805.61521     -3330.459          45.000  
R 7  20339170.233 1 108877137.43821     -3912.377          44.000  
E36  23921745.826 1 125709616.956 1      2323.530          41.000  
E 9  22322556.840 1 117305841.543 1      2996.839          43.000  
G17  22111726.094 2 116197931.52321      3220.671          34.000  
G 4  22113898.236 1 116209339.50321      3752.513          42.000  
G27  23485716.287 2 123418120.18821     -3769.125          35.000  
G31  23312439.053 8 122507786.84422      2388.063          33.000  
> 2020  9 15 11  4 35.8930000  0 24                     
G22  18375445.071 1  96563614.35721        43.040          49.000  
G 1  18042868.360 1  94815927.40621       139.355          51.000  
G11  18076909.669 1  94994772.28521     -1564.029          46.000  
G 3  18683612.715 1  98183010.24521      1553.687          49.000  
G 8  20436675.488 1 107395536.70621     -3270.098          46.000  
G21  21255691.677 1 111699420.78121     -2129.865          45.000  
G32  20945739.277 1 110070565.29121     -2147.023          44.000  
G28  21442412.714 1 112680625.25121      -635.334          44.000  
E11  19543071.439 1 102699536.278 1       603.221          44.000  
E 4  21718144.414 1 114129627.325 1       986.836          45.000  
E12  21105091.427 1 110908016.228 1     -1693.282          40.000  
E19  23540647.607 1 123706904.908 1     -1974.533          36.000  
R23  16993494.448 1  90903721.65821       633.596          51.000  
R 8  17227324.506 1  92251523.12621     -1147.145          46.000  
R 1  17648535.624 1  94341477.21921      2344.584          47.000  
R24  18656960.558 1  99767140.45721      3022.375          48.000  
R22  20231151.566 1 107995138.62721     -3330.122          45.000  
R 7  20339243.262 1 108877528.65021     -3912.092          44.000  
E36  23921701.599 1 125709384.601 1      2323.538          42.000  
E 9  22322499.804 1 117305541.892 1      2996.490          43.000  
G17  22111664.887 2 116197609.46921      3220.736          34.000  
G 4  22113826.908 1 116208964.25621      3752.474          42.000  
G27  23485787.981 2 123418497.07721     -3768.842          35.000  
G31  23312389.076 8 122507547.99122      2388.302          33.000  
> 2020  9 15 11  4 35.9930000  0 24                     
G22  18375444.312 1  96563610.06021        42.869          49.000  
G 1  18042865.795 1  94815913.49221       139.033          51.000  
G11  18076939.492 1  94994928.69121     -1564.196          46.000  
G 3  18683583.049 1  98182854.90221      1553.381          49.000  
G 8  20436737.654 1 107395863.73921     -3270.458          46.000  
G21  21255732.283 1 111699633.77921     -2130.095          45.000  
G32  20945780.207 1 110070780.00021     -2147.250          44.000  
G28  21442424.816 1 112680688.79521      -635.531          44.000  
E11  19543060.000 1 102699475.971 1       602.768          44.000  
E 4  21718125.551 1 114129528.655 1       986.568          45.000  
E12  21105123.649 1 110908185.540 1     -1693.275          40.000  
E19  23540685.256 1 123707102.377 1     -1974.753          36.000  
R23  16993482.651 1  90903658.32621       633.169          51.000  
R 8  17227346.065 1  92251637.88021     -1147.572          46.000  
R 1  17648491.859 1  94341242.77421      2344.345          47.000  
R24  18656903.984 1  99766838.22621      3022.260          48.000  
R22  20231214.029 1 107995471.66421     -3330.456          45.000  
R 7  20339316.422 1 108877919.90321     -3912.608          44.000  
E36  23921657.371 1 125709152.232 1      2323.676          41.000  
E 9  22322442.741 1 117305242.232 1      2996.467          43.000  
G17  22111603.567 4 116197287.45822      3219.959          34.000  
G 4  22113755.554 1 116208589.01221      3752.386          42.000  
G27  23485859.762 2 123418873.98921     -3769.382          35.000  
G31  23312345.965 8 122507309.12522      2388.720          34.000  
> 2020  9 15 11  4 36.0930000  0 24                     
G22  18375443.492 1  96563605.76521        42.870          49.000  
G 1  18042863.116 1  94815899.58521       138.955          51.000  
G11  18076969.349 1  94995085.10521     -1564.287          46.000  
G 3  18683553.550 1  98182699.57221      1553.168          49.000  
G 8  20436799.838 1 107396190.77121     -3270.324          46.000  
G21  21255772.811 1 111699846.78321     -2130.111          45.000  
G32  20945820.979 1 110070994.73121     -2147.432          44.000  
G28  21442436.918 1 112680752.34821      -635.628          44.000  
E11  19543048.527 1 102699415.659 1       602.862          44.000  
E 4  21718106.818 1 114129429.986 1       986.583          45.000  
E12  21105155.932 1 110908354.882 1     -1693.545          40.000  
E19  23540722.783 1 123707299.831 1     -1974.740          36.000  
R23  16993470.715 1  90903594.49011       633.217          51.000  
R 8  17227367.355 1  92251752.624 1     -1147.508          46.000  
R 1  17648447.963 1  94341007.84211      2344.121          47.000  
R24  18656847.384 1  99766535.51611      3021.979          48.000  
R22  20231276.370 1 107995804.703 1     -3330.443          45.000  
R 7  20339389.599 1 108878311.137 1     -3912.463          44.000  
E36  23921613.222 1 125708919.899 1      2323.238          42.000  
E 9  22322385.775 1 117304942.579 1      2996.446          43.000  
G17  22111542.265 4 116196965.41322      3220.312          34.000  
G 4  22113684.096 1 116208213.78121      3752.168          42.000  
G27  23485931.526 2 123419250.88621     -3769.030          35.000  
G31  23312299.155 8 122507070.28422      2388.238          34.000  
> 2020  9 15 11  4 36.1930000  0 24                     
G22  18375442.716 1  96563601.49121        42.692          49.000  
G 1  18042860.377 1  94815885.68621       138.976          51.000  
G11  18076999.136 1  94995241.54321     -1564.507          46.000  
G 3  18683523.954 1  98182544.24121      1553.247          49.000  
G 8  20436862.074 1 107396517.82021     -3270.559          46.000  
G21  21255813.383 1 111700059.79121     -2130.079          45.000  
G32  20945861.961 1 110071209.46521     -2147.468          44.000  
G28  21442449.046 1 112680815.92121      -635.855          44.000  
E11  19543037.123 1 102699355.350 1       602.969          44.000  
E 4  21718088.111 1 114129331.335 1       986.456          45.000  
E12  21105188.241 1 110908524.221 1     -1693.464          40.000  
E19  23540760.431 1 123707497.304 1     -1974.737          36.000  
R23  16993458.841 1  90903531.176 1       633.069          51.000  
R 8  17227388.862 1  92251867.407 1     -1147.982          46.000  
R 1  17648404.041 1  94340773.420 1      2344.135          47.000  
R24  18656790.933 1  99766233.310 1      3022.040          48.000  
R22  20231338.798 1 107996137.763 1     -3330.741          45.000  
R 7  20339462.698 1 108878702.399 1     -3912.674          44.000  
E36  23921568.942 1 125708687.571 1      2323.226          41.000  
E 9  22322328.660 1 117304642.936 1      2996.375          43.000  
G17  22111480.936 4 116196643.41922      3219.982          34.000  
G 4  22113612.707 1 116207838.53221      3752.417          42.000  
G27  23486003.273 2 123419627.79121     -3769.161          35.000  
G31  23312252.755 8 122506831.47322      2387.987          34.000  
> 2020  9 15 11  4 36.2930000  0 24                     
G22  18375441.895 1  96563597.22121        42.663          49.000  
G 1  18042857.707 1  94815871.78921       138.926          51.000  
G11  18077028.845 1  94995397.97021     -1564.320          47.000  
G 3  18683494.402 1  98182388.93221      1552.991          49.000  
G 8  20436924.232 1 107396844.88021     -3270.719          46.000  
G21  21255853.902 1 111700272.82221     -2130.325          45.000  
G32  20945902.725 1 110071424.19821     -2147.313          44.000  
G28  21442461.174 1 112680879.48321      -635.620          44.000  
E11  19543025.536 1 102699295.060 1       602.878          44.000  
E 4  21718069.300 1 114129232.695 1       986.299          45.000  
E12  21105220.410 1 110908693.567 1     -1693.522          40.000  
E19  23540797.993 1 123707694.797 1     -1974.940          36.000  
R23  16993446.948 1  90903467.877 1       632.930          51.000  
R 8  17227410.291 1  92251982.183 1     -1147.871          46.000  
R 1  17648360.311 1  94340539.017 1      2343.917          47.000  
R24  18656734.403 1  99765931.108 1      3022.015          48.000  
R22  20231401.226 1 107996470.823 1     -3330.662          45.000  
R 7  20339535.719 1 108879093.645 1     -3912.416          44.000  
E36  23921524.750 1 125708455.224 1      2323.400          41.000  
E 9  22322271.563 1 117304343.314 1      2996.143          43.000  
G17  22111419.660 4 116196321.36722      3220.918          34.000  
G 4  22113541.222 1 116207463.30721      3752.306          42.000  
G27  23486075.133 2 123420004.72421     -3769.334          35.000  
G31  23312207.672 8 122506592.61122      2388.901          34.000  
> 2020  9 15 11  4 36.3930000  0 24                     
G22  18375441.145 1  96563592.94121        42.854          49.000  
G 1  18042855.002 1  94815857.89221       139.046          51.000  
G11  18077058.659 1  94995554.41321     -1564.367          47.000  
G 3  18683464.772 1  98182233.60221      1553.381          49.000  
G 8  20436986.486 1 107397171.91221     -3270.118          46.000  
G21  21255894.431 1 111700485.81621     -2129.860          45.000  
G32  20945943.602 1 110071638.93421     -2147.269          44.000  
G28  21442473.241 1 112680943.04821      -635.558          44.000  
E11  19543014.132 1 102699234.756 1       603.245          44.000  
E 4  21718050.602 1 114129134.029 1       986.679          45.000  
E12  21105252.745 1 110908862.898 1     -1693.302          40.000  
E19  23540835.572 1 123707892.266 1     -1974.660          36.000  
R23  16993435.100 1  90903404.559 1       633.244          51.000  
R 8  17227431.702 1  92252096.956 1     -1147.728          46.000  
R 1  17648316.484 1  94340304.607 1      2344.139          47.000  
R24  18656677.873 1  99765628.898 1      3022.070          48.000  
R22  20231463.750 1 107996803.871 1     -3330.412          45.000  
R 7  20339608.861 1 108879484.906 1     -3912.563          44.000  
E36  23921480.557 1 125708222.889 1      2323.427          41.000  
E 9  22322214.536 1 117304043.656 1      2996.580          43.000  
G17  22111358.392 2 116195999.35522      3220.405          34.000  
G 4  22113469.842 1 116207088.07821      3752.346          42.000  
G27  23486146.818 2 123420381.60621     -3768.744          35.000  
G31  23312161.482 8 122506353.79122      2387.950          34.000  
> 2020  9 15 11  4 36.4930000  0 24                     
G22  18375440.438 1  96563588.65421        42.864          49.000  
G 1  18042852.376 1  94815843.98121       139.010          51.000  
G11  18077088.473 1  94995710.84121     -1564.332          47.000  
G 3  18683435.220 1  98182078.28021      1553.088          49.000  
G 8  20437048.748 1 107397498.95621     -3270.544          46.000  
G21  21255934.950 1 111700698.81821     -2130.094          45.000  
G32  20945984.470 1 110071853.66021     -2147.343          44.000  
G28  21442485.290 1 112681006.63121      -635.879          44.000  
E11  19543002.650 1 102699174.430 1       603.429          44.000  
E 4  21718031.765 1 114129035.372 1       986.521          45.000  
E12  21105284.915 1 110909032.242 1     -1693.499          40.000  
E19  23540873.151 1 123708089.741 1     -1974.858          36.000  
R23  16993423.303 1  90903341.244 1       633.084          51.000  
R 8  17227453.122 1  92252211.733 1     -1147.922          46.000  
R 1  17648272.711 1  94340070.188 1      2344.092          47.000  
R24  18656621.291 1  99765326.678 1      3022.156          48.000  
R22  20231526.152 1 107997136.910 1     -3330.476          45.000  
R 7  20339681.908 1 108879876.158 1     -3912.559          44.000  
E36  23921436.242 1 125707990.523 1      2323.712          41.000  
E 9  22322157.552 1 117303743.988 1      2996.691          43.000  
G17  22111297.080 2 116195677.37621      3219.721          34.000  
G 4  22113398.514 1 116206712.81721      3752.560          42.000  
G27  23486218.548 2 123420758.50621     -3768.786          35.000  
G31  23312116.285 8 122506114.95022      2388.487          34.000  
> 2020  9 15 11  4 36.5930000  0 24                     
G22  18375439.705 1  96563584.37021        42.828          49.000  
G 1  18042849.671 1  94815830.07721       139.063          51.000  
G11  18077118.382 1  94995867.26421     -1564.157          47.000  
G 3  18683405.633 1  98181922.94621      1553.387          49.000  
G 8  20437110.967 1 107397825.98921     -3270.322          46.000  
G21  21255975.583 1 111700911.81421     -2129.918          45.000  
G32  20946025.374 1 110072068.39621     -2147.391          44.000  
G28  21442497.365 1 112681070.19021      -635.595          44.000  
E11  19542991.316 1 102699114.136 1       603.042          44.000  
E 4  21718012.962 1 114128936.710 1       986.599          45.000  
E12  21105317.084 1 110909201.576 1     -1693.268          40.000  
E19  23540910.756 1 123708287.199 1     -1974.617          36.000  
R23  16993411.454 1  90903277.940 1       633.021          51.000  
R 8  17227474.508 1  92252326.508 1     -1147.707          46.000  
R 1  17648228.893 1  94339835.765 1      2344.267          47.000  
R24  18656564.735 1  99765024.461 1      3022.174          48.000  
R22  20231588.572 1 107997469.961 1     -3330.473          45.000  
R 7  20339754.998 1 108880267.380 1     -3912.213          44.000  
E36  23921392.154 1 125707758.171 1      2323.463          41.000  
E 9  22322100.612 1 117303444.335 1      2996.541          43.000  
G17  22111235.743 4 116195355.30622      3220.637          34.000  
G 4  22113327.021 1 116206337.56821      3752.423          42.000  
G27  23486290.242 2 123421135.37021     -3768.754          35.000  
G31  23312068.036 8 122505876.07322      2388.639          34.000  
> 2020  9 15 11  4 36.6930000  0 24                     
G22  18375438.911 1  96563580.06821        43.148          49.000  
G 1  18042846.896 1  94815816.14521       139.427          51.000  
G11  18077148.074 1  94996023.67321     -1563.986          47.000  
G 3  18683376.037 1  98181767.59021      1553.625          49.000  
G 8  20437173.124 1 107398153.00921     -3270.091          46.000  
G21  21256016.120 1 111701124.78321     -2129.516          45.000  
G32  20946066.382 1 110072283.10521     -2147.015          44.000  
G28  21442509.389 1 112681133.73221      -635.425          44.000  
E11  19542979.860 1 102699053.808 1       603.286          44.000  
E 4  21717994.308 1 114128838.030 1       986.925          45.000  
E12  21105349.280 1 110909370.860 1     -1692.644          40.000  
E19  23540948.466 1 123708484.650 1     -1974.534          36.000  
R23  16993399.510 1  90903214.603 1       633.495          51.000  
R 8  17227495.936 1  92252441.266 1     -1147.537          46.000  
R 1  17648185.137 1  94339601.341 1      2344.335          47.000  
R24  18656508.196 1  99764722.218 1      3022.516          48.000  
R22  20231650.956 1 107997802.983 1     -3330.102          45.000  
R 7  20339828.150 1 108880658.609 1     -3912.347          44.000  
E36  23921347.831 1 125707525.786 1      2323.963          41.000  
E 9  22322043.568 1 117303144.670 1      2996.778          43.000  
G17  22111174.528 4 116195033.28122      3220.151          34.000  
G 4  22113255.623 1 116205962.28921      3752.958          42.000  
G27  23486362.014 2 123421512.27021     -3769.057          35.000  
G31  23312025.160 8 122505637.23322      2388.523          34.000  
> 2020  9 15 11  4 36.7930000  0 24                     
G22  18375438.257 1  96563575.76521        42.930          49.000  
G 1  18042844.331 1  94815802.22921       139.019          51.000  
G11  18077177.940 1  94996180.09521     -1564.305          47.000  
G 3  18683346.520 1  98181612.25121      1553.241          49.000  
G 8  20437235.334 1 107398480.02521     -3270.272          46.000  
G21  21256056.674 1 111701337.76121     -2129.825          45.000  
G32  20946107.276 1 110072497.82021     -2147.312          44.000  
G28  21442521.543 1 112681197.28521      -635.653          44.000  
E11  19542968.369 1 102698993.467 1       603.217          44.000  
E 4  21717975.549 1 114128739.360 1       986.628          45.000  
E12  21105381.615 1 110909540.183 1     -1693.262          40.000  
E19  23540985.975 1 123708682.101 1     -1974.638          36.000  
R23  16993387.740 1  90903151.277 1       633.150          51.000  
R 8  17227517.357 1  92252556.038 1     -1147.862          46.000  
R 1  17648141.293 1  94339366.917 1      2344.106          47.000  
R24  18656451.709 1  99764419.983 1      3022.265          48.000  
R22  20231713.175 1 107998136.010 1     -3330.383          45.000  
R 7  20339901.362 1 108881049.831 1     -3912.443          44.000  
E36  23921303.716 1 125707293.404 1      2323.760          41.000  
E 9  22321986.750 1 117302844.976 1      2996.861          43.000  
G17  22111113.242 4 116194711.23422      3220.067          34.000  
G 4  22113184.243 1 116205587.01121      3752.701          42.000  
G27  23486433.691 2 123421889.12021     -3768.607          35.000  
G31  23311978.595 8 122505398.32821      2389.040          34.000  
> 2020  9 15 11  4 36.8930000  0 24                     
G22  18375437.498 1  96563571.46621        43.024          49.000  
G 1  18042841.600 1  94815788.31121       139.254          51.000  
G11  18077207.640 1  94996336.50021     -1563.973          47.000  
G 3  18683316.968 1  98181456.91521      1553.393          49.000  
G 8  20437297.571 1 107398807.05121     -3270.175          46.000  
G21  21256097.220 1 111701550.73721     -2129.748          45.000  
G32  20946148.136 1 110072712.54621     -2147.279          44.000  
G28  21442533.610 1 112681260.81221      -635.073          44.000  
E11  19542956.983 1 102698933.137 1       603.161          44.000  
E 4  21717956.746 1 114128640.692 1       986.693          45.000  
E12  21105413.889 1 110909709.488 1     -1692.997          40.000  
E19  23541023.581 1 123708879.555 1     -1974.618          36.000  
R23  16993375.935 1  90903087.961 1       633.231          51.000  
R 8  17227538.794 1  92252670.809 1     -1147.658          46.000  
R 1  17648097.502 1  94339132.499 1      2344.274          47.000  
R24  18656395.188 1  99764117.748 1      3022.461          48.000  
R22  20231775.725 1 107998469.041 1     -3330.217          45.000  
R 7  20339974.444 1 108881441.051 1     -3912.126          44.000  
E36  23921259.463 1 125707061.029 1      2323.798          41.000  
E 9  22321929.705 1 117302545.297 1      2996.838          43.000  
G17  22111051.905 4 116194389.17122      3220.805          34.000  
G 4  22113112.811 1 116205211.74121      3752.772          42.000  
G27  23486505.412 2 123422266.00521     -3768.748          35.000  
G31  23311934.533 8 122505159.44522      2389.401          34.000  
> 2020  9 15 11  4 36.9930000  0 24                     
G22  18375436.660 1  96563567.14921        43.201          49.000  
G 1  18042838.887 1  94815774.36621       139.492          51.000  
G11  18077237.349 1  94996492.90621     -1563.989          47.000  
G 3  18683287.442 1  98181301.55021      1553.662          49.000  
G 8  20437359.824 1 107399134.04121     -3269.881          46.000  
G21  21256137.739 1 111701763.68621     -2129.396          45.000  
G32  20946189.039 1 110072927.25221     -2146.993          44.000  
G28  21442545.703 1 112681324.34921      -635.402          44.000  
E11  19542945.431 1 102698872.776 1       603.499          44.000  
E 4  21717938.083 1 114128542.002 1       986.960          45.000  
E12  21105446.120 1 110909878.783 1     -1692.912          40.000  
E19  23541061.099 1 123709076.962 1     -1973.876          36.000  
R23  16993364.077 1  90903024.625 1       633.383          51.000  
R 8  17227560.232 1  92252785.567 1     -1147.576          46.000  
R 1  17648053.614 1  94338898.066 1      2344.409          47.000  
R24  18656338.737 1  99763815.487 1      3022.589          48.000  
R22  20231838.162 1 107998802.049 1     -3330.023          45.000  
R 7  20340047.586 1 108881832.242 1     -3911.918          44.000  
E36  23921215.174 1 125706828.636 1      2323.997          41.000  
E 9  22321872.608 1 117302245.605 1      2996.946          43.000  
G17  22110990.602 2 116194067.09022      3220.841          34.000  
G 4  22113041.343 1 116204836.42921      3753.244          42.000  
G27  23486577.062 2 123422642.85021     -3768.513          35.000  
G31  23311885.489 8 122504920.56122      2389.225          33.000  
> 2020  9 15 11  4 37.0930000  0 24                     
G22  18375435.936 1  96563562.87121        42.716          49.000  
G 1  18042836.269 1  94815760.47021       138.847          51.000  
G11  18077267.181 1  94996649.34621     -1564.503          47.000  
G 3  18683257.821 1  98181146.22721      1553.174          49.000  
G 8  20437421.999 1 107399461.08421     -3270.438          46.000  
G21  21256178.267 1 111701976.68121     -2130.024          45.000  
G32  20946229.899 1 110073141.97421     -2147.226          44.000  
G28  21442557.743 1 112681387.93721      -635.966          43.000  
E11  19542934.018 1 102698812.451 1       603.311          44.000  
E 4  21717919.246 1 114128443.346 1       986.530          45.000  
E12  21105478.359 1 110910048.105 1     -1693.394          40.000  
E19  23541098.686 1 123709274.431 1     -1974.604          36.000  
R23  16993352.316 1  90902961.325 1       632.909          51.000  
R 8  17227581.669 1  92252900.370 1     -1148.114          46.000  
R 1  17648009.832 1  94338663.681 1      2343.714          47.000  
R24  18656282.207 1  99763513.266 1      3022.101          48.000  
R22  20231900.590 1 107999135.093 1     -3330.506          45.000  
R 7  20340120.685 1 108882223.481 1     -3912.377          44.000  
E36  23921170.877 1 125706596.255 1      2323.808          41.000  
E 9  22321815.537 1 117301945.935 1      2996.680          43.000  
G17  22110929.247 4 116193745.08322      3219.894          34.000  
G 4  22112969.902 1 116204461.17221      3752.616          42.000  
G27  23486648.739 2 123423019.72021     -3768.752          35.000  
G31  23311838.269 8 122504681.72122      2388.847          33.000  
> 2020  9 15 11  4 37.1930000  0 24                     
G22  18375435.107 1  96563558.57321        42.919          49.000  
G 1  18042833.486 1  94815746.54121       139.266          51.000  
G11  18077296.863 1  94996805.77121     -1564.294          47.000  
G 3  18683228.243 1  98180990.88521      1553.375          48.000  
G 8  20437484.174 1 107399788.10021     -3270.228          46.000  
G21  21256218.830 1 111702189.65521     -2129.854          45.000  
G32  20946270.829 1 110073356.70521     -2147.399          44.000  
G28  21442569.897 1 112681451.48921      -635.515          43.000  
E11  19542922.606 1 102698752.124 1       603.369          44.000  
E 4  21717900.556 1 114128344.680 1       986.574          45.000  
E12  21105510.590 1 110910217.395 1     -1692.907          40.000  
E19  23541136.257 1 123709471.902 1     -1974.829          36.000  
R23  16993340.563 1  90902898.015 1       633.028          51.000  
R 8  17227603.090 1  92253015.153 1     -1147.855          46.000  
R 1  17647966.032 1  94338429.268 1      2344.050          47.000  
R24  18656225.616 1  99763211.025 1      3022.387          48.000  
R22  20231962.940 1 107999468.118 1     -3330.344          45.000  
R 7  20340193.775 1 108882614.695 1     -3912.164          44.000  
E36  23921126.579 1 125706363.862 1      2323.867          41.000  
E 9  22321758.414 1 117301646.252 1      2996.772          43.000  
G17  22110868.058 2 116193422.99221      3220.990          34.000  
G 4  22112898.487 1 116204085.87921      3752.959          42.000  
G27  23486720.407 2 123423396.53121     -3768.125          35.000  
G31  23311792.409 8 122504442.81522      2388.950          33.000  
> 2020  9 15 11  4 37.2930000  0 24                     
G22  18375434.270 1  96563554.27721        42.944          49.000  
G 1  18042830.834 1  94815732.61721       139.201          51.000  
G11  18077326.616 1  94996962.19421     -1564.177          47.000  
G 3  18683198.638 1  98180835.54721      1553.418          48.000  
G 8  20437546.358 1 107400115.11521     -3270.122          46.000  
G21  21256259.384 1 111702402.62421     -2129.630          45.000  
G32  20946311.758 1 110073571.44021     -2147.377          44.000  
G28  21442581.964 1 112681515.03721      -635.449          43.000  
E11  19542911.141 1 102698691.778 1       603.640          44.000  
E 4  21717881.815 1 114128246.008 1       986.769          45.000  
E12  21105542.637 1 110910386.701 1     -1692.938          40.000  
E19  23541173.940 1 123709669.336 1     -1974.435          36.000  
R23  16993328.714 1  90902834.703 1       633.105          51.000  
R 8  17227624.527 1  92253129.943 1     -1147.870          46.000  
R 1  17647922.136 1  94338194.863 1      2344.061          47.000  
R24  18656169.129 1  99762908.784 1      3022.412          49.000  
R22  20232025.429 1 107999801.143 1     -3330.301          45.000  
R 7  20340266.892 1 108883005.923 1     -3912.324          44.000  
E36  23921082.378 1 125706131.467 1      2323.952          41.000  
E 9  22321701.491 1 117301346.559 1      2997.000          43.000  
G17  22110806.790 2 116193100.93621      3220.505          34.000  
G 4  22112827.203 1 116203710.60521      3752.674          42.000  
G27  23486792.127 2 123423773.41821     -3768.893          35.000  
G31  23311746.428 8 122504203.97422      2388.621          33.000  
> 2020  9 15 11  4 37.3930000  0 24                     
G22  18375433.458 1  96563550.01721        42.421          49.000  
G 1  18042828.277 1  94815718.73121       138.726          51.000  
G11  18077356.360 1  94997118.65521     -1564.836          47.000  
G 3  18683169.069 1  98180680.24621      1552.808          48.000  
G 8  20437608.621 1 107400442.17121     -3270.806          46.000  
G21  21256299.851 1 111702615.62421     -2130.217          45.000  
G32  20946352.644 1 110073786.18921     -2147.660          44.000  
G28  21442593.996 1 112681578.63721      -636.162          43.000  
E11  19542899.641 1 102698631.489 1       602.827          44.000  
E 4  21717863.073 1 114128147.376 1       986.144          45.000  
E12  21105574.842 1 110910556.042 1     -1693.635          40.000  
E19  23541211.528 1 123709866.833 1     -1974.979          36.000  
R23  16993316.892 1  90902771.428 1       632.519          51.000  
R 8  17227646.008 1  92253244.769 1     -1148.370          46.000  
R 1  17647878.327 1  94337960.494 1      2343.499          47.000  
R24  18656112.660 1  99762606.582 1      3021.856          48.000  
R22  20232087.831 1 108000134.206 1     -3330.873          46.000  
R 7  20340339.886 1 108883397.154 1     -3912.457          44.000  
E36  23921038.237 1 125705899.092 1      2323.704          41.000  
E 9  22321644.560 1 117301046.893 1      2996.577          43.000  
G17  22110745.497 2 116192778.91521      3220.056          34.000  
G 4  22112755.762 1 116203335.33721      3752.663          42.000  
G27  23486863.891 2 123424150.27321     -3768.751          35.000  
G31  23311702.829 8 122503965.11222      2388.148          33.000  
> 2020  9 15 11  4 37.4930000  0 24                     
G22  18375432.629 1  96563545.78121        42.252          49.000  
G 1  18042825.747 1  94815704.86521       138.576          51.000  
G11  18077386.200 1  94997275.14521     -1564.926          47.000  
G 3  18683139.447 1  98180524.96321      1552.704          48.000  
G 8  20437670.839 1 107400769.23521     -3270.720          46.000  
G21  21256340.441 1 111702828.65521     -2130.375          45.000  
G32  20946393.477 1 110074000.98921     -2148.170          44.000  
G28  21442606.045 1 112681642.26721      -636.423          43.000  
E11  19542888.072 1 102698571.217 1       602.518          44.000  
E 4  21717844.367 1 114128048.768 1       985.972          45.000  
E12  21105607.037 1 110910725.403 1     -1693.664          40.000  
E19  23541249.081 1 123710064.317 1     -1974.816          36.000  
R23  16993305.095 1  90902708.179 1       632.412          51.000  
R 8  17227667.402 1  92253359.632 1     -1148.833          46.000  
R 1  17647834.562 1  94337726.170 1      2343.153          47.000  
R24  18656056.061 1  99762304.404 1      3021.698          49.000  
R22  20232150.233 1 108000467.299 1     -3331.035          46.000  
R 7  20340412.985 1 108883788.427 1     -3912.918          44.000  
E36  23920994.219 1 125705666.744 1      2323.303          41.000  
E 9  22321587.628 1 117300747.275 1      2996.127          43.000  
G17  22110684.246 2 116192456.91421      3219.790          34.000  
G 4  22112684.382 1 116202960.09421      3752.339          42.000  
G27  23486935.647 2 123424527.18321     -3769.150          35.000  
G31  23311655.521 8 122503726.29922      2388.233          33.000  
> 2020  9 15 11  4 37.5930000  0 24                     
G22  18375431.853 1  96563541.54121        42.277          49.000  
G 1  18042823.112 1  94815691.00021       138.546          51.000  
G11  18077415.996 1  94997431.62521     -1564.776          47.000  
G 3  18683109.808 1  98180369.67521      1552.869          48.000  
G 8  20437733.093 1 107401096.30521     -3270.788          46.000  
G21  21256380.916 1 111703041.66721     -2130.183          45.000  
G32  20946434.372 1 110074215.77321     -2148.003          44.000  
G28  21442618.121 1 112681705.87221      -636.046          43.000  
E11  19542876.555 1 102698510.920 1       602.809          44.000  
E 4  21717825.564 1 114127950.160 1       986.051          45.000  
E12  21105639.207 1 110910894.752 1     -1693.596          40.000  
E19  23541286.599 1 123710261.836 1     -1975.284          36.000  
R23  16993293.212 1  90902644.918 1       632.526          51.000  
R 8  17227688.726 1  92253474.477 1     -1148.529          46.000  
R 1  17647790.744 1  94337491.821 1      2343.356          47.000  
R24  18655999.653 1  99762002.204 1      3021.997          49.000  
R22  20232212.661 1 108000800.367 1     -3330.796          46.000  
R 7  20340485.953 1 108884179.706 1     -3912.898          44.000  
E36  23920949.878 1 125705434.400 1      2323.315          41.000  
E 9  22321530.531 1 117300447.636 1      2996.343          43.000  
G17  22110622.917 2 116192134.89221      3220.063          34.000  
G 4  22112612.905 1 116202584.84821      3752.513          42.000  
G27  23487007.341 2 123424904.03421     -3768.419          35.000  
G31  23311610.727 8 122503487.47622      2387.957          33.000  
> 2020  9 15 11  4 37.6930000  0 24                     
G22  18375431.094 1  96563537.32721        42.026          49.000  
G 1  18042820.538 1  94815677.16821       138.170          51.000  
G11  18077445.783 1  94997588.16121     -1565.475          47.000  
G 3  18683080.326 1  98180214.42821      1552.386          48.000  
G 8  20437795.338 1 107401423.40821     -3271.248          46.000  
G21  21256421.480 1 111703254.71721     -2130.653          45.000  
G32  20946475.301 1 110074430.58121     -2148.207          44.000  
G28  21442630.127 1 112681769.53621      -636.840          43.000  
E11  19542865.055 1 102698450.664 1       602.294          44.000  
E 4  21717806.683 1 114127851.579 1       985.684          45.000  
E12  21105671.490 1 110911064.140 1     -1694.028          40.000  
E19  23541324.222 1 123710459.354 1     -1975.297          36.000  
R23  16993281.450 1  90902581.714 1       631.908          51.000  
R 8  17227710.164 1  92253589.370 1     -1149.042          46.000  
R 1  17647746.857 1  94337257.516 1      2342.937          47.000  
R24  18655943.071 1  99761700.043 1      3021.521          49.000  
R22  20232275.098 1 108001133.488 1     -3331.342          46.000  
R 7  20340559.035 1 108884570.999 1     -3912.943          44.000  
E36  23920905.694 1 125705202.064 1      2323.280          41.000  
E 9  22321473.635 1 117300148.018 1      2996.114          43.000  
G17  22110561.606 2 116191812.91821      3219.452          34.000  
G 4  22112541.569 1 116202209.63321      3752.151          42.000  
G27  23487079.053 2 123425280.98421     -3769.635          35.000  
G31  23311564.466 4 122503248.68922      2387.689          33.000  
> 2020  9 15 11  4 37.7930000  0 24                     
G22  18375430.212 1  96563533.13121        41.887          49.000  
G 1  18042817.868 1  94815663.33421       138.242          51.000  
G11  18077475.632 1  94997744.68221     -1565.322          47.000  
G 3  18683050.765 1  98180059.18821      1552.325          48.000  
G 8  20437857.583 1 107401750.51021     -3271.168          46.000  
G21  21256461.990 1 111703467.77021     -2130.599          45.000  
G32  20946516.222 1 110074645.40121     -2148.317          44.000  
G28  21442642.211 1 112681833.18321      -636.548          43.000  
E11  19542853.581 1 102698390.422 1       602.207          44.000  
E 4  21717787.872 1 114127753.013 1       985.505          45.000  
E12  21105703.676 1 110911233.529 1     -1693.999          40.000  
E19  23541361.897 1 123710656.904 1     -1975.538          36.000  
R23  16993269.680 1  90902518.510 1       631.930          51.000  
R 8  17227731.549 1  92253704.287 1     -1149.269          46.000  
R 1  17647702.996 1  94337023.221 1      2342.840          47.000  
R24  18655886.602 1  99761397.889 1      3021.454          49.000  
R22  20232337.683 1 108001466.604 1     -3331.197          46.000  
R 7  20340632.081 1 108884962.297 1     -3913.058          44.000  
E36  23920861.458 1 125704969.752 1      2323.044          41.000  
E 9  22321416.651 1 117299848.419 1      2995.875          43.000  
G17  22110500.330 2 116191490.91921      3220.063          34.000  
G 4  22112470.224 1 116201834.41821      3752.098          42.000  
G27  23487150.773 2 123425657.90021     -3769.316          35.000  
G31  23311517.778 4 122503009.86322      2387.949          33.000  
> 2020  9 15 11  4 37.8930000  0 24                     
G22  18375429.419 1  96563528.94721        41.777          49.000  
G 1  18042815.233 1  94815649.52621       137.977          51.000  
G11  18077505.385 1  94997901.22321     -1565.469          47.000  
G 3  18683021.187 1  98179903.96021      1552.246          48.000  
G 8  20437919.845 1 107402077.62621     -3271.221          46.000  
G21  21256502.579 1 111703680.83221     -2130.691          45.000  
G32  20946557.152 1 110074860.26121     -2148.678          44.000  
G28  21442654.313 1 112681896.85721      -636.738          43.000  
E11  19542841.986 1 102698330.161 1       602.639          44.000  
E 4  21717769.252 1 114127654.456 1       985.480          45.000  
E12  21105735.846 1 110911402.929 1     -1694.056          40.000  
E19  23541399.485 1 123710854.456 1     -1975.648          36.000  
R23  16993257.936 1  90902455.319 1       631.800          51.000  
R 8  17227752.952 1  92253819.204 1     -1149.255          46.000  
R 1  17647659.213 1  94336788.940 1      2342.723          47.000  
R24  18655830.133 1  99761095.753 1      3021.289          49.000  
R22  20232400.094 1 108001799.745 1     -3331.494          46.000  
R 7  20340705.119 1 108885353.616 1     -3913.267          44.000  
E36  23920817.326 1 125704737.440 1      2323.068          41.000  
E 9  22321359.598 1 117299548.823 1      2995.938          43.000  
G17  22110439.010 2 116191168.97021      3219.401          34.000  
G 4  22112398.817 1 116201459.20621      3752.157          42.000  
G27  23487222.528 2 123426034.85021     -3769.505          35.000  
G31  23311471.352 4 122502771.10222      2387.515          32.000  
> 2020  9 15 11  4 37.9930000  0 24                     
G22  18375428.581 1  96563524.75121        41.950          49.000  
G 1  18042812.581 1  94815635.71121       138.122          51.000  
G11  18077535.146 1  94998057.76521     -1565.481          47.000  
G 3  18682991.478 1  98179748.71921      1552.417          48.000  
G 8  20437982.090 1 107402404.74221     -3271.207          46.000  
G21  21256543.099 1 111703893.88821     -2130.592          45.000  
G32  20946598.134 1 110075075.07821     -2148.164          44.000  
G28  21442666.432 1 112681960.52621      -636.726          43.000  
E11  19542830.495 1 102698269.929 1       602.464          44.000  
E 4  21717750.572 1 114127555.891 1       985.615          45.000  
E12  21105768.172 1 110911572.332 1     -1694.072          40.000  
E19  23541437.107 1 123711052.007 1     -1975.366          36.000  
R23  16993246.131 1  90902392.125 1       631.887          51.000  
R 8  17227774.381 1  92253934.135 1     -1149.321          46.000  
R 1  17647615.378 1  94336554.660 1      2342.772          47.000  
R24  18655773.629 1  99760793.604 1      3021.478          49.000  
R22  20232462.522 1 108002132.874 1     -3331.257          46.000  
R 7  20340778.113 1 108885744.921 1     -3912.994          44.000  
E36  23920773.134 1 125704505.119 1      2323.129          41.000  
E 9  22321302.535 1 117299249.210 1      2996.203          43.000  
G17  22110377.672 2 116190846.98221      3219.864          34.000  
G 4  22112327.333 1 116201084.01321      3752.028          42.000  
G27  23487294.275 2 123426411.75321     -3769.179          35.000  
G31  23311424.943 4 122502532.26322      2388.739          32.000  
> 2020  9 15 11  4 38.0930000  0 24                     
G22  18375427.726 1  96563520.58921        41.500          49.000  
G 1  18042809.928 1  94815621.90221       138.016          51.000  
G11  18077564.968 1  94998214.32321     -1565.647          47.000  
G 3  18682961.909 1  98179593.51721      1551.922          48.000  
G 8  20438044.274 1 107402731.87521     -3271.510          46.000  
G21  21256583.653 1 111704106.96821     -2130.970          45.000  
G32  20946638.941 1 110075289.93421     -2148.738          44.000  
G28  21442678.551 1 112682024.23621      -637.205          43.000  
E11  19542818.960 1 102698209.700 1       602.350          44.000  
E 4  21717731.726 1 114127457.357 1       985.197          45.000  
E12  21105800.455 1 110911741.745 1     -1694.251          40.000  
E19  23541474.538 1 123711249.553 1     -1975.463          36.000  
R23  16993234.361 1  90902328.953 1       631.633          51.000  
R 8  17227795.818 1  92254049.068 1     -1149.443          46.000  
R 1  17647571.543 1  94336320.409 1      2342.415          47.000  
R24  18655717.064 1  99760491.477 1      3021.173          49.000  
R22  20232524.968 1 108002466.010 1     -3331.442          46.000  
R 7  20340851.230 1 108886136.247 1     -3913.350          44.000  
E36  23920728.889 1 125704272.823 1      2322.879          41.000  
E 9  22321245.805 1 117298949.622 1      2995.775          43.000  
G17  22110316.422 2 116190525.06421      3219.019          34.000  
G 4  22112255.961 1 116200708.80721      3751.864          42.000  
G27  23487365.969 2 123426788.68521     -3769.536          35.000  
G31  23311378.935 4 122502293.52822      2387.242          32.000  
> 2020  9 15 11  4 38.1930000  0 24                     
G22  18375426.871 1  96563516.40721        41.896          49.000  
G 1  18042807.223 1  94815608.09821       138.087          51.000  
G11  18077594.756 1  94998370.88521     -1565.544          47.000  
G 3  18682932.418 1  98179438.30321      1552.203          48.000  
G 8  20438106.484 1 107403058.99621     -3271.174          46.000  
G21  21256624.216 1 111704320.03021     -2130.645          45.000  
G32  20946679.888 1 110075504.79421     -2148.558          44.000  
G28  21442690.723 1 112682087.91921      -636.747          43.000  
E11  19542807.399 1 102698149.473 1       602.345          44.000  
E 4  21717712.967 1 114127358.821 1       985.352          45.000  
E12  21105832.651 1 110911911.141 1     -1693.943          40.000  
E19  23541512.169 1 123711447.131 1     -1975.879          36.000  
R23  16993222.538 1  90902265.784 1       631.721          51.000  
R 8  17227817.291 1  92254164.023 1     -1149.579          46.000  
R 1  17647527.761 1  94336086.147 1      2342.558          47.000  
R24  18655660.552 1  99760189.342 1      3021.399          49.000  
R22  20232587.483 1 108002799.160 1     -3331.537          46.000  
R 7  20340924.215 1 108886527.569 1     -3913.181          44.000  
E36  23920684.618 1 125704040.508 1      2323.158          41.000  
E 9  22321188.812 1 117298650.045 1      2995.818          43.000  
G17  22110255.119 2 116190203.08221      3219.728          34.000  
G 4  22112184.572 1 116200333.59521      3752.203          42.000  
G27  23487437.707 2 123427165.63521     -3769.658          35.000  
G31  23311334.158 4 122502054.74622      2387.918          32.000  
> 2020  9 15 11  4 38.2930000  0 24                     
G22  18375426.129 1  96563512.21921        41.963          49.000  
G 1  18042804.580 1  94815594.28221       138.203          51.000  
G11  18077624.552 1  94998527.43121     -1565.416          47.000  
G 3  18682902.875 1  98179283.07221      1552.374          48.000  
G 8  20438168.712 1 107403386.11521     -3271.121          46.000  
G21  21256664.840 1 111704533.07821     -2130.386          45.000  
G32  20946720.765 1 110075719.63021     -2148.324          44.000  
G28  21442702.781 1 112682151.59921      -636.811          43.000  
E11  19542795.996 1 102698089.234 1       602.366          44.000  
E 4  21717694.147 1 114127260.258 1       985.662          45.000  
E12  21105864.777 1 110912080.525 1     -1693.771          40.000  
E19  23541549.713 1 123711644.676 1     -1975.347          36.000  
R23  16993210.716 1  90902202.601 1       631.877          51.000  
R 8  17227838.720 1  92254278.962 1     -1149.315          46.000  
R 1  17647483.917 1  94335851.889 1      2342.538          47.000  
R24  18655604.091 1  99759887.190 1      3021.503          49.000  
R22  20232649.920 1 108003132.298 1     -3331.312          46.000  
R 7  20340997.297 1 108886918.888 1     -3913.180          44.000  
E36  23920640.591 1 125703808.192 1      2323.179          41.000  
E 9  22321131.776 1 117298350.438 1      2996.174          43.000  
G17  22110193.878 2 116189881.12221      3219.470          34.000  
G 4  22112113.192 1 116199958.39021      3752.088          42.000  
G27  23487509.471 2 123427542.54821     -3769.407          35.000  
G31  23311287.418 4 122501815.90022      2388.798          32.000  
> 2020  9 15 11  4 38.3930000  0 24                     
G22  18375425.370 1  96563508.02621        41.906          49.000  
G 1  18042801.857 1  94815580.45021       138.324          51.000  
G11  18077654.314 1  94998683.97021     -1565.419          47.000  
G 3  18682873.314 1  98179127.83521      1552.356          48.000  
G 8  20438230.913 1 107403713.21221     -3270.905          46.000  
G21  21256705.325 1 111704746.11721     -2130.334          45.000  
G32  20946761.607 1 110075934.45821     -2148.298          44.000  
G28  21442714.900 1 112682215.25321      -636.560          43.000  
E11  19542784.592 1 102698028.975 1       602.381          44.000  
E 4  21717675.353 1 114127161.685 1       985.728          45.000  
E12  21105896.955 1 110912249.915 1     -1693.848          40.000  
E19  23541587.266 1 123711842.214 1     -1975.398          36.000  
R23  16993198.841 1  90902139.406 1       631.926          51.000  
R 8  17227860.157 1  92254393.874 1     -1149.086          46.000  
R 1  17647440.039 1  94335617.612 1      2342.776          47.000  
R24  18655547.701 1  99759585.033 1      3021.582          49.000  
R22  20232712.287 1 108003465.411 1     -3331.198          46.000  
R 7  20341070.422 1 108887310.166 1     -3912.854          44.000  
E36  23920596.337 1 125703575.848 1      2323.425          41.000  
E 9  22321074.775 1 117298050.818 1      2996.228          43.000  
G17  22110132.593 2 116189559.13921      3219.334          34.000  
G 4  22112041.690 1 116199583.15021      3752.382          42.000  
G27  23487581.244 2 123427919.45321     -3769.068          35.000  
G31  23311243.286 4 122501577.15122      2387.646          32.000  
> 2020  9 15 11  4 38.4930000  0 24                     
G22  18375424.436 1  96563503.82421        41.973          49.000  
G 1  18042799.275 1  94815566.62721       138.162          51.000  
G11  18077684.101 1  94998840.51121     -1565.538          47.000  
G 3  18682843.718 1  98178972.59321      1552.332          48.000  
G 8  20438293.158 1 107404040.32021     -3271.221          46.000  
G21  21256745.870 1 111704959.15821     -2130.472          45.000  
G32  20946802.537 1 110076149.29721     -2148.371          44.000  
G28  21442727.019 1 112682278.93421      -636.923          43.000  
E11  19542773.214 1 102697968.707 1       602.485          44.000  
E 4  21717656.655 1 114127063.129 1       985.504          45.000  
E12  21105929.116 1 110912419.299 1     -1693.820          40.000  
E19  23541625.002 1 123712039.768 1     -1975.587          36.000  
R23  16993187.053 1  90902076.227 1       631.708          50.000  
R 8  17227881.604 1  92254508.823 1     -1149.589          46.000  
R 1  17647396.230 1  94335383.334 1      2342.759          47.000  
R24  18655491.119 1  99759282.864 1      3021.655          48.000  
R22  20232774.689 1 108003798.530 1     -3331.315          46.000  
R 7  20341143.477 1 108887701.465 1     -3913.046          44.000  
E36  23920552.223 1 125703343.501 1      2323.510          41.000  
E 9  22321017.791 1 117297751.195 1      2996.212          43.000  
G17  22110071.386 2 116189237.15621      3219.572          34.000  
G 4  22111970.231 1 116199207.90421      3752.457          42.000  
G27  23487652.990 2 123428296.32421     -3768.617          35.000  
G31  23311197.549 4 122501338.31522      2388.113          32.000  
> 2020  9 15 11  4 38.5930000  0 24                     
G22  18375423.564 1  96563499.63721        41.888          49.000  
G 1  18042796.605 1  94815552.80721       138.183          51.000  
G11  18077713.836 1  94998997.06421     -1565.553          47.000  
G 3  18682814.105 1  98178817.36421      1552.209          48.000  
G 8  20438355.385 1 107404367.41421     -3270.899          46.000  
G21  21256786.494 1 111705172.19321     -2130.397          45.000  
G32  20946843.518 1 110076364.13321     -2148.377          44.000  
G28  21442739.068 1 112682342.61521      -636.742          43.000  
E11  19542761.706 1 102697908.452 1       602.500          44.000  
E 4  21717637.931 1 114126964.567 1       985.630          45.000  
E12  21105961.233 1 110912588.668 1     -1693.672          40.000  
E19  23541662.599 1 123712237.289 1     -1975.342          36.000  
R23  16993175.187 1  90902013.042 1       631.843          50.000  
R 8  17227903.006 1  92254623.768 1     -1149.478          46.000  
R 1  17647352.421 1  94335149.081 1      2342.452          47.000  
R24  18655434.754 1  99758980.715 1      3021.448          48.000  
R22  20232837.126 1 108004131.654 1     -3331.152          46.000  
R 7  20341216.541 1 108888092.762 1     -3912.956          44.000  
E36  23920508.030 1 125703111.155 1      2323.556          41.000  
E 9  22320960.834 1 117297451.582 1      2996.204          43.000  
G17  22110010.109 2 116188915.17221      3219.965          34.000  
G 4  22111898.904 1 116198832.69121      3752.120          42.000  
G27  23487724.728 1 123428673.24021     -3769.200          35.000  
G31  23311153.662 4 122501099.48822      2388.115          32.000  
> 2020  9 15 11  4 38.6930000  0 24                     
G22  18375422.622 1  96563495.45221        41.851          49.000  
G 1  18042793.970 1  94815538.98521       138.188          51.000  
G11  18077743.685 1  94999153.61321     -1565.485          47.000  
G 3  18682784.684 1  98178662.14321      1552.173          49.000  
G 8  20438417.648 1 107404694.53621     -3271.262          46.000  
G21  21256827.145 1 111705385.24821     -2130.676          45.000  
G32  20946884.387 1 110076578.98421     -2148.539          44.000  
G28  21442751.179 1 112682406.30921      -637.051          43.000  
E11  19542750.259 1 102697848.202 1       602.479          44.000  
E 4  21717619.163 1 114126866.010 1       985.552          45.000  
E12  21105993.542 1 110912758.063 1     -1694.002          40.000  
E19  23541700.003 1 123712434.837 1     -1975.418          36.000  
R23  16993163.365 1  90901949.875 1       631.617          50.000  
R 8  17227924.418 1  92254738.718 1     -1149.568          46.000  
R 1  17647308.647 1  94334914.832 1      2342.355          47.000  
R24  18655378.155 1  99758678.560 1      3021.582          48.000  
R22  20232899.537 1 108004464.777 1     -3331.280          46.000  
R 7  20341289.570 1 108888484.066 1     -3913.027          44.000  
E36  23920463.794 1 125702878.816 1      2323.415          41.000  
E 9  22320903.815 1 117297151.973 1      2996.079          43.000  
G17  22109948.781 2 116188593.15521      3220.196          34.000  
G 4  22111827.558 1 116198457.46621      3752.171          42.000  
G27  23487796.353 2 123429050.16121     -3769.393          36.000  
G31  23311107.707 4 122500860.67322      2388.453          32.000  
> 2020  9 15 11  4 38.7930000  0 24                     
G22  18375421.854 1  96563491.27421        41.722          49.000  
G 1  18042791.379 1  94815525.18321       137.935          51.000  
G11  18077773.455 1  94999310.17721     -1565.683          46.000  
G 3  18682755.202 1  98178506.93021      1552.075          49.000  
G 8  20438479.901 1 107405021.65321     -3271.238          46.000  
G21  21256867.664 1 111705598.30021     -2130.567          45.000  
G32  20946925.308 1 110076793.85021     -2148.775          44.000  
G28  21442763.237 1 112682469.99221      -636.816          43.000  
E11  19542738.768 1 102697787.950 1       602.578          44.000  
E 4  21717600.587 1 114126767.474 1       985.273          45.000  
E12  21106025.729 1 110912927.460 1     -1694.042          40.000  
E19  23541737.539 1 123712632.390 1     -1975.488          36.000  
R23  16993151.647 1  90901886.712 1       631.513          50.000  
R 8  17227945.899 1  92254853.687 1     -1149.834          46.000  
R 1  17647264.847 1  94334680.584 1      2342.268          47.000  
R24  18655321.677 1  99758376.415 1      3021.362          48.000  
R22  20232961.947 1 108004797.932 1     -3331.662          46.000  
R 7  20341362.731 1 108888875.377 1     -3913.247          44.000  
E36  23920419.688 1 125702646.495 1      2323.104          41.000  
E 9  22320846.771 1 117296852.376 1      2995.914          43.000  
G17  22109887.496 2 116188271.23421      3218.848          34.000  
G 4  22111756.231 1 116198082.22721      3752.383          42.000  
G27  23487868.213 2 123429427.05621     -3769.010          36.000  
G31  23311063.366 4 122500621.89122      2388.074          32.000  
> 2020  9 15 11  4 38.8930000  0 24                     
G22  18375420.999 1  96563487.12921        41.286          49.000  
G 1  18042788.770 1  94815511.39621       137.796          51.000  
G11  18077803.286 1  94999466.77521     -1566.102          46.000  
G 3  18682725.764 1  98178351.74521      1551.752          49.000  
G 8  20438542.172 1 107405348.79521     -3271.545          46.000  
G21  21256908.210 1 111705811.37621     -2130.827          45.000  
G32  20946966.176 1 110077008.73721     -2148.956          44.000  
G28  21442775.365 1 112682533.70621      -637.179          43.000  
E11  19542727.294 1 102697727.744 1       601.993          44.000  
E 4  21717581.881 1 114126668.960 1       985.002          45.000  
E12  21106057.925 1 110913096.884 1     -1694.344          40.000  
E19  23541775.092 1 123712829.991 1     -1976.142          36.000  
R23  16993139.842 1  90901823.580 1       631.181          50.000  
R 8  17227967.389 1  92254968.688 1     -1150.164          46.000  
R 1  17647221.082 1  94334446.369 1      2341.998          47.000  
R24  18655265.068 1  99758074.301 1      3021.069          48.000  
R22  20233024.454 1 108005131.086 1     -3331.614          46.000  
R 7  20341435.864 1 108889266.712 1     -3913.307          44.000  
E36  23920375.574 1 125702414.192 1      2322.903          41.000  
E 9  22320789.726 1 117296552.778 1      2995.949          43.000  
G17  22109826.141 2 116187949.22921      3220.101          34.000  
G 4  22111684.894 1 116197707.03121      3752.009          42.000  
G27  23487940.073 2 123429803.97721     -3769.249          36.000  
G31  23311018.990 4 122500383.10422      2387.936          32.000  
> 2020  9 15 11  4 38.9930000  0 24                     
G22  18375420.161 1  96563482.97121        41.491          49.000  
G 1  18042786.144 1  94815497.61721       137.698          51.000  
G11  18077833.039 1  94999623.37021     -1565.980          46.000  
G 3  18682696.177 1  98178196.55121      1551.813          49.000  
G 8  20438604.374 1 107405675.93821     -3271.565          46.000  
G21  21256948.755 1 111706024.45021     -2130.832          45.000  
G32  20947006.975 1 110077223.61721     -2148.854          44.000  
G28  21442787.440 1 112682597.43621      -637.411          43.000  
E11  19542715.821 1 102697667.525 1       602.120          44.000  
E 4  21717563.183 1 114126570.428 1       985.254          45.000  
E12  21106090.164 1 110913266.286 1     -1694.012          40.000  
E19  23541812.688 1 123713027.568 1     -1976.057          36.000  
R23  16993128.045 1  90901760.451 1       631.166          50.000  
R 8  17227988.783 1  92255083.677 1     -1149.992          46.000  
R 1  17647177.186 1  94334212.157 1      2341.978          47.000  
R24  18655208.495 1  99757772.170 1      3021.228          48.000  
R22  20233086.978 1 108005464.247 1     -3331.703          46.000  
R 7  20341509.016 1 108889658.046 1     -3913.367          44.000  
E36  23920331.251 1 125702181.852 1      2323.469          41.000  
E 9  22320732.760 1 117296253.192 1      2995.758          43.000  
G17  22109764.890 2 116187627.26121      3219.605          34.000  
G 4  22111613.584 1 116197331.82821      3751.974          42.000  
G27  23488011.863 2 123430180.90221     -3769.291          36.000  
G31  23310973.401 4 122500144.32922      2387.962          32.000  
> 2020  9 15 11  4 39.0930000  0 24                     
G22  18375419.385 1  96563478.84221        41.097          49.000  
G 1  18042783.474 1  94815483.85421       137.507          51.000  
G11  18077862.870 1  94999779.98021     -1566.216          46.000  
G 3  18682666.651 1  98178041.38621      1551.520          49.000  
G 8  20438666.627 1 107406003.08721     -3271.679          46.000  
G21  21256989.371 1 111706237.53221     -2130.912          45.000  
G32  20947047.834 1 110077438.52821     -2149.337          44.000  
G28  21442799.568 1 112682661.17221      -637.422          43.000  
E11  19542704.321 1 102697607.313 1       602.050          44.000  
E 4  21717544.389 1 114126471.940 1       984.863          45.000  
E12  21106122.403 1 110913435.728 1     -1694.440          40.000  
E19  23541850.293 1 123713225.146 1     -1975.961          36.000  
R23  16993116.179 1  90901697.336 1       631.010          50.000  
R 8  17228010.159 1  92255198.703 1     -1150.270          46.000  
R 1  17647133.360 1  94333977.974 1      2341.700          47.000  
R24  18655151.904 1  99757470.066 1      3020.844          48.000  
R22  20233149.572 1 108005797.438 1     -3332.087          46.000  
R 7  20341582.062 1 108890049.393 1     -3913.661          44.000  
E36  23920287.128 1 125701949.561 1      2322.819          41.000  
E 9  22320675.732 1 117295953.628 1      2995.480          43.000  
G17  22109703.692 2 116187305.37021      3218.732          34.000  
G 4  22111542.169 1 116196956.62521      3751.905          42.000  
G27  23488083.697 2 123430557.84621     -3769.568          36.000  
G31  23310928.938 4 122499905.57522      2387.204          32.000  
> 2020  9 15 11  4 39.1930000  0 24                     
G22  18375418.713 1  96563474.72921        40.989          49.000  
G 1  18042780.778 1  94815470.09621       137.465          51.000  
G11  18077892.666 1  94999936.62121     -1566.578          46.000  
G 3  18682637.151 1  98177886.22921      1551.471          48.000  
G 8  20438728.837 1 107406330.26821     -3271.889          46.000  
G21  21257030.004 1 111706450.64521     -2131.275          45.000  
G32  20947088.685 1 110077653.44821     -2149.303          44.000  
G28  21442811.688 1 112682724.93621      -637.809          43.000  
E11  19542692.813 1 102697547.133 1       601.590          44.000  
E 4  21717525.638 1 114126373.451 1       984.835          45.000  
E12  21106154.669 1 110913605.181 1     -1694.668          40.000  
E19  23541887.960 1 123713422.762 1     -1976.310          36.000  
R23  16993104.322 1  90901634.243 1       630.819          50.000  
R 8  17228031.676 1  92255313.743 1     -1150.553          46.000  
R 1  17647089.560 1  94333743.797 1      2341.623          47.000  
R24  18655095.391 1  99757167.974 1      3020.837          48.000  
R22  20233211.974 1 108006130.622 1     -3331.917          46.000  
R 7  20341655.214 1 108890440.756 1     -3913.771          44.000  
E36  23920242.926 1 125701717.283 1      2322.598          41.000  
E 9  22320618.792 1 117295654.068 1      2995.481          43.000  
G17  22109642.407 2 116186983.43121      3219.086          34.000  
G 4  22111470.693 1 116196581.42821      3752.024          42.000  
G27  23488155.478 2 123430934.77721     -3769.381          36.000  
G31  23310883.044 4 122499666.81822      2387.346          32.000  
> 2020  9 15 11  4 39.2930000  0 24                     
G22  18375417.945 1  96563470.61521        41.032          49.000  
G 1  18042778.160 1  94815456.35821       137.250          51.000  
G11  18077922.454 1  95000093.24321     -1566.272          46.000  
G 3  18682607.608 1  98177731.07721      1551.410          48.000  
G 8  20438791.117 1 107406657.44221     -3271.850          46.000  
G21  21257070.610 1 111706663.74421     -2131.043          45.000  
G32  20947129.667 1 110077868.36221     -2149.177          44.000  
G28  21442823.868 1 112682788.70021      -637.597          43.000  
E11  19542681.322 1 102697486.936 1       601.755          44.000  
E 4  21717506.810 1 114126274.968 1       984.730          45.000  
E12  21106186.864 1 110913774.617 1     -1694.597          40.000  
E19  23541925.687 1 123713620.382 1     -1976.169          36.000  
R23  16993092.334 1  90901571.156 1       630.797          50.000  
R 8  17228053.157 1  92255428.789 1     -1150.556          46.000  
R 1  17647045.768 1  94333509.637 1      2341.445          47.000  
R24  18655038.757 1  99756865.879 1      3020.868          48.000  
R22  20233274.350 1 108006463.829 1     -3332.159          46.000  
R 7  20341728.313 1 108890832.108 1     -3913.536          44.000  
E36  23920198.559 1 125701484.973 1      2323.038          41.000  
E 9  22320561.774 1 117295354.507 1      2995.428          43.000  
G17  22109581.131 2 116186661.47021      3219.511          34.000  
G 4  22111399.260 1 116196206.27121      3751.548          42.000  
G27  23488227.268 2 123431311.72721     -3769.451          36.000  
G31  23310837.944 8 122499428.09222      2386.604          32.000  
> 2020  9 15 11  4 39.3930000  0 24                     
G22  18375417.177 1  96563466.51821        40.861          49.000  
G 1  18042775.569 1  94815442.62621       137.197          51.000  
G11  18077952.259 1  95000249.90521     -1566.774          46.000  
G 3  18682578.065 1  98177575.94721      1551.227          48.000  
G 8  20438853.310 1 107406984.63521     -3272.082          46.000  
G21  21257111.208 1 111706876.86421     -2131.272          45.000  
G32  20947170.536 1 110078083.32021     -2149.688          44.000  
G28  21442835.917 1 112682852.49221      -638.003          43.000  
E11  19542669.918 1 102697426.763 1       601.564          44.000  
E 4  21717487.946 1 114126176.516 1       984.444          45.000  
E12  21106219.042 1 110913944.076 1     -1694.683          40.000  
E19  23541963.310 1 123713818.011 1     -1976.285          36.000  
R23  16993080.668 1  90901508.089 1       630.529          50.000  
R 8  17228074.690 1  92255543.865 1     -1150.875          46.000  
R 1  17647001.968 1  94333275.503 1      2341.212          47.000  
R24  18654982.305 1  99756563.808 1      3020.605          48.000  
R22  20233336.909 1 108006797.054 1     -3332.307          46.000  
R 7  20341801.499 1 108891223.494 1     -3913.957          44.000  
E36  23920154.454 1 125701252.697 1      2322.753          41.000  
E 9  22320504.842 1 117295054.980 1      2995.136          43.000  
G17  22109519.802 2 116186339.58121      3218.961          34.000  
G 4  22111327.741 1 116195831.09121      3751.830          42.000  
G27  23488299.024 2 123431688.68821     -3769.718          36.000  
G31  23310792.137 8 122499189.33123      2387.399          32.000  
> 2020  9 15 11  4 39.4930000  0 24                     
G22  18375416.409 1  96563462.44621        40.591          49.000  
G 1  18042772.890 1  94815428.91121       137.069          51.000  
G11  18077982.011 1  95000406.57721     -1566.787          46.000  
G 3  18682548.670 1  98177420.83521      1550.958          48.000  
G 8  20438915.537 1 107407311.84721     -3272.233          46.000  
G21  21257151.727 1 111707089.99821     -2131.400          45.000  
G32  20947211.404 1 110078298.28221     -2149.801          44.000  
G28  21442848.019 1 112682916.29821      -638.218          43.000  
E11  19542658.514 1 102697366.591 1       601.695          44.000  
E 4  21717469.143 1 114126078.071 1       984.332          45.000  
E12  21106251.369 1 110914113.562 1     -1694.937          40.000  
E19  23542000.932 1 123714015.650 1     -1976.600          36.000  
R23  16993068.924 1  90901445.043 1       630.343          50.000  
R 8  17228096.189 1  92255658.953 1     -1151.093          46.000  
R 1  17646958.229 1  94333041.381 1      2341.052          47.000  
R24  18654925.732 1  99756261.764 1      3020.276          48.000  
R22  20233399.468 1 108007130.276 1     -3332.312          46.000  
R 7  20341874.624 1 108891614.894 1     -3914.091          44.000  
E36  23920110.383 1 125701020.451 1      2322.255          41.000  
E 9  22320447.754 1 117294755.446 1      2995.253          43.000  
G17  22109458.464 2 116186017.70421      3218.733          34.000  
G 4  22111256.352 1 116195455.95121      3751.298          42.000  
G27  23488370.753 2 123432065.66521     -3769.732          36.000  
G31  23310747.045 4 122498950.63322      2386.645          32.000  
> 2020  9 15 11  4 39.5930000  0 24                     
G22  18375415.676 1  96563458.38121        40.550          49.000  
G 1  18042770.238 1  94815415.19921       136.989          51.000  
G11  18078011.773 1  95000563.26221     -1566.878          46.000  
G 3  18682519.083 1  98177265.73121      1550.977          48.000  
G 8  20438977.826 1 107407639.06921     -3272.302          46.000  
G21  21257192.299 1 111707303.14921     -2131.646          45.000  
G32  20947252.264 1 110078513.25921     -2149.846          44.000  
G28  21442860.147 1 112682980.11121      -638.222          43.000  
E11  19542647.180 1 102697306.444 1       601.509          44.000  
E 4  21717450.489 1 114125979.640 1       984.191          45.000  
E12  21106283.556 1 110914283.046 1     -1694.866          40.000  
E19  23542038.398 1 123714213.326 1     -1976.932          36.000  
R23  16993056.997 1  90901382.015 1       630.167          50.000  
R 8  17228117.539 1  92255774.055 1     -1151.046          46.000  
R 1  17646914.377 1  94332807.276 1      2340.941          47.000  
R24  18654869.141 1  99755959.713 1      3020.587          48.000  
R22  20233461.931 1 108007463.528 1     -3332.546          46.000  
R 7  20341947.740 1 108892006.290 1     -3914.004          44.000  
E36  23920066.095 1 125700788.191 1      2322.472          41.000  
E 9  22320390.849 1 117294455.923 1      2995.011          43.000  
G17  22109397.144 2 116185695.82221      3218.453          34.000  
G 4  22111184.972 1 116195080.80421      3751.398          42.000  
G27  23488442.456 2 123432442.65421     -3770.045          36.000  
G31  23310701.919 4 122498711.91722      2387.313          32.000  
> 2020  9 15 11  4 39.6930000  0 24                     
G22  18375414.952 1  96563454.30321        40.691          49.000  
G 1  18042767.664 1  94815401.50221       136.943          51.000  
G11  18078041.595 1  95000719.94121     -1566.804          46.000  
G 3  18682489.566 1  98177110.61821      1551.111          48.000  
G 8  20439039.966 1 107407966.27121     -3272.091          45.000  
G21  21257232.862 1 111707516.27621     -2131.323          45.000  
G32  20947293.158 1 110078728.21921     -2149.679          44.000  
G28  21442872.310 1 112683043.90121      -637.958          43.000  
E11  19542635.777 1 102697246.289 1       601.682          44.000  
E 4  21717431.809 1 114125881.199 1       984.372          45.000  
E12  21106315.839 1 110914452.527 1     -1694.823          40.000  
E19  23542076.047 1 123714410.966 1     -1976.347          36.000  
R23  16993045.235 1  90901318.968 1       630.427          50.000  
R 8  17228138.951 1  92255889.147 1     -1150.933          46.000  
R 1  17646870.446 1  94332573.150 1      2341.257          47.000  
R24  18654812.584 1  99755657.657 1      3020.526          48.000  
R22  20233524.438 1 108007796.754 1     -3332.200          46.000  
R 7  20342020.831 1 108892397.671 1     -3913.745          44.000  
E36  23920021.806 1 125700555.915 1      2322.799          41.000  
E 9  22320333.970 1 117294156.403 1      2995.077          43.000  
G17  22109335.946 2 116185373.90821      3219.260          34.000  
G 4  22111113.530 1 116194705.63221      3751.795          42.000  
G27  23488514.272 2 123432819.60821     -3769.621          36.000  
G31  23310655.859 4 122498473.19222      2387.035          32.000  
> 2020  9 15 11  4 39.7930000  0 24                     
G22  18375414.141 1  96563450.23221        40.698          49.000  
G 1  18042765.020 1  94815387.78821       137.166          51.000  
G11  18078071.374 1  95000876.62021     -1566.759          46.000  
G 3  18682460.058 1  98176955.51221      1551.092          48.000  
G 8  20439102.255 1 107408293.47621     -3271.928          45.000  
G21  21257273.451 1 111707729.40721     -2131.261          45.000  
G32  20947334.035 1 110078943.19221     -2149.701          44.000  
G28  21442884.481 1 112683107.71221      -638.093          43.000  
E11  19542624.259 1 102697186.139 1       601.590          44.000  
E 4  21717413.128 1 114125782.768 1       984.300          45.000  
E12  21106348.174 1 110914621.994 1     -1694.646          40.000  
E19  23542113.617 1 123714608.589 1     -1976.107          36.000  
R23  16993033.448 1  90901255.939 1       630.285          50.000  
R 8  17228160.397 1  92256004.258 1     -1151.031          46.000  
R 1  17646826.646 1  94332339.040 1      2341.176          47.000  
R24  18654756.089 1  99755355.606 1      3020.526          48.000  
R22  20233586.918 1 108008130.002 1     -3332.404          46.000  
R 7  20342093.956 1 108892789.078 1     -3914.071          44.000  
E36  23919977.666 1 125700323.656 1      2322.659          41.000  
E 9  22320277.012 1 117293856.862 1      2995.394          43.000  
G17  22109274.670 2 116185052.00421      3219.214          34.000  
G 4  22111042.142 1 116194330.49321      3751.389          42.000  
G27  23488586.062 2 123433196.56321     -3769.265          36.000  
G31  23310610.183 4 122498234.43822      2387.698          32.000  
> 2020  9 15 11  4 39.8930000  0 24                     
G22  18375413.303 1  96563446.14521        40.863          49.000  
G 1  18042762.341 1  94815374.06521       137.194          51.000  
G11  18078101.196 1  95001033.30221     -1566.872          47.000  
G 3  18682430.523 1  98176800.38821      1551.208          48.000  
G 8  20439164.543 1 107408620.68421     -3272.119          45.000  
G21  21257314.015 1 111707942.53021     -2131.257          45.000  
G32  20947374.974 1 110079158.14421     -2149.619          44.000  
G28  21442896.618 1 112683171.51121      -638.050          43.000  
E11  19542612.821 1 102697125.960 1       601.749          44.000  
E 4  21717394.378 1 114125684.313 1       984.565          45.000  
E12  21106380.396 1 110914791.463 1     -1694.729          40.000  
E19  23542151.257 1 123714806.242 1     -1976.539          36.000  
R23  16993021.608 1  90901192.891 1       630.397          51.000  
R 8  17228181.913 1  92256119.356 1     -1151.109          46.000  
R 1  17646782.890 1  94332104.932 1      2340.970          47.000  
R24  18654699.594 1  99755053.542 1      3020.538          48.000  
R22  20233649.469 1 108008463.220 1     -3332.168          46.000  
R 7  20342167.142 1 108893180.449 1     -3913.776          44.000  
E36  23919933.386 1 125700091.362 1      2322.835          41.000  
E 9  22320220.055 1 117293557.322 1      2995.300          43.000  
G17  22109213.428 2 116184730.12221      3218.758          34.000  
G 4  22110970.796 1 116193955.31121      3751.870          42.000  
G27  23488657.844 2 123433573.51421     -3769.524          36.000  
G31  23310565.031 4 122497995.74322      2386.629          32.000  
> 2020  9 15 11  4 39.9930000  0 24                     
G22  18375412.570 1  96563442.07621        40.666          49.000  
G 1  18042759.698 1  94815360.35721       137.077          51.000  
G11  18078131.019 1  95001189.98621     -1566.858          47.000  
G 3  18682401.067 1  98176645.28221      1551.025          48.000  
G 8  20439226.727 1 107408947.89721     -3272.133          45.000  
G21  21257354.586 1 111708155.66321     -2131.419          45.000  
G32  20947415.886 1 110079373.11921     -2149.771          44.000  
G28  21442908.711 1 112683235.33521      -638.221          43.000  
E11  19542601.443 1 102697065.814 1       601.298          44.000  
E 4  21717375.602 1 114125585.879 1       984.403          45.000  
E12  21106412.679 1 110914960.946 1     -1694.820          40.000  
E19  23542188.854 1 123715003.899 1     -1976.543          36.000  
R23  16993009.873 1  90901129.869 1       630.138          51.000  
R 8  17228203.490 1  92256234.479 1     -1151.337          46.000  
R 1  17646739.133 1  94331870.834 1      2340.977          47.000  
R24  18654643.151 1  99754751.487 1      3020.605          48.000  
R22  20233711.871 1 108008796.467 1     -3332.506          46.000  
R 7  20342240.258 1 108893571.856 1     -3914.210          44.000  
E36  23919889.254 1 125699859.086 1      2322.737          41.000  
E 9  22320163.071 1 117293257.789 1      2995.341          43.000  
G17  22109152.143 2 116184408.20221      3219.110          34.000  
G 4  22110899.416 1 116193580.14421      3751.689          42.000  
G27  23488729.634 2 123433950.50821     -3770.060          36.000  
G31  23310519.608 4 122497756.98622      2387.932          32.000  
> 2020  9 15 11  4 40.0930000  0 24                     
G22  18375411.733 1  96563437.96621        41.183          49.000  
G 1  18042757.045 1  94815346.60721       137.528          51.000  
G11  18078160.797 1  95001346.62921     -1566.358          47.000  
G 3  18682371.489 1  98176490.12821      1551.520          48.000  
G 8  20439288.981 1 107409275.06221     -3271.545          45.000  
G21  21257395.080 1 111708368.74821     -2130.818          45.000  
G32  20947456.763 1 110079588.04421     -2149.116          44.000  
G28  21442920.708 1 112683299.09821      -637.490          43.000  
E11  19542589.978 1 102697005.607 1       601.964          44.000  
E 4  21717356.982 1 114125487.414 1       984.694          45.000  
E12  21106444.840 1 110915130.385 1     -1694.234          40.000  
E19  23542226.398 1 123715201.498 1     -1975.902          36.000  
R23  16992998.155 1  90901066.793 1       630.802          51.000  
R 8  17228224.911 1  92256349.540 1     -1150.616          46.000  
R 1  17646695.490 1  94331636.681 1      2341.614          47.000  
R24  18654586.595 1  99754449.392 1      3021.051          48.000  
R22  20233774.368 1 108009129.654 1     -3331.741          46.000  
R 7  20342313.340 1 108893963.182 1     -3913.173          44.000  
E36  23919844.965 1 125699626.771 1      2323.219          41.000  
E 9  22320106.044 1 117292958.213 1      2995.847          43.000  
G17  22109090.884 2 116184086.27221      3219.410          34.000  
G 4  22110828.097 1 116193204.93221      3752.119          42.000  
G27  23488801.293 2 123434327.37121     -3768.740          36.000  
G31  23310475.311 4 122497518.22122      2387.624          32.000  
> 2020  9 15 11  4 40.1930000  0 24                     
G22  18375410.904 1  96563433.85921        40.933          49.000  
G 1  18042754.524 1  94815332.86321       137.380          51.000  
G11  18078190.637 1  95001503.27921     -1566.550          47.000  
G 3  18682341.920 1  98176334.98821      1551.318          48.000  
G 8  20439351.261 1 107409602.23121     -3271.683          45.000  
G21  21257435.669 1 111708581.82921     -2130.881          45.000  
G32  20947497.622 1 110079802.99121     -2149.480          44.000  
G28  21442932.853 1 112683362.87021      -637.882          43.000  
E11  19542578.531 1 102696945.390 1       602.082          44.000  
E 4  21717338.197 1 114125388.931 1       984.908          45.000  
E12  21106477.114 1 110915299.796 1     -1694.117          40.000  
E19  23542263.916 1 123715399.113 1     -1976.042          36.000  
R23  16992986.411 1  90901003.724 1       630.697          50.000  
R 8  17228246.514 1  92256464.620 1     -1150.813          46.000  
R 1  17646651.760 1  94331402.553 1      2341.213          47.000  
R24  18654530.161 1  99754147.304 1      3020.764          48.000  
R22  20233836.666 1 108009462.868 1     -3332.218          46.000  
R 7  20342386.482 1 108894354.518 1     -3913.294          44.000  
E36  23919800.834 1 125699394.438 1      2323.376          41.000  
E 9  22320048.999 1 117292658.637 1      2995.770          43.000  
G17  22109029.713 2 116183764.30921      3219.706          34.000  
G 4  22110756.778 1 116192829.72221      3752.089          42.000  
G27  23488873.057 2 123434704.32521     -3769.642          36.000  
G31  23310429.347 4 122497279.46422      2387.366          32.000  
> 2020  9 15 11  4 40.2930000  0 24                     
G22  18375410.040 1  96563429.75921        41.072          49.000  
G 1  18042751.967 1  94815319.12521       137.396          51.000  
G11  18078220.434 1  95001659.95221     -1566.745          47.000  
G 3  18682312.403 1  98176179.85321      1551.422          48.000  
G 8  20439413.497 1 107409929.41121     -3271.812          45.000  
G21  21257476.197 1 111708794.93121     -2130.957          45.000  
G32  20947538.456 1 110080017.93521     -2149.433          44.000  
G28  21442944.990 1 112683426.66521      -637.940          43.000  
E11  19542566.997 1 102696885.197 1       601.969          44.000  
E 4  21717319.447 1 114125290.475 1       984.646          45.000  
E12  21106509.370 1 110915469.262 1     -1694.653          40.000  
E19  23542301.600 1 123715596.721 1     -1976.149          36.000  
R23  16992974.676 1  90900940.683 1       630.444          50.000  
R 8  17228268.004 1  92256579.720 1     -1151.047          46.000  
R 1  17646608.099 1  94331168.436 1      2341.225          47.000  
R24  18654473.614 1  99753845.216 1      3020.972          48.000  
R22  20233899.172 1 108009796.077 1     -3332.039          46.000  
R 7  20342459.608 1 108894745.878 1     -3913.434          44.000  
E36  23919756.746 1 125699162.145 1      2322.896          41.000  
E 9  22319991.963 1 117292359.068 1      2995.722          43.000  
G17  22108968.436 2 116183442.39621      3219.285          34.000  
G 4  22110685.398 1 116192454.52921      3751.982          42.000  
G27  23488944.760 2 123435081.24021     -3769.056          36.000  
G31  23310384.125 4 122497040.68622      2387.833          32.000  
> 2020  9 15 11  4 40.3930000  0 24                     
G22  18375409.229 1  96563425.62221        41.414          49.000  
G 1  18042749.411 1  94815305.33821       137.914          51.000  
G11  18078250.108 1  95001816.56321     -1566.058          47.000  
G 3  18682282.894 1  98176024.67921      1551.801          48.000  
G 8  20439475.681 1 107410256.54221     -3271.260          45.000  
G21  21257516.708 1 111709007.97321     -2130.347          45.000  
G32  20947579.429 1 110080232.83621     -2148.886          44.000  
G28  21442957.065 1 112683490.40721      -637.388          43.000  
E11  19542555.549 1 102696824.953 1       602.697          44.000  
E 4  21717300.775 1 114125191.967 1       985.120          45.000  
E12  21106541.522 1 110915638.650 1     -1693.839          40.000  
E19  23542339.196 1 123715794.316 1     -1975.999          36.000  
R23  16992962.914 1  90900877.586 1       631.021          50.000  
R 8  17228289.363 1  92256694.773 1     -1150.542          46.000  
R 1  17646564.238 1  94330934.263 1      2341.796          47.000  
R24  18654417.154 1  99753543.084 1      3021.454          48.000  
R22  20233961.705 1 108010129.225 1     -3331.438          46.000  
R 7  20342532.715 1 108895137.192 1     -3913.083          44.000  
E36  23919712.483 1 125698929.769 1      2323.764          41.000  
E 9  22319935.023 1 117292059.461 1      2996.143          43.000  
G17  22108907.195 2 116183120.38321      3220.615          34.000  
G 4  22110614.018 1 116192079.25221      3752.867          42.000  
G27  23489016.585 2 123435458.07621     -3767.897          36.000  
G31  23310338.702 4 122496801.92622      2387.279          31.000  
> 2020  9 15 11  4 40.4930000  0 24                     
G22  18375408.513 1  96563421.47621        41.430          49.000  
G 1  18042746.819 1  94815291.56021       137.723          51.000  
G11  18078279.965 1  95001973.18121     -1566.195          46.000  
G 3  18682253.447 1  98175869.50321      1551.758          48.000  
G 8  20439537.925 1 107410583.67221     -3271.238          45.000  
G21  21257557.218 1 111709221.02621     -2130.563          45.000  
G32  20947620.324 1 110080447.75321     -2149.129          44.000  
G28  21442969.106 1 112683554.15621      -637.532          43.000  
E11  19542544.137 1 102696764.712 1       602.670          44.000  
E 4  21717282.138 1 114125093.459 1       985.121          45.000  
E12  21106573.779 1 110915808.033 1     -1693.797          40.000  
E19  23542376.775 1 123715991.863 1     -1975.562          36.000  
R23  16992951.153 1  90900814.494 1       630.877          50.000  
R 8  17228310.862 1  92256809.820 1     -1150.496          46.000  
R 1  17646520.403 1  94330700.106 1      2341.604          47.000  
R24  18654360.676 1  99753240.956 1      3021.313          48.000  
R22  20234024.037 1 108010462.398 1     -3331.712          46.000  
R 7  20342605.797 1 108895528.506 1     -3913.037          44.000  
E36  23919668.413 1 125698697.392 1      2323.798          41.000  
E 9  22319878.039 1 117291759.832 1      2996.360          43.000  
G17  22108845.918 2 116182798.43221      3219.501          34.000  
G 4  22110542.629 1 116191704.01221      3752.334          42.000  
G27  23489088.288 2 123435834.97421     -3768.729          36.000  
G31  23310292.389 4 122496563.08822      2388.450          31.000  
> 2020  9 15 11  4 40.5930000  0 24                     
G22  18375407.719 1  96563417.35121        41.135          49.000  
G 1  18042744.193 1  94815277.80421       137.414          51.000  
G11  18078309.796 1  95002129.82721     -1566.578          46.000  
G 3  18682224.017 1  98175714.34821      1551.392          48.000  
G 8  20439600.144 1 107410910.82621     -3271.643          45.000  
G21  21257597.790 1 111709434.08721     -2130.692          45.000  
G32  20947661.131 1 110080662.67621     -2149.310          44.000  
G28  21442981.286 1 112683617.91521      -637.679          43.000  
E11  19542532.698 1 102696704.493 1       602.219          44.000  
E 4  21717263.309 1 114124994.984 1       984.618          45.000  
E12  21106605.992 1 110915977.446 1     -1694.137          40.000  
E19  23542414.311 1 123716189.453 1     -1975.942          36.000  
R23  16992939.374 1  90900751.421 1       630.644          51.000  
R 8  17228332.421 1  92256924.903 1     -1151.005          46.000  
R 1  17646476.525 1  94330465.978 1      2341.155          47.000  
R24  18654304.181 1  99752938.846 1      3021.008          48.000  
R22  20234086.483 1 108010795.577 1     -3331.882          46.000  
R 7  20342678.922 1 108895919.831 1     -3913.363          44.000  
E36  23919624.211 1 125698465.035 1      2323.527          41.000  
E 9  22319821.099 1 117291460.235 1      2995.969          43.000  
G17  22108784.659 2 116182476.48121      3219.211          34.000  
G 4  22110471.258 1 116191328.77521      3752.188          42.000  
G27  23489160.061 2 123436211.84421     -3768.657          36.000  
G31  23310246.809 4 122496324.29522      2387.649          31.000  
> 2020  9 15 11  4 40.6930000  0 24                     
G22  18375406.951 1  96563413.24721        41.021          49.000  
G 1  18042741.619 1  94815264.04621       137.542          51.000  
G11  18078339.531 1  95002286.48121     -1566.642          46.000  
G 3  18682194.457 1  98175559.19721      1551.477          48.000  
G 8  20439662.415 1 107411237.98921     -3271.755          45.000  
G21  21257638.309 1 111709647.15121     -2130.653          45.000  
G32  20947701.964 1 110080877.61321     -2149.502          44.000  
G28  21442993.405 1 112683681.71221      -638.065          43.000  
E11  19542521.312 1 102696644.295 1       601.803          44.000  
E 4  21717244.629 1 114124896.508 1       984.645          45.000  
E12  21106638.188 1 110916146.870 1     -1694.302          40.000  
E19  23542451.925 1 123716387.072 1     -1976.283          36.000  
R23  16992927.586 1  90900688.366 1       630.476          51.000  
R 8  17228353.868 1  92257039.993 1     -1151.023          46.000  
R 1  17646432.742 1  94330231.846 1      2341.212          47.000  
R24  18654247.651 1  99752636.741 1      3020.972          48.000  
R22  20234148.946 1 108011128.767 1     -3331.998          46.000  
R 7  20342751.995 1 108896311.163 1     -3913.390          44.000  
E36  23919579.940 1 125698232.715 1      2323.159          41.000  
E 9  22319764.019 1 117291160.640 1      2995.907          43.000  
G17  22108723.470 2 116182154.47821      3220.094          34.000  
G 4  22110399.747 1 116190953.53121      3752.386          42.000  
G27  23489231.930 1 123436588.75621     -3769.249          36.000  
G31  23310201.403 4 122496085.53622      2387.523          31.000  
> 2020  9 15 11  4 40.7930000  0 24                     
G22  18375406.323 1  96563409.13321        41.045          49.000  
G 1  18042739.011 1  94815250.29721       137.379          51.000  
G11  18078369.424 1  95002443.14021     -1566.760          46.000  
G 3  18682165.018 1  98175404.06621      1551.184          48.000  
G 8  20439724.756 1 107411565.15921     -3271.841          45.000  
G21  21257678.933 1 111709860.23321     -2130.882          45.000  
G32  20947742.877 1 110081092.55621     -2149.420          44.000  
G28  21443005.551 1 112683745.47921      -637.756          43.000  
E11  19542509.847 1 102696584.081 1       601.932          44.000  
E 4  21717225.896 1 114124798.037 1       984.638          45.000  
E12  21106670.488 1 110916316.310 1     -1694.544          40.000  
E19  23542489.477 1 123716584.669 1     -1975.970          36.000  
R23  16992915.781 1  90900625.319 1       630.400          51.000  
R 8  17228375.410 1  92257155.086 1     -1150.980          46.000  
R 1  17646388.916 1  94329997.738 1      2341.001          47.000  
R24  18654191.147 1  99752334.643 1      3020.892          48.000  
R22  20234211.392 1 108011461.963 1     -3332.091          46.000  
R 7  20342825.111 1 108896702.517 1     -3913.708          44.000  
E36  23919535.599 1 125698000.359 1      2323.515          41.000  
E 9  22319706.931 1 117290861.050 1      2995.791          43.000  
G17  22108662.185 2 116181832.53521      3219.375          34.000  
G 4  22110328.419 1 116190578.29821      3752.291          42.000  
G27  23489303.729 1 123436965.63621     -3768.967          36.000  
G31  23310156.687 4 122495846.77523      2386.994          31.000  
> 2020  9 15 11  4 40.8930000  0 24                     
G22  18375405.643 1  96563405.05521        40.603          49.000  
G 1  18042736.498 1  94815236.57421       137.091          51.000  
G11  18078399.316 1  95002599.82321     -1566.986          46.000  
G 3  18682135.501 1  98175248.95221      1551.019          48.000  
G 8  20439787.019 1 107411892.33121     -3271.891          45.000  
G21  21257719.470 1 111710073.33521     -2131.152          45.000  
G32  20947783.771 1 110081307.53421     -2149.965          44.000  
G28  21443017.714 1 112683809.28921      -638.249          43.000  
E11  19542498.417 1 102696523.892 1       601.658          44.000  
E 4  21717207.076 1 114124699.595 1       984.353          45.000  
E12  21106702.684 1 110916485.751 1     -1694.544          40.000  
E19  23542527.022 1 123716782.301 1     -1976.364          36.000  
R23  16992904.002 1  90900562.297 1       630.096          51.000  
R 8  17228396.848 1  92257270.229 1     -1151.666          46.000  
R 1  17646345.029 1  94329763.650 1      2340.702          47.000  
R24  18654134.635 1  99752032.568 1      3020.587          48.000  
R22  20234273.855 1 108011795.192 1     -3332.445          46.000  
R 7  20342898.175 1 108897093.872 1     -3913.715          44.000  
E36  23919491.476 1 125697768.043 1      2322.985          41.000  
E 9  22319649.886 1 117290561.499 1      2995.412          43.000  
G17  22108600.978 2 116181510.61521      3219.400          34.000  
G 4  22110256.925 1 116190203.10421      3751.806          42.000  
G27  23489375.484 1 123437342.53921     -3769.106          36.000  
G31  23310110.470 4 122495607.97522      2387.897          31.000  
> 2020  9 15 11  4 40.9930000  0 24                     
G22  18375404.901 1  96563400.98821        40.581          49.000  
G 1  18042733.871 1  94815222.85921       137.039          51.000  
G11  18078429.164 1  95002756.52821     -1567.187          46.000  
G 3  18682106.010 1  98175093.83721      1551.111          48.000  
G 8  20439849.272 1 107412219.53621     -3272.167          45.000  
G21  21257760.016 1 111710286.43121     -2131.013          45.000  
G32  20947824.718 1 110081522.50521     -2149.769          44.000  
G28  21443029.841 1 112683873.12221      -638.399          43.000  
E11  19542487.040 1 102696463.708 1       601.671          44.000  
E 4  21717188.413 1 114124601.163 1       984.214          45.000  
E12  21106734.888 1 110916655.194 1     -1694.485          40.000  
E19  23542564.618 1 123716979.944 1     -1976.505          36.000  
R23  16992892.197 1  90900499.287 1       629.979          51.000  
R 8  17228418.311 1  92257385.363 1     -1151.379          46.000  
R 1  17646301.333 1  94329529.577 1      2340.585          47.000  
R24  18654078.061 1  99751730.507 1      3020.514          48.000  
R22  20234336.309 1 108012128.416 1     -3332.274          46.000  
R 7  20342971.283 1 108897485.229 1     -3913.553          44.000  
E36  23919447.100 1 125697535.737 1      2323.011          41.000  
E 9  22319592.920 1 117290261.928 1      2995.583          43.000  
G17  22108539.728 2 116181188.67521      3219.475          34.000  
G 4  22110185.554 1 116189827.89321      3752.001          42.000  
G27  23489447.230 1 123437719.47821     -3769.546          36.000  
G31  23310064.306 4 122495369.27322      2386.680          31.000  
> 2020  9 15 11  4 41.0930000  0 24                     
G22  18375404.142 1  96563396.92321        40.562          49.000  
G 1  18042731.202 1  94815209.15421       136.966          51.000  
G11  18078458.934 1  95002913.23321     -1567.192          46.000  
G 3  18682076.519 1  98174938.75321      1550.708          48.000  
G 8  20439911.596 1 107412546.73521     -3272.015          45.000  
G21  21257800.666 1 111710499.54621     -2131.255          45.000  
G32  20947865.604 1 110081737.49921     -2149.967          44.000  
G28  21443042.057 1 112683936.94721      -638.368          43.000  
E11  19542475.496 1 102696403.531 1       601.742          44.000  
E 4  21717169.759 1 114124502.743 1       984.165          45.000  
E12  21106767.293 1 110916824.668 1     -1694.879          40.000  
E19  23542602.415 1 123717177.602 1     -1976.839          36.000  
R23  16992880.401 1  90900436.294 1       629.833          51.000  
R 8  17228439.766 1  92257500.518 1     -1151.669          46.000  
R 1  17646257.568 1  94329295.510 1      2340.563          47.000  
R24  18654021.470 1  99751428.445 1      3020.526          48.000  
R22  20234398.851 1 108012461.659 1     -3332.545          46.000  
R 7  20343044.356 1 108897876.624 1     -3914.043          44.000  
E36  23919402.882 1 125697303.418 1      2323.067          41.000  
E 9  22319535.893 1 117289962.369 1      2995.601          43.000  
G17  22108478.582 2 116180866.79121      3218.736          34.000  
G 4  22110114.183 1 116189452.68821      3751.990          42.000  
G27  23489518.960 1 123438096.38921     -3769.105          36.000  
G31  23310018.481 4 122495130.47822      2387.565          31.000  
> 2020  9 15 11  4 41.1930000  0 24                     
G22  18375403.549 1  96563392.88821        40.213          49.000  
G 1  18042728.663 1  94815195.48321       136.609          51.000  
G11  18078488.670 1  95003069.97421     -1567.529          46.000  
G 3  18682046.941 1  98174783.68821      1550.549          48.000  
G 8  20439973.989 1 107412873.96221     -3272.310          45.000  
G21  21257841.273 1 111710712.69021     -2131.567          45.000  
G32  20947906.542 1 110081952.53021     -2150.420          44.000  
G28  21443054.184 1 112684000.81221      -638.798          43.000  
E11  19542464.084 1 102696343.385 1       601.549          44.000  
E 4  21717151.000 1 114124404.350 1       983.882          45.000  
E12  21106799.533 1 110916994.164 1     -1695.058          40.000  
E19  23542640.038 1 123717375.274 1     -1976.820          36.000  
R23  16992868.735 1  90900373.331 1       629.491          51.000  
R 8  17228461.274 1  92257615.714 1     -1152.107          46.000  
R 1  17646213.925 1  94329061.487 1      2340.155          47.000  
R24  18653965.010 1  99751126.421 1      3020.123          48.000  
R22  20234461.349 1 108012794.932 1     -3332.870          46.000  
R 7  20343117.455 1 108898268.032 1     -3914.131          44.000  
E36  23919358.741 1 125697071.136 1      2322.710          41.000  
E 9  22319478.979 1 117289662.842 1      2995.224          43.000  
G17  22108417.332 4 116180544.89322      3219.197          34.000  
G 4  22110042.837 1 116189077.53521      3751.424          42.000  
G27  23489590.811 2 123438473.34021     -3769.584          37.000  
G31  23309972.997 4 122494891.74123      2387.009          31.000  
> 2020  9 15 11  4 41.2930000  0 24                     
G22  18375402.851 1  96563388.87521        39.950          49.000  
G 1  18042726.001 1  94815181.82421       136.420          51.000  
G11  18078518.553 1  95003226.73521     -1567.856          46.000  
G 3  18682017.372 1  98174628.63921      1550.336          48.000  
G 8  20440036.138 1 107413201.22321     -3272.777          45.000  
G21  21257881.871 1 111710925.83621     -2131.678          45.000  
G32  20947947.411 1 110082167.55921     -2150.440          44.000  
G28  21443066.277 1 112684064.69221      -639.030          43.000  
E11  19542452.628 1 102696283.263 1       601.248          44.000  
E 4  21717132.258 1 114124305.968 1       983.618          45.000  
E12  21106831.816 1 110917163.663 1     -1695.233          40.000  
E19  23542677.608 1 123717572.944 1     -1976.817          36.000  
R23  16992857.000 1  90900310.380 1       629.301          51.000  
R 8  17228482.790 1  92257730.913 1     -1152.155          46.000  
R 1  17646170.099 1  94328827.471 1      2339.938          47.000  
R24  18653908.497 1  99750824.409 1      3019.885          48.000  
R22  20234523.838 1 108013128.213 1     -3333.017          46.000  
R 7  20343190.492 1 108898659.434 1     -3914.065          44.000  
E36  23919314.488 1 125696838.868 1      2322.509          41.000  
E 9  22319421.969 1 117289363.350 1      2994.709          43.000  
G17  22108356.012 4 116180222.98622      3218.999          34.000  
G 4  22109971.387 1 116188702.35421      3751.658          42.000  
G27  23489662.653 1 123438850.29721     -3769.794          37.000  
G31  23309927.435 4 122494653.06022      2386.896          30.000  
> 2020  9 15 11  4 41.3930000  0 24                     
G22  18375402.135 1  96563384.88021        39.749          49.000  
G 1  18042723.419 1  94815168.18721       136.212          51.000  
G11  18078548.445 1  95003383.51121     -1567.919          46.000  
G 3  18681987.890 1  98174473.61321      1550.104          48.000  
G 8  20440098.348 1 107413528.48921     -3272.838          45.000  
G21  21257922.425 1 111711139.01721     -2132.034          45.000  
G32  20947988.331 1 110082382.62521     -2150.893          44.000  
G28  21443078.388 1 112684128.58921      -639.157          43.000  
E11  19542441.154 1 102696223.152 1       601.035          44.000  
E 4  21717113.578 1 114124207.615 1       983.359          45.000  
E12  21106864.256 1 110917333.180 1     -1695.350          40.000  
E19  23542715.292 1 123717770.664 1     -1977.195          36.000  
R23  16992845.317 1  90900247.461 1       628.965          51.000  
R 8  17228504.306 1  92257846.150 1     -1152.559          46.000  
R 1  17646126.325 1  94328593.490 1      2339.582          47.000  
R24  18653851.959 1  99750522.414 1      3019.843          48.000  
R22  20234586.240 1 108013461.518 1     -3333.211          46.000  
R 7  20343263.618 1 108899050.900 1     -3914.808          44.000  
E36  23919270.251 1 125696606.611 1      2322.439          41.000  
E 9  22319364.994 1 117289063.839 1      2994.890          43.000  
G17  22108294.797 4 116179901.15722      3218.127          34.000  
G 4  22109899.964 1 116188327.22621      3751.190          42.000  
G27  23489734.444 2 123439227.27221     -3769.765          37.000  
G31  23309881.977 4 122494414.40522      2386.677          30.000  
> 2020  9 15 11  4 41.4930000  0 24                     
G22  18375401.341 1  96563380.90021        39.807          49.000  
G 1  18042720.810 1  94815154.56521       136.123          51.000  
G11  18078578.294 1  95003540.30721     -1567.989          46.000  
G 3  18681958.320 1  98174318.60421      1550.024          48.000  
G 8  20440160.628 1 107413855.76621     -3272.903          45.000  
G21  21257962.988 1 111711352.20321     -2131.929          45.000  
G32  20948029.208 1 110082597.69721     -2150.790          44.000  
G28  21443090.516 1 112684192.50521      -639.167          43.000  
E11  19542429.733 1 102696163.069 1       600.780          44.000  
E 4  21717094.810 1 114124109.279 1       983.317          45.000  
E12  21106896.416 1 110917502.718 1     -1695.320          40.000  
E19  23542752.871 1 123717968.390 1     -1977.302          36.000  
R23  16992833.529 1  90900184.558 1       628.980          51.000  
R 8  17228525.831 1  92257961.400 1     -1152.583          46.000  
R 1  17646082.516 1  94328359.523 1      2339.647          47.000  
R24  18653795.533 1  99750220.437 1      3019.781          48.000  
R22  20234648.816 1 108013794.836 1     -3333.239          46.000  
R 7  20343336.725 1 108899442.352 1     -3914.576          44.000  
E36  23919226.085 1 125696374.368 1      2322.331          41.000  
E 9  22319307.993 1 117288764.362 1      2994.721          43.000  
G17  22108233.485 4 116179579.30422      3218.448          34.000  
G 4  22109828.549 1 116187952.09721      3751.166          42.000  
G27  23489806.295 1 123439604.26721     -3769.944          37.000  
G31  23309836.039 4 122494175.68723      2387.330          30.000  
> 2020  9 15 11  4 41.5930000  0 24                     
G22  18375400.582 1  96563376.91221        39.837          49.000  
G 1  18042718.166 1  94815140.92721       136.247          51.000  
G11  18078608.134 1  95003697.09721     -1568.028          46.000  
G 3  18681928.751 1  98174163.58921      1550.134          48.000  
G 8  20440222.934 1 107414183.03821     -3272.715          45.000  
G21  21258003.499 1 111711565.37121     -2131.789          45.000  
G32  20948070.094 1 110082812.77021     -2150.790          44.000  
G28  21443102.696 1 112684256.42021      -639.192          43.000  
E11  19542418.329 1 102696102.954 1       600.934          44.000  
E 4  21717076.034 1 114124010.927 1       983.493          45.000  
E12  21106928.656 1 110917672.236 1     -1695.169          40.000  
E19  23542790.511 1 123718166.113 1     -1977.318          36.000  
R23  16992821.751 1  90900121.636 1       629.100          51.000  
R 8  17228547.373 1  92258076.645 1     -1152.645          46.000  
R 1  17646038.734 1  94328125.545 1      2339.661          47.000  
R24  18653739.038 1  99749918.445 1      3019.867          48.000  
R22  20234711.297 1 108014128.146 1     -3333.230          46.000  
R 7  20343409.859 1 108899833.794 1     -3914.546          44.000  
E36  23919181.848 1 125696142.118 1      2322.407          41.000  
E 9  22319251.009 1 117288464.869 1      2994.858          43.000  
G17  22108172.209 4 116179257.42022      3218.822          34.000  
G 4  22109757.169 1 116187576.95021      3751.313          42.000  
G27  23489877.972 1 123439981.24421     -3769.880          37.000  
G31  23309790.852 4 122493937.04323      2386.760          30.000  
> 2020  9 15 11  4 41.6930000  0 24                     
G22  18375399.893 1  96563372.96321        39.333          49.000  
G 1  18042715.627 1  94815127.33421       135.745          51.000  
G11  18078638.052 1  95003853.92421     -1568.447          46.000  
G 3  18681899.182 1  98174008.60321      1549.719          48.000  
G 8  20440285.170 1 107414510.33621     -3273.103          45.000  
G21  21258044.062 1 111711778.58521     -2132.321          45.000  
G32  20948111.041 1 110083027.88021     -2151.264          44.000  
G28  21443114.859 1 112684320.37021      -639.640          43.000  
E11  19542406.865 1 102696042.884 1       600.407          44.000  
E 4  21717057.257 1 114123912.613 1       983.077          45.000  
E12  21106961.008 1 110917841.808 1     -1695.866          40.000  
E19  23542828.090 1 123718363.867 1     -1977.593          36.000  
R23  16992809.963 1  90900058.776 1       628.344          51.000  
R 8  17228569.003 1  92258191.940 1     -1153.182          46.000  
R 1  17645995.003 1  94327891.619 1      2339.022          47.000  
R24  18653682.569 1  99749616.496 1      3019.342          48.000  
R22  20234773.760 1 108014461.502 1     -3333.690          46.000  
R 7  20343483.028 1 108900225.276 1     -3914.981          44.000  
E36  23919137.856 1 125695909.899 1      2322.031          41.000  
E 9  22319194.008 1 117288165.409 1      2994.425          43.000  
G17  22108110.959 4 116178935.61022      3218.000          34.000  
G 4  22109685.771 1 116187201.83821      3750.969          42.000  
G27  23489949.805 1 123440358.24221     -3770.129          37.000  
G31  23309744.993 4 122493698.43323      2385.883          30.000  
> 2020  9 15 11  4 41.7930000  0 24                     
G22  18375399.177 1  96563369.00821        39.563          49.000  
G 1  18042713.018 1  94815113.72421       136.129          51.000  
G11  18078667.848 1  95004010.74821     -1568.187          46.000  
G 3  18681869.682 1  98173853.62221      1549.805          48.000  
G 8  20440347.354 1 107414837.65121     -3273.109          45.000  
G21  21258084.677 1 111711991.78121     -2131.956          45.000  
G32  20948151.901 1 110083242.99121     -2151.149          44.000  
G28  21443126.996 1 112684384.31821      -639.471          43.000  
E11  19542395.470 1 102695982.805 1       600.675          44.000  
E 4  21717038.681 1 114123814.313 1       983.002          45.000  
E12  21106993.309 1 110918011.378 1     -1695.788          40.000  
E19  23542865.652 1 123718561.599 1     -1977.247          36.000  
R23  16992798.245 1  90899995.894 1       628.864          51.000  
R 8  17228590.510 1  92258307.215 1     -1152.786          46.000  
R 1  17645951.116 1  94327657.679 1      2339.428          47.000  
R24  18653626.118 1  99749314.540 1      3019.580          48.000  
R22  20234836.345 1 108014794.833 1     -3333.241          46.000  
R 7  20343556.249 1 108900616.763 1     -3914.982          44.000  
E36  23919093.620 1 125695677.667 1      2322.363          41.000  
E 9  22319136.955 1 117287865.943 1      2994.680          43.000  
G17  22108049.621 4 116178613.76322      3218.643          34.000  
G 4  22109614.513 1 116186826.72321      3751.171          42.000  
G27  23490021.543 1 123440735.25021     -3769.977          37.000  
G31  23309699.352 4 122493459.71123      2387.250          30.000  
> 2020  9 15 11  4 41.8930000  0 24                     
G22  18375398.593 1  96563365.05221        39.525          49.000  
G 1  18042710.488 1  94815100.12721       135.948          51.000  
G11  18078697.723 1  95004167.57321     -1568.301          46.000  
G 3  18681840.270 1  98173698.64021      1549.792          48.000  
G 8  20440409.642 1 107415164.94221     -3272.968          45.000  
G21  21258125.197 1 111712204.97821     -2131.946          45.000  
G32  20948192.857 1 110083458.07721     -2150.851          44.000  
G28  21443139.167 1 112684448.26021      -639.541          43.000  
E11  19542384.057 1 102695922.710 1       600.976          44.000  
E 4  21717019.949 1 114123715.991 1       983.195          45.000  
E12  21107025.496 1 110918180.926 1     -1695.516          40.000  
E19  23542903.370 1 123718759.370 1     -1977.684          36.000  
R23  16992786.553 1  90899933.019 1       628.736          51.000  
R 8  17228612.122 1  92258422.493 1     -1152.877          46.000  
R 1  17645907.229 1  94327423.745 1      2339.322          47.000  
R24  18653569.632 1  99749012.571 1      3019.757          48.000  
R22  20234898.799 1 108015128.187 1     -3333.579          46.000  
R 7  20343629.304 1 108901008.215 1     -3914.552          44.000  
E36  23919049.314 1 125695445.426 1      2322.398          41.000  
E 9  22319079.980 1 117287566.481 1      2994.615          43.000  
G17  22107988.380 2 116178291.94121      3218.094          34.000  
G 4  22109543.150 1 116186451.59721      3751.278          42.000  
G27  23490093.272 1 123441112.23821     -3769.716          37.000  
G31  23309653.702 4 122493221.14123      2385.386          30.000  
> 2020  9 15 11  4 41.9930000  0 24                     
G22  18375397.903 1  96563361.08821        39.649          49.000  
G 1  18042707.853 1  94815086.51921       136.066          51.000  
G11  18078727.485 1  95004324.39521     -1568.200          46.000  
G 3  18681810.674 1  98173543.63821      1550.031          48.000  
G 8  20440471.922 1 107415492.23321     -3272.881          45.000  
G21  21258165.856 1 111712418.17421     -2131.908          45.000  
G32  20948233.742 1 110083673.18321     -2151.066          44.000  
G28  21443151.356 1 112684512.20221      -639.379          43.000  
E11  19542372.653 1 102695862.619 1       601.061          44.000  
E 4  21717001.198 1 114123617.669 1       983.256          45.000  
E12  21107057.796 1 110918350.450 1     -1695.184          40.000  
E19  23542940.845 1 123718957.096 1     -1977.335          36.000  
R23  16992774.783 1  90899870.147 1       628.708          51.000  
R 8  17228633.534 1  92258537.780 1     -1152.818          46.000  
R 1  17645863.455 1  94327189.811 1      2339.323          47.000  
R24  18653513.180 1  99748710.605 1      3019.733          48.000  
R22  20234961.420 1 108015461.513 1     -3333.226          46.000  
R 7  20343702.447 1 108901399.690 1     -3914.687          44.000  
E36  23919005.060 1 125695213.187 1      2322.350          41.000  
E 9  22319022.970 1 117287266.997 1      2994.893          43.000  
G17  22107927.138 2 116177970.10921      3218.342          34.000  
G 4  22109471.779 1 116186076.46921      3751.309          42.000  
G27  23490165.036 1 123441489.22321     -3769.864          37.000  
G31  23309608.445 8 122492982.41923      2387.178          30.000  
> 2020  9 15 11  4 42.0930000  0 24                     
G22  18375397.101 1  96563357.11721        39.777          49.000  
G 1  18042705.297 1  94815072.90021       136.276          51.000  
G11  18078757.289 1  95004481.20721     -1568.033          46.000  
G 3  18681781.209 1  98173388.63821      1550.061          48.000  
G 8  20440534.219 1 107415819.52221     -3272.850          45.000  
G21  21258206.349 1 111712631.33921     -2131.357          45.000  
G32  20948274.742 1 110083888.27521     -2150.876          44.000  
G28  21443163.475 1 112684576.13321      -639.232          43.000  
E11  19542361.136 1 102695802.531 1       601.058          44.000  
E 4  21716982.535 1 114123519.349 1       983.248          45.000  
E12  21107090.009 1 110918519.994 1     -1695.294          40.000  
E19  23542978.459 1 123719154.833 1     -1977.407          36.000  
R23  16992762.996 1  90899807.257 1       628.991          51.000  
R 8  17228655.041 1  92258653.062 1     -1152.749          46.000  
R 1  17645819.629 1  94326955.868 1      2339.520          47.000  
R24  18653456.668 1  99748408.629 1      3019.812          48.000  
R22  20235023.926 1 108015794.844 1     -3333.262          46.000  
R 7  20343775.511 1 108901791.140 1     -3914.334          44.000  
E36  23918960.780 1 125694980.928 1      2322.694          41.000  
E 9  22318965.951 1 117286967.511 1      2994.980          43.000  
G17  22107865.905 2 116177648.26321      3218.347          34.000  
G 4  22109400.329 1 116185701.31721      3751.675          42.000  
G27  23490236.800 1 123441866.19821     -3769.626          37.000  
G31  23309562.699 8 122492743.73523      2386.797          30.000  
> 2020  9 15 11  4 42.1930000  0 24                     
G22  18375396.281 1  96563353.15921        39.574          49.000  
G 1  18042702.793 1  94815059.28421       136.143          51.000  
G11  18078787.112 1  95004638.03921     -1568.344          46.000  
G 3  18681751.675 1  98173233.64721      1549.872          48.000  
G 8  20440596.482 1 107416146.80121     -3272.739          45.000  
G21  21258246.999 1 111712844.54521     -2132.137          45.000  
G32  20948315.610 1 110084103.37621     -2151.004          44.000  
G28  21443175.612 1 112684640.08121      -639.541          43.000  
E11  19542349.724 1 102695742.446 1       600.904          44.000  
E 4  21716963.829 1 114123421.020 1       983.272          45.000  
E12  21107122.344 1 110918689.532 1     -1695.431          40.000  
E19  23543016.108 1 123719352.567 1     -1977.629          36.000  
R23  16992751.199 1  90899744.386 1       628.715          51.000  
R 8  17228676.636 1  92258768.356 1     -1153.015          46.000  
R 1  17645775.837 1  94326721.935 1      2339.334          47.000  
R24  18653400.155 1  99748106.664 1      3019.659          48.000  
R22  20235086.433 1 108016128.171 1     -3333.285          46.000  
R 7  20343848.697 1 108902182.606 1     -3914.656          44.000  
E36  23918916.657 1 125694748.681 1      2322.571          41.000  
E 9  22318908.915 1 117286668.033 1      2994.836          43.000  
G17  22107804.777 2 116177326.39321      3218.684          34.000  
G 4  22109329.089 1 116185326.18221      3751.375          42.000  
G27  23490308.669 1 123442243.16221     -3769.545          37.000  
G31  23309517.206 8 122492505.09123      2386.095          30.000  
> 2020  9 15 11  4 42.2930000  0 24                     
G22  18375395.504 1  96563349.18321        39.833          49.000  
G 1  18042700.219 1  94815045.66721       136.194          51.000  
G11  18078816.926 1  95004794.84421     -1568.027          46.000  
G 3  18681722.202 1  98173078.64721      1550.024          48.000  
G 8  20440658.788 1 107416474.08321     -3272.752          45.000  
G21  21258287.545 1 111713057.71121     -2131.631          45.000  
G32  20948356.548 1 110084318.46621     -2150.826          44.000  
G28  21443187.740 1 112684704.00721      -639.177          43.000  
E11  19542338.338 1 102695682.338 1       601.127          44.000  
E 4  21716945.201 1 114123322.691 1       983.339          45.000  
E12  21107154.688 1 110918859.085 1     -1695.472          40.000  
E19  23543053.765 1 123719550.274 1     -1976.982          36.000  
R23  16992739.412 1  90899681.501 1       628.880          51.000  
R 8  17228698.160 1  92258883.631 1     -1152.770          46.000  
R 1  17645732.029 1  94326488.000 1      2339.387          47.000  
R24  18653343.677 1  99747804.675 1      3019.928          48.000  
R22  20235149.044 1 108016461.498 1     -3333.211          46.000  
R 7  20343921.787 1 108902574.047 1     -3914.276          44.000  
E36  23918872.439 1 125694516.406 1      2322.795          41.000  
E 9  22318851.740 1 117286368.532 1      2994.958          43.000  
G17  22107743.570 2 116177004.56221      3218.290          34.000  
G 4  22109257.717 1 116184951.02621      3751.675          42.000  
G27  23490380.459 1 123442620.13621     -3769.750          37.000  
G31  23309471.583 8 122492266.36523      2387.467          30.000  
> 2020  9 15 11  4 42.3930000  0 24                     
G22  18375394.754 1  96563345.21221        39.591          49.000  
G 1  18042697.671 1  94815032.04621       136.092          51.000  
G11  18078846.800 1  95004951.66721     -1568.334          46.000  
G 3  18681692.719 1  98172923.65121      1549.835          48.000  
G 8  20440720.998 1 107416801.36321     -3272.857          45.000  
G21  21258328.108 1 111713270.88421     -2131.803          45.000  
G32  20948397.521 1 110084533.55721     -2151.058          44.000  
G28  21443199.798 1 112684767.95721      -639.603          43.000  
E11  19542326.829 1 102695622.241 1       600.835          44.000  
E 4  21716926.267 1 114123224.371 1       983.136          45.000  
E12  21107186.858 1 110919028.589 1     -1695.021          40.000  
E19  23543091.466 1 123719748.012 1     -1977.479          36.000  
R23  16992727.650 1  90899618.627 1       628.641          51.000  
R 8  17228719.720 1  92258998.920 1     -1152.964          46.000  
R 1  17645688.246 1  94326254.060 1      2339.306          47.000  
R24  18653287.278 1  99747502.697 1      3019.666          48.000  
R22  20235211.394 1 108016794.817 1     -3333.316          46.000  
R 7  20343994.895 1 108902965.497 1     -3914.495          44.000  
E36  23918828.316 1 125694284.145 1      2322.519          41.000  
E 9  22318794.677 1 117286069.040 1      2994.811          43.000  
G17  22107682.329 2 116176682.70421      3218.637          34.000  
G 4  22109186.215 1 116184575.87221      3751.485          42.000  
G27  23490452.145 1 123442997.08921     -3769.614          37.000  
G31  23309426.430 8 122492027.67723      2386.661          30.000  
> 2020  9 15 11  4 42.4930000  0 24                     
G22  18375393.977 1  96563341.26321        39.451          49.000  
G 1  18042695.080 1  94815018.44021       136.021          51.000  
G11  18078876.570 1  95005108.50321     -1568.385          46.000  
G 3  18681663.220 1  98172768.66221      1549.847          48.000  
G 8  20440783.304 1 107417128.65121     -3272.838          45.000  
G21  21258368.775 1 111713484.08021     -2132.042          45.000  
G32  20948438.372 1 110084748.68121     -2151.319          44.000  
G28  21443212.022 1 112684831.91321      -639.619          43.000  
E11  19542315.417 1 102695562.153 1       600.684          44.000  
E 4  21716907.674 1 114123126.052 1       983.141          45.000  
E12  21107219.210 1 110919198.133 1     -1695.518          40.000  
E19  23543129.298 1 123719945.750 1     -1977.254          36.000  
R23  16992715.889 1  90899555.767 1       628.578          51.000  
R 8  17228741.271 1  92259114.229 1     -1153.212          46.000  
R 1  17645644.341 1  94326020.149 1      2339.048          47.000  
R24  18653230.844 1  99747200.733 1      3019.616          48.000  
R22  20235273.822 1 108017128.158 1     -3333.459          46.000  
R 7  20344068.029 1 108903356.964 1     -3914.526          44.000  
E36  23918784.106 1 125694051.893 1      2322.428          41.000  
E 9  22318737.737 1 117285769.569 1      2994.650          43.000  
G17  22107621.018 2 116176360.85321      3218.237          34.000  
G 4  22109114.870 1 116184200.74321      3751.281          42.000  
G27  23490523.926 1 123443374.06021     -3769.658          37.000  
G31  23309381.007 8 122491789.03723      2386.473          30.000  
> 2020  9 15 11  4 42.5930000  0 24                     
G22  18375393.192 1  96563337.29521        39.648          49.000  
G 1  18042692.497 1  94815004.83021       136.064          51.000  
G11  18078906.384 1  95005265.33021     -1568.356          46.000  
G 3  18681633.607 1  98172613.67321      1549.829          48.000  
G 8  20440845.575 1 107417455.94021     -3272.943          45.000  
G21  21258409.312 1 111713697.24221     -2131.607          45.000  
G32  20948479.293 1 110084963.76521     -2150.902          44.000  
G28  21443224.150 1 112684895.85221      -639.485          43.000  
E11  19542303.882 1 102695502.045 1       600.880          44.000  
E 4  21716888.906 1 114123027.734 1       983.162          45.000  
E12  21107251.450 1 110919367.678 1     -1695.512          40.000  
E19  23543166.912 1 123720143.480 1     -1977.304          36.000  
R23  16992704.197 1  90899492.896 1       628.659          51.000  
R 8  17228762.805 1  92259229.527 1     -1152.995          46.000  
R 1  17645600.533 1  94325786.230 1      2339.140          47.000  
R24  18653174.375 1  99746898.741 1      3019.934          48.000  
R22  20235336.337 1 108017461.482 1     -3333.276          46.000  
R 7  20344141.215 1 108903748.421 1     -3914.604          44.000  
E36  23918739.712 1 125693819.612 1      2322.847          41.000  
E 9  22318680.806 1 117285470.058 1      2995.000          43.000  
G17  22107559.811 2 116176039.01921      3218.140          34.000  
G 4  22109043.472 1 116183825.56821      3751.775          42.000  
G27  23490595.690 1 123443751.01621     -3769.562          37.000  
G31  23309335.532 8 122491550.30723      2387.156          30.000  
> 2020  9 15 11  4 42.6930000  0 24                     
G22  18375392.459 1  96563333.34621        39.408          49.000  
G 1  18042689.967 1  94814991.23121       135.840          51.000  
G11  18078936.163 1  95005422.16721     -1568.410          46.000  
G 3  18681604.125 1  98172458.69021      1549.731          48.000  
G 8  20440907.925 1 107417783.23321     -3272.998          45.000  
G21  21258449.867 1 111713910.42421     -2131.876          45.000  
G32  20948520.170 1 110085178.89021     -2151.340          44.000  
G28  21443236.312 1 112684959.80921      -639.638          43.000  
E11  19542292.374 1 102695441.944 1       600.957          44.000  
E 4  21716870.200 1 114122929.432 1       982.901          45.000  
E12  21107283.706 1 110919537.193 1     -1695.085          40.000  
E19  23543204.587 1 123720341.216 1     -1977.407          36.000  
R23  16992692.514 1  90899430.051 1       628.361          51.000  
R 8  17228784.356 1  92259344.851 1     -1153.289          46.000  
R 1  17645556.820 1  94325552.328 1      2338.899          47.000  
R24  18653117.872 1  99746596.790 1      3019.494          48.000  
R22  20235398.827 1 108017794.832 1     -3333.661          46.000  
R 7  20344214.358 1 108904139.893 1     -3914.746          44.000  
E36  23918695.694 1 125693587.356 1      2322.586          41.000  
E 9  22318623.866 1 117285170.586 1      2994.672          43.000  
G17  22107498.561 2 116175717.14521      3218.725          34.000  
G 4  22108972.075 1 116183450.42921      3751.330          42.000  
G27  23490667.559 1 123444128.00421     -3769.958          37.000  
G31  23309289.961 8 122491311.65823      2386.924          30.000  
> 2020  9 15 11  4 42.7930000  0 24                     
G22  18375391.761 1  96563329.40321        39.472          49.000  
G 1  18042687.401 1  94814977.63821       135.899          51.000  
G11  18078966.038 1  95005579.01821     -1568.646          46.000  
G 3  18681574.625 1  98172303.72321      1549.609          48.000  
G 8  20440970.266 1 107418110.53621     -3273.057          45.000  
G21  21258490.482 1 111714123.61521     -2131.872          45.000  
G32  20948561.161 1 110085394.01121     -2151.202          44.000  
G28  21443248.536 1 112685023.77921      -639.673          43.000  
E11  19542280.935 1 102695381.858 1       601.005          44.000  
E 4  21716851.545 1 114122831.132 1       982.977          45.000  
E12  21107316.007 1 110919706.760 1     -1695.596          40.000  
E19  23543242.175 1 123720538.980 1     -1977.642          36.000  
R23  16992680.762 1  90899367.204 1       628.466          51.000  
R 8  17228805.855 1  92259460.176 1     -1153.262          46.000  
R 1  17645513.081 1  94325318.425 1      2339.032          47.000  
R24  18653061.429 1  99746294.822 1      3019.714          48.000  
R22  20235461.386 1 108018128.180 1     -3333.488          46.000  
R 7  20344287.439 1 108904531.350 1     -3914.469          44.000  
E36  23918651.519 1 125693355.107 1      2322.445          41.000  
E 9  22318566.891 1 117284871.105 1      2994.770          43.000  
G17  22107437.249 2 116175395.33521      3218.464          34.000  
G 4  22108900.703 1 116183075.29721      3751.321          42.000  
G27  23490739.192 1 123444504.96521     -3769.573          37.000  
G31  23309244.215 8 122491072.95723      2387.141          30.000  
> 2020  9 15 11  4 42.8930000  0 24                     
G22  18375390.967 1  96563325.45721        39.335          49.000  
G 1  18042684.767 1  94814964.04821       135.749          51.000  
G11  18078995.869 1  95005735.86521     -1568.601          46.000  
G 3  18681545.073 1  98172148.76021      1549.402          48.000  
G 8  20441032.510 1 107418437.84421     -3273.248          45.000  
G21  21258531.001 1 111714336.80721     -2131.967          45.000  
G32  20948602.108 1 110085609.15021     -2151.613          44.000  
G28  21443260.717 1 112685087.73621      -639.637          43.000  
E11  19542269.566 1 102695321.773 1       600.954          44.000  
E 4  21716832.961 1 114122732.839 1       982.885          45.000  
E12  21107348.272 1 110919876.318 1     -1695.657          40.000  
E19  23543279.780 1 123720736.732 1     -1977.702          36.000  
R23  16992669.105 1  90899304.367 1       628.271          51.000  
R 8  17228827.406 1  92259575.520 1     -1153.613          46.000  
R 1  17645469.228 1  94325084.544 1      2338.612          47.000  
R24  18653005.004 1  99745992.874 1      3019.336          48.000  
R22  20235523.849 1 108018461.525 1     -3333.599          46.000  
R 7  20344360.634 1 108904922.836 1     -3914.972          44.000  
E36  23918607.283 1 125693122.848 1      2322.495          41.000  
E 9  22318509.890 1 117284571.620 1      2994.721          43.000  
G17  22107375.999 2 116175073.48421      3218.376          34.000  
G 4  22108829.288 1 116182700.13821      3751.517          42.000  
G27  23490810.947 1 123444881.92221     -3769.544          37.000  
G31  23309198.801 4 122490834.24823      2387.191          30.000  
> 2020  9 15 11  4 42.9930000  0 24                     
G22  18375390.147 1  96563321.58121        38.594          49.000  
G 1  18042682.219 1  94814950.51621       135.172          51.000  
G11  18079025.779 1  95005892.78121     -1569.378          46.000  
G 3  18681515.547 1  98171993.84621      1549.011          48.000  
G 8  20441094.869 1 107418765.20521     -3273.752          45.000  
G21  21258571.599 1 111714550.05721     -2132.639          45.000  
G32  20948643.037 1 110085824.32321     -2151.890          44.000  
G28  21443272.897 1 112685151.77021      -640.465          43.000  
E11  19542258.259 1 102695261.762 1       600.031          44.000  
E 4  21716814.280 1 114122634.601 1       982.166          45.000  
E12  21107380.634 1 110920045.913 1     -1696.146          40.000  
E19  23543317.604 1 123720934.552 1     -1978.492          36.000  
R23  16992657.457 1  90899241.599 1       627.459          51.000  
R 8  17228848.991 1  92259690.916 1     -1154.098          46.000  
R 1  17645425.568 1  94324850.716 1      2338.099          47.000  
R24  18652948.639 1  99745690.966 1      3018.951          48.000  
R22  20235586.321 1 108018794.941 1     -3334.281          46.000  
R 7  20344433.733 1 108905314.369 1     -3915.533          44.000  
E36  23918563.282 1 125692890.645 1      2321.936          41.000  
E 9  22318453.002 1 117284272.209 1      2993.905          43.000  
G17  22107314.670 2 116174751.72121      3217.543          34.000  
G 4  22108758.021 1 116182325.06121      3750.706          42.000  
G27  23490882.694 1 123445258.95021     -3770.431          37.000  
G31  23309152.567 4 122490595.67223      2385.930          30.000  
> 2020  9 15 11  4 43.0930000  0 24                     
G22  18375389.283 1  96563317.67821        38.940          49.000  
G 1  18042679.549 1  94814936.96221       135.417          51.000  
G11  18079055.618 1  95006049.67521     -1569.087          47.000  
G 3  18681486.022 1  98171838.91421      1549.231          48.000  
G 8  20441157.044 1 107419092.54321     -3273.521          45.000  
G21  21258612.154 1 111714763.27921     -2132.280          45.000  
G32  20948684.002 1 110086039.49821     -2151.834          44.000  
G28  21443285.121 1 112685215.78221      -640.235          43.000  
E11  19542246.776 1 102695201.723 1       600.218          44.000  
E 4  21716795.678 1 114122536.343 1       982.476          45.000  
E12  21107412.951 1 110920215.511 1     -1696.188          40.000  
E19  23543355.226 1 123721132.320 1     -1977.763          36.000  
R23  16992645.774 1  90899178.803 1       627.857          51.000  
R 8  17228870.542 1  92259806.301 1     -1153.941          46.000  
R 1  17645381.733 1  94324616.869 1      2338.431          47.000  
R24  18652892.153 1  99745389.046 1      3019.116          48.000  
R22  20235648.810 1 108019128.321 1     -3333.824          46.000  
R 7  20344506.832 1 108905705.868 1     -3915.119          44.000  
E36  23918519.037 1 125692658.432 1      2322.033          41.000  
E 9  22318396.114 1 117283972.773 1      2994.220          43.000  
G17  22107253.411 2 116174429.90121      3218.168          34.000  
G 4  22108686.572 1 116181949.94621      3751.093          42.000  
G27  23490954.406 1 123445635.94121     -3769.753          37.000  
G31  23309106.585 4 122490357.07723      2385.663          30.000  
> 2020  9 15 11  4 43.1930000  0 24                     
G22  18375388.463 1  96563313.79521        38.762          49.000  
G 1  18042676.958 1  94814923.42921       135.237          51.000  
G11  18079085.458 1  95006206.59921     -1569.372          47.000  
G 3  18681456.566 1  98171684.00721      1549.017          48.000  
G 8  20441219.341 1 107419419.89621     -3273.590          45.000  
G21  21258652.629 1 111714976.52521     -2132.505          45.000  
G32  20948724.870 1 110086254.68621     -2151.863          44.000  
G28  21443297.292 1 112685279.82521      -640.536          43.000  
E11  19542235.242 1 102695141.691 1       600.080          44.000  
E 4  21716777.033 1 114122438.108 1       982.355          45.000  
E12  21107445.217 1 110920385.110 1     -1696.062          40.000  
E19  23543392.901 1 123721330.140 1     -1978.369          36.000  
R23  16992634.073 1  90899116.032 1       627.583          51.000  
R 8  17228892.181 1  92259921.713 1     -1154.246          46.000  
R 1  17645338.029 1  94324383.056 1      2337.998          47.000  
R24  18652835.736 1  99745087.142 1      3018.994          48.000  
R22  20235711.308 1 108019461.744 1     -3334.219          46.000  
R 7  20344580.097 1 108906097.395 1     -3915.395          44.000  
E36  23918474.783 1 125692426.217 1      2322.091          41.000  
E 9  22318339.218 1 117283673.327 1      2994.407          43.000  
G17  22107192.213 2 116174108.10821      3217.753          34.000  
G 4  22108615.148 1 116181574.85421      3750.850          42.000  
G27  23491026.213 1 123446012.97021     -3770.422          37.000  
G31  23309061.319 4 122490118.44723      2386.077          30.000  
> 2020  9 15 11  4 43.2930000  0 24                     
G22  18375387.625 1  96563309.95021        38.277          49.000  
G 1  18042674.480 1  94814909.93021       134.781          51.000  
G11  18079115.368 1  95006363.54721     -1569.686          47.000  
G 3  18681427.005 1  98171529.12521      1548.657          48.000  
G 8  20441281.717 1 107419747.29321     -3274.178          45.000  
G21  21258693.210 1 111715189.79321     -2132.800          45.000  
G32  20948765.738 1 110086469.91121     -2152.424          44.000  
G28  21443309.472 1 112685343.88621      -640.781          43.000  
E11  19542223.733 1 102695081.692 1       599.742          44.000  
E 4  21716758.501 1 114122339.903 1       981.876          45.000  
E12  21107477.421 1 110920554.745 1     -1696.542          40.000  
E19  23543430.550 1 123721527.972 1     -1978.465          36.000  
R23  16992622.425 1  90899053.301 1       627.136          51.000  
R 8  17228913.828 1  92260037.156 1     -1154.635          46.000  
R 1  17645294.412 1  94324149.275 1      2337.533          47.000  
R24  18652779.442 1  99744785.269 1      3018.524          48.000  
R22  20235773.780 1 108019795.178 1     -3334.547          46.000  
R 7  20344653.283 1 108906488.961 1     -3915.842          44.000  
E36  23918430.669 1 125692194.023 1      2321.797          41.000  
E 9  22318282.252 1 117283373.933 1      2993.806          43.000  
G17  22107131.068 2 116173786.39121      3217.020          34.000  
G 4  22108543.785 1 116181199.78521      3750.569          42.000  
G27  23491097.855 1 123446390.00621     -3770.601          37.000  
G31  23309016.045 4 122489879.80223      2386.312          30.000  
> 2020  9 15 11  4 43.3930000  0 24                     
G22  18375386.788 1  96563306.07921        38.691          49.000  
G 1  18042671.923 1  94814896.40121       135.306          51.000  
G11  18079145.086 1  95006520.47421     -1569.285          47.000  
G 3  18681397.558 1  98171374.23821      1548.804          48.000  
G 8  20441343.971 1 107420074.65521     -3273.549          45.000  
G21  21258733.729 1 111715403.04521     -2132.455          45.000  
G32  20948806.633 1 110086685.10221     -2151.860          44.000  
G28  21443321.661 1 112685407.92921      -640.398          43.000  
E11  19542212.373 1 102695021.661 1       600.224          44.000  
E 4  21716739.864 1 114122241.683 1       982.126          45.000  
E12  21107509.730 1 110920724.341 1     -1695.953          40.000  
E19  23543468.147 1 123721725.800 1     -1978.194          36.000  
R23  16992610.725 1  90898990.534 1       627.711          51.000  
R 8  17228935.292 1  92260152.580 1     -1154.209          46.000  
R 1  17645250.656 1  94323915.458 1      2338.180          47.000  
R24  18652723.008 1  99744483.381 1      3018.872          48.000  
R22  20235836.312 1 108020128.601 1     -3334.256          46.000  
R 7  20344726.312 1 108906880.492 1     -3915.273          44.000  
E36  23918386.433 1 125691961.835 1      2321.892          41.000  
E 9  22318225.355 1 117283074.530 1      2994.013          43.000  
G17  22107069.809 2 116173464.56021      3218.200          34.000  
G 4  22108472.405 1 116180824.69421      3750.816          42.000  
G27  23491169.541 1 123446767.03421     -3770.385          37.000  
G31  23308970.762 4 122489641.18823      2386.175          29.000  
> 2020  9 15 11  4 43.4930000  0 24                     
G22  18375385.941 1  96563302.22321        38.499          49.000  
G 1  18042669.393 1  94814882.89721       135.025          51.000  
G11  18079174.891 1  95006677.41921     -1569.536          46.000  
G 3  18681368.084 1  98171219.35421      1548.798          48.000  
G 8  20441406.294 1 107420402.03021     -3273.765          45.000  
G21  21258774.310 1 111715616.30421     -2132.651          45.000  
G32  20948847.571 1 110086900.32421     -2152.176          44.000  
G28  21443333.859 1 112685472.00821      -640.922          43.000  
E11  19542201.013 1 102694961.643 1       600.196          44.000  
E 4  21716721.149 1 114122143.469 1       982.095          45.000  
E12  21107541.961 1 110920893.966 1     -1696.286          40.000  
E19  23543505.691 1 123721923.627 1     -1978.337          36.000  
R23  16992599.060 1  90898927.800 1       627.305          51.000  
R 8  17228956.860 1  92260268.018 1     -1154.376          46.000  
R 1  17645206.952 1  94323681.687 1      2337.620          47.000  
R24  18652666.600 1  99744181.491 1      3018.872          48.000  
R22  20235898.697 1 108020462.024 1     -3334.242          46.000  
R 7  20344799.437 1 108907272.027 1     -3915.458          44.000  
E36  23918342.205 1 125691729.624 1      2322.104          41.000  
E 9  22318168.293 1 117282775.093 1      2994.355          43.000  
G17  22107008.498 2 116173142.81521      3217.409          34.000  
G 4  22108400.964 1 116180449.60921      3750.841          42.000  
G27  23491241.340 1 123447144.05421     -3770.233          37.000  
G31  23308925.356 4 122489402.62223      2385.708          29.000  
> 2020  9 15 11  4 43.5930000  0 24                     
G22  18375385.121 1  96563298.35721        38.616          49.000  
G 1  18042666.758 1  94814869.38021       135.131          51.000  
G11  18079204.652 1  95006834.36021     -1569.478          47.000  
G 3  18681338.611 1  98171064.47521      1548.706          48.000  
G 8  20441468.591 1 107420729.42021     -3274.010          45.000  
G21  21258814.960 1 111715829.55621     -2132.569          45.000  
G32  20948888.501 1 110087115.54321     -2152.212          44.000  
G28  21443345.943 1 112685536.05121      -640.484          43.000  
E11  19542189.575 1 102694901.626 1       600.231          44.000  
E 4  21716702.424 1 114122045.259 1       982.016          46.000  
E12  21107574.235 1 110921063.591 1     -1696.277          40.000  
E19  23543543.357 1 123722121.445 1     -1978.236          36.000  
R23  16992587.385 1  90898865.062 1       627.300          51.000  
R 8  17228978.559 1  92260383.473 1     -1154.645          46.000  
R 1  17645163.195 1  94323447.889 1      2337.917          47.000  
R24  18652610.088 1  99743879.602 1      3018.835          48.000  
R22  20235961.204 1 108020795.451 1     -3334.292          46.000  
R 7  20344872.615 1 108907663.577 1     -3915.639          44.000  
E36  23918298.108 1 125691497.428 1      2321.908          41.000  
E 9  22318111.362 1 117282475.691 1      2993.923          43.000  
G17  22106947.308 2 116172821.02321      3217.641          34.000  
G 4  22108329.558 1 116180074.52021      3750.771          42.000  
G27  23491313.182 1 123447521.05521     -3770.024          37.000  
G31  23308879.654 4 122489163.99523      2386.140          29.000  
> 2020  9 15 11  4 43.6930000  0 24                     
G22  18375384.449 1  96563294.50721        38.432          49.000  
G 1  18042664.201 1  94814855.86921       135.011          51.000  
G11  18079234.570 1  95006991.31121     -1569.609          46.000  
G 3  18681309.041 1  98170909.58721      1548.755          48.000  
G 8  20441530.862 1 107421056.78921     -3273.748          45.000  
G21  21258855.506 1 111716042.81821     -2132.657          45.000  
G32  20948929.491 1 110087330.75821     -2152.271          44.000  
G28  21443358.141 1 112685600.12721      -640.940          43.000  
E11  19542178.136 1 102694841.602 1       600.359          44.000  
E 4  21716683.823 1 114121947.038 1       982.113          46.000  
E12  21107606.527 1 110921233.204 1     -1696.184          40.000  
E19  23543580.971 1 123722319.281 1     -1978.472          36.000  
R23  16992575.764 1  90898802.322 1       627.318          51.000  
R 8  17229000.084 1  92260498.918 1     -1154.481          46.000  
R 1  17645119.456 1  94323214.106 1      2337.736          47.000  
R24  18652553.767 1  99743577.725 1      3018.665          48.000  
R22  20236023.693 1 108021128.890 1     -3334.430          46.000  
R 7  20344945.696 1 108908055.103 1     -3915.267          44.000  
E36  23918253.959 1 125691265.225 1      2321.920          41.000  
E 9  22318054.334 1 117282176.270 1      2994.185          43.000  
G17  22106886.154 2 116172499.24121      3218.173          34.000  
G 4  22108258.169 1 116179699.43321      3750.818          42.000  
G27  23491384.929 1 123447898.09921     -3770.567          37.000  
G31  23308834.135 4 122488925.38023      2386.121          29.000  
> 2020  9 15 11  4 43.7930000  0 24                     
G22  18375383.638 1  96563290.65221        38.624          49.000  
G 1  18042661.584 1  94814842.36821       135.002          51.000  
G11  18079264.410 1  95007148.27621     -1569.642          46.000  
G 3  18681279.559 1  98170754.71221      1548.840          48.000  
G 8  20441593.177 1 107421384.17021     -3273.799          45.000  
G21  21258896.016 1 111716256.06921     -2132.418          45.000  
G32  20948970.491 1 110087545.98921     -2152.289          44.000  
G28  21443370.313 1 112685664.18921      -640.482          43.000  
E11  19542166.880 1 102694781.609 1       600.095          44.000  
E 4  21716664.959 1 114121848.846 1       981.940          46.000  
E12  21107638.792 1 110921402.829 1     -1696.266          40.000  
E19  23543618.594 1 123722517.110 1     -1978.375          36.000  
R23  16992564.002 1  90898739.593 1       627.293          51.000  
R 8  17229021.618 1  92260614.379 1     -1154.565          46.000  
R 1  17645075.691 1  94322980.336 1      2337.751          47.000  
R24  18652497.281 1  99743275.830 1      3019.061          48.000  
R22  20236086.252 1 108021462.322 1     -3334.313          46.000  
R 7  20345018.795 1 108908446.665 1     -3915.602          44.000  
E36  23918209.653 1 125691033.018 1      2322.142          41.000  
E 9  22317997.438 1 117281876.856 1      2994.192          43.000  
G17  22106824.965 2 116172177.47421      3217.920          34.000  
G 4  22108186.771 1 116179324.34221      3751.001          42.000  
G27  23491456.649 1 123448275.10221     -3769.958          37.000  
G31  23308788.520 4 122488686.78223      2386.001          29.000  
> 2020  9 15 11  4 43.8930000  0 24                     
G22  18375382.722 1  96563286.78421        38.672          49.000  
G 1  18042658.993 1  94814828.83921       135.292          51.000  
G11  18079294.250 1  95007305.20321     -1569.260          47.000  
G 3  18681250.138 1  98170599.82221      1548.877          48.000  
G 8  20441655.475 1 107421711.52821     -3273.510          45.000  
G21  21258936.632 1 111716469.30621     -2132.310          45.000  
G32  20949011.446 1 110087761.19121     -2152.036          44.000  
G28  21443382.475 1 112685728.23721      -640.522          43.000  
E11  19542155.486 1 102694721.583 1       600.314          44.000  
E 4  21716646.191 1 114121750.618 1       982.271          45.000  
E12  21107671.040 1 110921572.411 1     -1695.717          40.000  
E19  23543656.251 1 123722714.910 1     -1977.964          36.000  
R23  16992552.258 1  90898676.846 1       627.495          51.000  
R 8  17229043.177 1  92260729.825 1     -1154.495          46.000  
R 1  17645032.005 1  94322746.559 1      2337.755          47.000  
R24  18652440.838 1  99742973.934 1      3019.000          48.000  
R22  20236148.645 1 108021795.739 1     -3334.264          46.000  
R 7  20345091.947 1 108908838.177 1     -3915.071          44.000  
E36  23918165.522 1 125690800.794 1      2322.332          41.000  
E 9  22317940.384 1 117281577.428 1      2994.296          43.000  
G17  22106763.697 2 116171855.68321      3217.780          34.000  
G 4  22108115.391 1 116178949.22921      3751.103          42.000  
G27  23491528.387 1 123448652.11221     -3770.146          37.000  
G31  23308743.752 4 122488448.16423      2386.245          29.000  
> 2020  9 15 11  4 43.9930000  0 24                     
G22  18375381.884 1  96563282.89921        38.843          49.000  
G 1  18042656.375 1  94814815.29821       135.407          51.000  
G11  18079324.186 1  95007462.12421     -1569.189          47.000  
G 3  18681220.691 1  98170444.90921      1549.121          48.000  
G 8  20441717.754 1 107422038.88421     -3273.530          45.000  
G21  21258977.221 1 111716682.52721     -2132.158          45.000  
G32  20949052.341 1 110087976.38021     -2151.827          44.000  
G28  21443394.621 1 112685792.28121      -640.374          43.000  
E11  19542144.056 1 102694661.537 1       600.419          44.000  
E 4  21716627.380 1 114121652.375 1       982.504          46.000  
E12  21107703.262 1 110921742.000 1     -1695.801          40.000  
E19  23543693.865 1 123722912.697 1     -1977.810          36.000  
R23  16992540.523 1  90898614.087 1       627.628          51.000  
R 8  17229064.676 1  92260845.255 1     -1154.289          46.000  
R 1  17644988.335 1  94322512.744 1      2338.153          47.000  
R24  18652384.439 1  99742672.010 1      3019.238          48.000  
R22  20236211.152 1 108022129.130 1     -3333.859          46.000  
R 7  20345165.011 1 108909229.678 1     -3914.970          44.000  
E36  23918121.338 1 125690568.543 1      2322.572          41.000  
E 9  22317883.392 1 117281277.964 1      2994.662          43.000  
G17  22106702.482 2 116171533.88521      3217.822          34.000  
G 4  22108044.063 1 116178574.10621      3751.285          42.000  
G27  23491600.151 1 123449029.08721     -3769.830          36.000  
G31  23308698.957 4 122488209.47923      2386.871          29.000  
> 2020  9 15 11  4 44.0930000  0 24                     
G22  18375381.195 1  96563279.02921        38.639          49.000  
G 1  18042653.845 1  94814801.76321       135.313          51.000  
G11  18079354.078 1  95007619.06621     -1569.423          47.000  
G 3  18681191.183 1  98170290.01221      1548.883          48.000  
G 8  20441780.087 1 107422366.23321     -3273.551          45.000  
G21  21259017.845 1 111716895.75921     -2132.408          45.000  
G32  20949093.331 1 110088191.58621     -2152.131          44.000  
G28  21443406.827 1 112685856.32621      -640.473          43.000  
E11  19542132.617 1 102694601.499 1       600.201          44.000  
E 4  21716608.630 1 114121554.155 1       982.142          46.000  
E12  21107735.545 1 110921911.581 1     -1695.833          40.000  
E19  23543731.462 1 123723110.526 1     -1978.249          36.000  
R23  16992528.822 1  90898551.346 1       627.330          51.000  
R 8  17229086.341 1  92260960.712 1     -1154.700          46.000  
R 1  17644944.588 1  94322278.960 1      2337.692          47.000  
R24  18652327.953 1  99742370.103 1      3019.049          48.000  
R22  20236273.650 1 108022462.547 1     -3334.181          46.000  
R 7  20345238.101 1 108909621.200 1     -3915.210          44.000  
E36  23918077.381 1 125690336.313 1      2322.203          41.000  
E 9  22317826.417 1 117280978.527 1      2994.389          43.000  
G17  22106641.319 2 116171212.04821      3218.314          34.000  
G 4  22107972.613 1 116178198.97921      3751.350          42.000  
G27  23491671.933 1 123449406.06321     -3769.685          37.000  
G31  23308653.325 4 122487970.81323      2386.939          28.000  
> 2020  9 15 11  4 44.1930000  0 24                     
G22  18375380.444 1  96563275.15921        38.708          49.000  
G 1  18042651.280 1  94814788.24121       135.140          51.000  
G11  18079383.840 1  95007776.01021     -1569.509          47.000  
G 3  18681161.762 1  98170135.12121      1548.828          48.000  
G 8  20441842.419 1 107422693.59521     -3273.688          45.000  
G21  21259058.426 1 111717108.98921     -2132.268          45.000  
G32  20949134.287 1 110088406.80021     -2152.266          44.000  
G28  21443418.990 1 112685920.38921      -640.725          43.000  
E11  19542121.187 1 102694541.454 1       600.343          44.000  
E 4  21716589.949 1 114121455.938 1       982.096          45.000  
E12  21107767.802 1 110922081.193 1     -1696.127          40.000  
E19  23543769.146 1 123723308.334 1     -1978.075          36.000  
R23  16992517.148 1  90898488.601 1       627.387          51.000  
R 8  17229107.909 1  92261076.169 1     -1154.572          46.000  
R 1  17644900.866 1  94322045.183 1      2337.703          47.000  
R24  18652271.353 1  99742068.198 1      3019.012          48.000  
R22  20236336.183 1 108022795.957 1     -3334.186          46.000  
R 7  20345311.156 1 108910012.722 1     -3915.186          44.000  
E36  23918033.109 1 125690104.082 1      2322.248          41.000  
E 9  22317769.460 1 117280679.092 1      2994.348          43.000  
G17  22106580.042 2 116170890.25121      3218.002          34.000  
G 4  22107901.277 1 116177823.86621      3751.037          42.000  
G27  23491743.731 1 123449783.06021     -3769.955          36.000  
G31  23308607.937 4 122487732.23523      2385.966          28.000  
> 2020  9 15 11  4 44.2930000  0 24                     
G22  18375379.799 1  96563271.29021        38.584          49.000  
G 1  18042648.758 1  94814774.72521       135.105          51.000  
G11  18079413.714 1  95007932.95221     -1569.560          47.000  
G 3  18681132.279 1  98169980.23221      1548.846          48.000  
G 8  20441904.812 1 107423020.95421     -3273.649          45.000  
G21  21259098.936 1 111717322.21321     -2132.220          45.000  
G32  20949175.199 1 110088622.00521     -2152.170          44.000  
G28  21443431.284 1 112685984.44621      -640.669          43.000  
E11  19542109.818 1 102694481.425 1       600.251          44.000  
E 4  21716571.408 1 114121357.713 1       982.149          46.000  
E12  21107800.076 1 110922250.786 1     -1695.968          40.000  
E19  23543806.864 1 123723506.149 1     -1978.070          36.000  
R23  16992505.457 1  90898425.868 1       627.253          51.000  
R 8  17229129.556 1  92261191.630 1     -1154.617          46.000  
R 1  17644857.127 1  94321811.406 1      2337.709          47.000  
R24  18652214.832 1  99741766.294 1      3019.012          48.000  
R22  20236398.681 1 108023129.373 1     -3334.221          46.000  
R 7  20345384.255 1 108910404.228 1     -3915.076          44.000  
E36  23917988.742 1 125689871.844 1      2322.337          41.000  
E 9  22317712.519 1 117280379.648 1      2994.330          43.000  
G17  22106518.783 2 116170568.43921      3218.238          34.000  
G 4  22107829.879 1 116177448.74921      3751.063          42.000  
G27  23491815.487 1 123450160.03221     -3769.777          36.000  
G31  23308561.598 4 122487493.62223      2385.840          28.000  
> 2020  9 15 11  4 44.3930000  0 24                     
G22  18375379.136 1  96563267.44321        38.426          49.000  
G 1  18042646.158 1  94814761.21321       135.062          51.000  
G11  18079443.615 1  95008089.92121     -1569.811          47.000  
G 3  18681102.762 1  98169825.35721      1548.627          48.000  
G 8  20441967.100 1 107423348.34021     -3273.935          45.000  
G21  21259139.639 1 111717535.46821     -2132.566          45.000  
G32  20949216.102 1 110088837.24721     -2152.428          44.000  
G28  21443443.420 1 112686048.52521      -640.803          43.000  
E11  19542098.345 1 102694421.403 1       600.235          44.000  
E 4  21716552.763 1 114121259.519 1       981.897          46.000  
E12  21107832.394 1 110922420.401 1     -1696.174          40.000  
E19  23543844.443 1 123723703.969 1     -1978.118          36.000  
R23  16992493.739 1  90898363.152 1       627.116          51.000  
R 8  17229151.203 1  92261307.119 1     -1154.950          46.000  
R 1  17644813.484 1  94321577.654 1      2337.462          47.000  
R24  18652158.336 1  99741464.408 1      3018.726          48.000  
R22  20236461.074 1 108023462.808 1     -3334.421          46.000  
R 7  20345457.450 1 108910795.762 1     -3915.346          44.000  
E36  23917944.497 1 125689639.616 1      2322.239          41.000  
E 9  22317655.675 1 117280080.216 1      2994.280          43.000  
G17  22106457.585 2 116170246.68521      3217.254          34.000  
G 4  22107758.482 1 116177073.62721      3751.133          42.000  
G27  23491887.207 1 123450537.04321     -3769.995          36.000  
G31  23308516.236 4 122487254.93923      2386.518          28.000  
> 2020  9 15 11  4 44.4930000  0 24                     
G22  18375378.368 1  96563263.60021        38.359          49.000  
G 1  18042643.505 1  94814747.71221       134.965          51.000  
G11  18079473.438 1  95008246.88921     -1569.728          47.000  
G 3  18681073.228 1  98169670.49921      1548.505          48.000  
G 8  20442029.468 1 107423675.71421     -3273.806          45.000  
G21  21259180.167 1 111717748.71321     -2132.465          45.000  
G32  20949257.093 1 110089052.47521     -2152.352          44.000  
G28  21443455.566 1 112686112.60821      -640.833          43.000  
E11  19542086.976 1 102694361.382 1       600.341          44.000  
E 4  21716534.091 1 114121161.321 1       981.916          46.000  
E12  21107864.729 1 110922590.014 1     -1696.252          40.000  
E19  23543882.153 1 123723901.796 1     -1978.330          36.000  
R23  16992482.030 1  90898300.446 1       626.966          51.000  
R 8  17229172.772 1  92261422.616 1     -1155.063          46.000  
R 1  17644769.798 1  94321343.907 1      2337.371          47.000  
R24  18652101.868 1  99741162.521 1      3018.817          48.000  
R22  20236523.563 1 108023796.246 1     -3334.507          46.000  
R 7  20345530.610 1 108911187.309 1     -3915.504          44.000  
E36  23917900.130 1 125689407.396 1      2322.074          41.000  
E 9  22317598.735 1 117279780.799 1      2994.132          43.000  
G17  22106396.283 2 116169924.91221      3217.360          34.000  
G 4  22107687.171 1 116176698.53021      3750.832          42.000  
G27  23491958.980 1 123450914.03021     -3769.937          36.000  
G31  23308471.825 4 122487016.25823      2386.826          27.000  
> 2020  9 15 11  4 44.5930000  0 24                     
G22  18375377.522 1  96563259.78321        38.046          49.000  
G 1  18042640.975 1  94814734.23921       134.569          51.000  
G11  18079503.243 1  95008403.88521     -1570.099          47.000  
G 3  18681043.737 1  98169515.65321      1548.340          48.000  
G 8  20442091.852 1 107424003.12321     -3274.219          45.000  
G21  21259220.782 1 111717961.98821     -2132.836          45.000  
G32  20949297.996 1 110089267.73621     -2152.642          44.000  
G28  21443467.763 1 112686176.72421      -641.337          43.000  
E11  19542075.607 1 102694301.400 1       599.835          44.000  
E 4  21716515.341 1 114121063.147 1       981.641          46.000  
E12  21107897.134 1 110922759.653 1     -1696.498          40.000  
E19  23543919.811 1 123724099.665 1     -1978.803          36.000  
R23  16992470.321 1  90898237.765 1       626.645          51.000  
R 8  17229194.410 1  92261538.142 1     -1155.453          46.000  
R 1  17644726.024 1  94321110.196 1      2336.947          47.000  
R24  18652045.416 1  99740860.665 1      3018.439          48.000  
R22  20236585.921 1 108024129.705 1     -3334.796          46.000  
R 7  20345603.788 1 108911578.862 1     -3915.615          44.000  
E36  23917855.990 1 125689175.203 1      2321.780          41.000  
E 9  22317541.787 1 117279481.392 1      2994.028          43.000  
G17  22106335.050 2 116169603.12221      3217.626          34.000  
G 4  22107615.721 1 116176323.44321      3750.735          42.000  
G27  23492030.735 1 123451291.06221     -3770.514          36.000  
G31  23308426.350 4 122486777.72523      2385.628          27.000  
> 2020  9 15 11  4 44.6930000  0 24                     
G22  18375376.797 1  96563255.95821        38.263          49.000  
G 1  18042638.419 1  94814720.75321       134.890          51.000  
G11  18079533.065 1  95008560.88121     -1569.914          47.000  
G 3  18681014.272 1  98169360.80821      1548.438          48.000  
G 8  20442154.158 1 107424330.51721     -3273.928          45.000  
G21  21259261.319 1 111718175.25421     -2132.621          45.000  
G32  20949338.891 1 110089482.99921     -2152.581          44.000  
G28  21443479.961 1 112686240.82521      -641.040          43.000  
E11  19542064.055 1 102694241.407 1       599.883          44.000  
E 4  21716496.643 1 114120964.982 1       981.684          46.000  
E12  21107929.382 1 110922929.271 1     -1696.107          40.000  
E19  23543957.556 1 123724297.518 1     -1978.357          36.000  
R23  16992458.673 1  90898175.082 1       626.847          51.000  
R 8  17229215.978 1  92261653.671 1     -1155.397          46.000  
R 1  17644682.276 1  94320876.470 1      2337.266          47.000  
R24  18651988.904 1  99740558.794 1      3018.756          48.000  
R22  20236648.437 1 108024463.164 1     -3334.631          46.000  
R 7  20345676.878 1 108911970.418 1     -3915.427          44.000  
E36  23917811.745 1 125688942.987 1      2322.126          41.000  
E 9  22317484.864 1 117279181.985 1      2994.018          43.000  
G17  22106273.817 2 116169281.35421      3217.726          34.000  
G 4  22107544.394 1 116175948.33921      3751.096          42.000  
G27  23492102.447 1 123451668.05621     -3769.887          36.000  
G31  23308380.534 4 122486539.15423      2385.377          27.000  
> 2020  9 15 11  4 44.7930000  0 24                     
G22  18375376.091 1  96563252.14221        38.090          49.000  
G 1  18042635.923 1  94814707.28121       134.664          51.000  
G11  18079562.896 1  95008717.88321     -1570.047          47.000  
G 3  18680984.886 1  98169205.97621      1548.132          48.000  
G 8  20442216.499 1 107424657.93221     -3274.228          45.000  
G21  21259301.891 1 111718388.52621     -2132.741          45.000  
G32  20949379.890 1 110089698.27221     -2152.757          44.000  
G28  21443492.150 1 112686304.94421      -641.219          43.000  
E11  19542052.651 1 102694181.424 1       599.692          44.000  
E 4  21716478.119 1 114120866.822 1       981.596          46.000  
E12  21107961.717 1 110923098.911 1     -1696.356          40.000  
E19  23543995.292 1 123724495.368 1     -1978.406          36.000  
R23  16992446.963 1  90898112.409 1       626.647          51.000  
R 8  17229237.538 1  92261769.201 1     -1155.444          46.000  
R 1  17644638.589 1  94320642.766 1      2336.979          47.000  
R24  18651932.452 1  99740256.941 1      3018.469          48.000  
R22  20236710.917 1 108024796.623 1     -3334.634          46.000  
R 7  20345749.960 1 108912361.973 1     -3915.643          44.000  
E36  23917767.613 1 125688710.785 1      2321.962          41.000  
E 9  22317427.863 1 117278882.590 1      2993.902          43.000  
G17  22106212.654 2 116168959.58421      3217.938          34.000  
G 4  22107473.031 1 116175573.26521      3750.764          42.000  
G27  23492174.272 1 123452045.08721     -3770.498          36.000  
G31  23308335.504 4 122486300.55923      2385.614          27.000  
> 2020  9 15 11  4 44.8930000  0 25                     
G22  18375375.366 1  96563248.33221        38.036          49.000  
G 1  18042633.428 1  94814693.81221       134.585          51.000  
G11  18079592.727 1  95008874.89221     -1570.188          47.000  
G 3  18680955.456 1  98169051.13621      1548.352          48.000  
G 8  20442278.796 1 107424985.34021     -3274.143          45.000  
G21  21259342.437 1 111718601.79721     -2132.892          45.000  
G32  20949420.741 1 110089913.54521     -2152.812          44.000  
G28  21443504.330 1 112686369.06021      -641.224          43.000  
E11  19542041.160 1 102694121.424 1       599.796          44.000  
E 4  21716459.439 1 114120768.658 1       981.581          46.000  
E12  21107993.930 1 110923268.557 1     -1696.487          40.000  
E19  23544032.949 1 123724693.239 1     -1978.667          36.000  
R23  16992435.263 1  90898049.742 1       626.616          51.000  
R 8  17229259.133 1  92261884.740 1     -1155.478          46.000  
R 1  17644594.789 1  94320409.057 1      2337.020          47.000  
R24  18651876.027 1  99739955.089 1      3018.500          48.000  
R22  20236773.311 1 108025130.085 1     -3334.692          46.000  
R 7  20345823.093 1 108912753.542 1     -3915.711          44.000  
R15  22080586.644 9               9     -1009.411          25.000  
E36  23917723.455 1 125688478.579 1      2322.021          41.000  
E 9  22317370.809 1 117278583.179 1      2994.120          43.000  
G17  22106151.439 2 116168637.87821      3217.106          34.000  
G 4  22107401.668 1 116175198.17421      3750.764          42.000  
G27  23492246.019 1 123452422.08221     -3770.107          36.000  
G31  23308289.296 4 122486061.93523      2385.946          27.000  
> 2020  9 15 11  4 44.9930000  0 25                     
G22  18375374.616 1  96563244.52521        37.956          49.000  
G 1  18042630.906 1  94814680.34021       134.660          51.000  
G11  18079622.663 1  95009031.91421     -1570.361          47.000  
G 3  18680925.974 1  98168896.30821      1548.205          48.000  
G 8  20442341.041 1 107425312.74821     -3274.176          45.000  
G21  21259382.930 1 111718815.07621     -2132.851          45.000  
G32  20949461.749 1 110090128.82521     -2152.841          44.000  
G28  21443516.493 1 112686433.18921      -641.341          43.000  
E11  19542029.757 1 102694061.436 1       599.734          44.000  
E 4  21716440.662 1 114120670.507 1       981.429          46.000  
E12  21108026.292 1 110923438.198 1     -1696.501          40.000  
E19  23544070.607 1 123724891.108 1     -1978.758          36.000  
R23  16992423.641 1  90897987.083 1       626.449          51.000  
R 8  17229280.736 1  92262000.299 1     -1155.867          46.000  
R 1  17644551.129 1  94320175.372 1      2336.752          47.000  
R24  18651819.645 1  99739653.234 1      3018.396          48.000  
R22  20236835.835 1 108025463.569 1     -3334.962          46.000  
R 7  20345896.376 1 108913145.104 1     -3915.672          44.000  
R15  22080602.340 9               9     -1007.857          25.000  
E36  23917679.193 1 125688246.368 1      2322.045          41.000  
E 9  22317313.869 1 117278283.779 1      2993.953          43.000  
G17  22106090.171 2 116168316.09521      3217.534          34.000  
G 4  22107330.306 1 116174823.08321      3750.919          42.000  
G27  23492317.835 1 123452799.10821     -3770.372          36.000  
G31  23308243.218 4 122485823.29524      2386.238          27.000  
> 2020  9 15 11  4 45.0930000  0 25                     
G22  18375373.892 1  96563240.72621        38.000          49.000  
G 1  18042628.490 1  94814666.87821       134.644          51.000  
G11  18079652.451 1  95009188.92921     -1570.166          47.000  
G 3  18680896.466 1  98168741.49521      1548.114          48.000  
G 8  20442403.434 1 107425640.16821     -3274.196          45.000  
G21  21259423.379 1 111719028.34921     -2132.783          45.000  
G32  20949502.644 1 110090344.11421     -2152.958          44.000  
G28  21443528.647 1 112686497.32021      -641.309          43.000  
E11  19542018.292 1 102694001.447 1       599.880          44.000  
E 4  21716422.052 1 114120572.351 1       981.509          46.000  
E12  21108058.575 1 110923607.854 1     -1696.589          40.000  
E19  23544108.247 1 123725088.981 1     -1978.626          36.000  
R23  16992411.854 1  90897924.433 1       626.469          51.000  
R 8  17229302.304 1  92262115.860 1     -1155.726          46.000  
R 1  17644507.311 1  94319941.693 1      2336.727          47.000  
R24  18651763.010 1  99739351.392 1      3018.371          48.000  
R22  20236898.385 1 108025797.036 1     -3334.708          46.000  
R 7  20345969.501 1 108913536.663 1     -3915.511          44.000  
R15  22080616.100 9               9     -1008.083          25.000  
E36  23917635.175 1 125688014.175 1      2321.931          41.000  
E 9  22317256.798 1 117277984.394 1      2993.764          43.000  
G17  22106028.964 2 116167994.33821      3217.479          34.000  
G 4  22107258.830 1 116174448.00021      3750.739          42.000  
G27  23492389.529 1 123453176.12121     -3770.107          36.000  
G31  23308197.429 4 122485584.77824      2385.160          26.000  
> 2020  9 15 11  4 45.1930000  0 25                     
G22  18375373.194 1  96563236.92321        37.944          49.000  
G 1  18042625.977 1  94814653.42121       134.474          51.000  
G11  18079682.291 1  95009345.96021     -1570.365          47.000  
G 3  18680867.036 1  98168586.66321      1548.224          48.000  
G 8  20442465.758 1 107425967.58521     -3274.242          45.000  
G21  21259463.890 1 111719241.62721     -2132.972          45.000  
G32  20949543.634 1 110090559.39821     -2152.908          44.000  
G28  21443540.819 1 112686561.46821      -641.598          43.000  
E11  19542006.827 1 102693941.453 1       600.020          44.000  
E 4  21716403.450 1 114120474.199 1       981.465          46.000  
E12  21108090.866 1 110923777.492 1     -1696.454          40.000  
E19  23544145.974 1 123725286.831 1     -1978.420          36.000  
R23  16992400.145 1  90897861.782 1       626.372          51.000  
R 8  17229323.847 1  92262231.423 1     -1155.601          46.000  
R 1  17644463.520 1  94319708.002 1      2336.820          47.000  
R24  18651706.524 1  99739049.536 1      3018.506          48.000  
R22  20236960.831 1 108026130.507 1     -3334.785          46.000  
R 7  20346042.792 1 108913928.243 1     -3915.882          44.000  
R15  22080632.529 9               9     -1009.269          25.000  
E36  23917590.982 1 125687781.975 1      2321.951          41.000  
E 9  22317199.832 1 117277684.979 1      2994.104          43.000  
G17  22105967.740 2 116167672.57321      3217.481          34.000  
G 4  22107187.502 1 116174072.90121      3750.962          42.000  
G27  23492461.241 1 123453553.14221     -3770.398          36.000  
G31  23308151.858 4 122485346.16823      2385.696          26.000  
> 2020  9 15 11  4 45.2930000  0 25                     
G22  18375372.531 1  96563233.11721        38.148          49.000  
G 1  18042623.316 1  94814639.95021       134.699          51.000  
G11  18079712.174 1  95009502.97721     -1570.178          47.000  
G 3  18680837.615 1  98168431.84721      1548.175          48.000  
G 8  20442528.046 1 107426294.99121     -3273.999          45.000  
G21  21259504.479 1 111719454.88921     -2132.552          45.000  
G32  20949584.607 1 110090774.67421     -2152.713          44.000  
G28  21443552.973 1 112686625.58621      -641.117          43.000  
E11  19541995.319 1 102693881.466 1       600.062          44.000  
E 4  21716384.769 1 114120376.055 1       981.443          46.000  
E12  21108123.175 1 110923947.119 1     -1696.241          40.000  
E19  23544183.841 1 123725484.710 1     -1978.739          36.000  
R23  16992388.566 1  90897799.126 1       626.571          51.000  
R 8  17229345.511 1  92262346.991 1     -1155.825          46.000  
R 1  17644419.790 1  94319474.313 1      2336.909          47.000  
R24  18651650.099 1  99738747.681 1      3018.615          48.000  
R22  20237023.302 1 108026463.992 1     -3334.867          46.000  
R 7  20346115.856 1 108914319.796 1     -3915.501          44.000  
R15  22080646.437 9               9     -1008.374          25.000  
E36  23917546.702 1 125687549.743 1      2322.335          41.000  
E 9  22317142.848 1 117277385.577 1      2994.087          43.000  
G17  22105906.455 2 116167350.80321      3217.635          34.000  
G 4  22107116.087 1 116173697.81021      3750.979          42.000  
G27  23492532.918 1 123453930.14021     -3769.919          36.000  
G31  23308106.260 4 122485107.49624      2386.512          26.000  
> 2020  9 15 11  4 45.3930000  0 25                     
G22  18375371.772 1  96563229.28921        38.362          49.000  
G 1  18042620.742 1  94814626.46321       134.889          51.000  
G11  18079742.049 1  95009659.97621     -1569.981          47.000  
G 3  18680808.046 1  98168276.99521      1548.560          48.000  
G 8  20442590.309 1 107426622.37421     -3273.761          45.000  
G21  21259545.086 1 111719668.13221     -2132.258          45.000  
G32  20949625.572 1 110090989.94921     -2152.793          44.000  
G28  21443565.179 1 112686689.69921      -641.145          43.000  
E11  19541983.950 1 102693821.455 1       600.271          44.000  
E 4  21716366.263 1 114120277.875 1       981.893          46.000  
E12  21108155.450 1 110924116.748 1     -1696.245          40.000  
E19  23544221.403 1 123725682.552 1     -1978.430          36.000  
R23  16992376.831 1  90897736.456 1       626.766          51.000  
R 8  17229367.097 1  92262462.535 1     -1155.452          46.000  
R 1  17644375.998 1  94319240.623 1      2336.901          47.000  
R24  18651593.656 1  99738445.811 1      3018.732          48.000  
R22  20237085.827 1 108026797.432 1     -3334.370          46.000  
R 7  20346189.007 1 108914711.330 1     -3915.323          44.000  
R15  22080663.399 9               9     -1008.182          25.000  
E36  23917502.378 1 125687317.519 1      2322.394          41.000  
E 9  22317085.777 1 117277086.156 1      2994.280          43.000  
G17  22105845.205 2 116167029.03021      3217.703          35.000  
G 4  22107044.698 1 116173322.69321      3751.206          42.000  
G27  23492604.725 1 123454307.10221     -3769.527          36.000  
G31  23308061.134 4 122484868.89124      2386.154          26.000  
> 2020  9 15 11  4 45.4930000  0 25                     
G22  18375371.100 1  96563225.45121        38.404          49.000  
G 1  18042618.203 1  94814612.95421       135.166          51.000  
G11  18079771.889 1  95009816.95821     -1569.691          47.000  
G 3  18680778.564 1  98168122.13021      1548.724          48.000  
G 8  20442652.597 1 107426949.75921     -3273.796          45.000  
G21  21259585.640 1 111719881.36021     -2132.238          45.000  
G32  20949666.466 1 110091205.18821     -2152.305          44.000  
G28  21443577.359 1 112686753.79921      -640.966          43.000  
E11  19541972.433 1 102693761.428 1       600.321          44.000  
E 4  21716347.574 1 114120179.679 1       982.085          46.000  
E12  21108187.628 1 110924286.329 1     -1695.651          40.000  
E19  23544259.008 1 123725880.386 1     -1978.281          36.000  
R23  16992365.166 1  90897673.766 1       626.980          51.000  
R 8  17229388.639 1  92262578.058 1     -1155.195          46.000  
R 1  17644332.268 1  94319006.899 1      2337.314          47.000  
R24  18651537.161 1  99738143.913 1      3019.067          48.000  
R22  20237148.263 1 108027130.854 1     -3334.067          46.000  
R 7  20346262.132 1 108915102.841 1     -3915.037          44.000  
R15  22080677.629 9               9     -1009.303          25.000  
E36  23917458.055 1 125687085.247 1      2322.886          41.000  
E 9  22317028.768 1 117276786.691 1      2994.781          43.000  
G17  22105783.972 2 116166707.23021      3217.891          34.000  
G 4  22106973.266 1 116172947.53721      3751.633          42.000  
G27  23492676.454 1 123454684.06421     -3769.457          36.000  
G31  23308015.144 4 122484630.29624      2385.827          26.000  
> 2020  9 15 11  4 45.5930000  0 25                     
G22  18375370.402 1  96563221.59921        38.495          49.000  
G 1  18042615.664 1  94814599.44321       135.056          51.000  
G11  18079801.694 1  95009973.94721     -1569.951          47.000  
G 3  18680749.047 1  98167967.26321      1548.651          48.000  
G 8  20442714.886 1 107427277.10321     -3273.405          45.000  
G21  21259626.203 1 111720094.58621     -2132.321          45.000  
G32  20949707.439 1 110091420.41921     -2152.154          44.000  
G28  21443589.601 1 112686817.88321      -640.864          43.000  
E11  19541961.012 1 102693701.390 1       600.220          44.000  
E 4  21716328.876 1 114120081.476 1       981.994          46.000  
E12  21108220.015 1 110924455.904 1     -1695.698          40.000  
E19  23544296.683 1 123726078.191 1     -1978.032          36.000  
R23  16992353.579 1  90897611.073 1       626.907          51.000  
R 8  17229410.339 1  92262693.599 1     -1155.514          46.000  
R 1  17644288.590 1  94318773.174 1      2337.208          47.000  
R24  18651480.736 1  99737842.005 1      3019.061          48.000  
R22  20237210.700 1 108027464.288 1     -3334.412          46.000  
R 7  20346335.266 1 108915494.345 1     -3914.956          44.000  
R15  22080696.519 9               9     -1008.158          25.000  
E36  23917413.941 1 125686852.978 1      2322.651          41.000  
E 9  22316971.897 1 117276487.242 1      2994.523          43.000  
G17  22105722.661 2 116166385.41721      3217.958          34.000  
G 4  22106901.842 1 116172572.40321      3751.292          42.000  
G27  23492748.192 1 123455061.03321     -3769.904          36.000  
G31  23307969.294 4 122484391.66024      2386.087          26.000  
> 2020  9 15 11  4 45.6930000  0 25                     
G22  18375369.739 1  96563217.76721        38.230          49.000  
G 1  18042613.064 1  94814585.95121       134.828          51.000  
G11  18079831.621 1  95010130.93521     -1569.961          47.000  
G 3  18680719.660 1  98167812.40921      1548.468          48.000  
G 8  20442777.323 1 107427604.49921     -3274.052          45.000  
G21  21259666.819 1 111720307.80121     -2132.146          45.000  
G32  20949748.378 1 110091635.69221     -2152.865          44.000  
G28  21443601.755 1 112686882.00421      -641.312          43.000  
E11  19541949.617 1 102693641.365 1       600.044          44.000  
E 4  21716310.021 1 114119983.307 1       981.546          46.000  
E12  21108252.298 1 110924625.526 1     -1696.271          40.000  
E19  23544334.123 1 123726276.029 1     -1978.606          36.000  
R23  16992341.887 1  90897548.403 1       626.615          51.000  
R 8  17229431.986 1  92262809.153 1     -1155.645          46.000  
R 1  17644244.912 1  94318539.479 1      2336.887          47.000  
R24  18651424.363 1  99737540.125 1      3018.768          48.000  
R22  20237273.137 1 108027797.730 1     -3334.557          46.000  
R 7  20346408.339 1 108915885.873 1     -3915.213          44.000  
R15  22080715.680 9               9     -1008.197          25.000  
E36  23917369.879 1 125686620.727 1      2322.532          41.000  
E 9  22316914.826 1 117276187.796 1      2994.423          43.000  
G17  22105661.472 2 116166063.59321      3218.277          34.000  
G 4  22106830.549 1 116172197.25421      3751.408          42.000  
G27  23492819.895 1 123455437.97921     -3769.395          36.000  
G31  23307923.653 4 122484152.92824      2386.930          26.000  
> 2020  9 15 11  4 45.7930000  0 25                     
G22  18375369.023 1  96563213.91721        38.501          49.000  
G 1  18042610.463 1  94814572.43421       135.183          51.000  
G11  18079861.487 1  95010287.92321     -1569.885          47.000  
G 3  18680690.100 1  98167657.54021      1548.700          48.000  
G 8  20442839.524 1 107427931.85421     -3273.540          45.000  
G21  21259707.390 1 111720521.01621     -2132.129          45.000  
G32  20949789.342 1 110091850.93721     -2152.476          44.000  
G28  21443613.953 1 112686946.08421      -640.862          43.000  
E11  19541938.300 1 102693581.312 1       600.415          44.000  
E 4  21716291.376 1 114119885.103 1       982.081          46.000  
E12  21108284.503 1 110924795.098 1     -1695.653          40.000  
E19  23544371.885 1 123726473.854 1     -1978.301          36.000  
R23  16992330.169 1  90897485.711 1       626.961          51.000  
R 8  17229453.563 1  92262924.688 1     -1155.416          46.000  
R 1  17644201.243 1  94318305.769 1      2337.066          47.000  
R24  18651367.920 1  99737238.211 1      3019.165          48.000  
R22  20237335.644 1 108028131.143 1     -3334.104          46.000  
R 7  20346481.481 1 108916277.377 1     -3915.018          44.000  
R15  22080732.938 9               9     -1009.472          25.000  
E36  23917325.538 1 125686388.447 1      2322.857          41.000  
E 9  22316857.860 1 117275888.338 1      2994.611          43.000  
G17  22105600.239 2 116165741.77021      3218.316          34.000  
G 4  22106759.108 1 116171822.10021      3751.448          42.000  
G27  23492891.703 1 123455814.92621     -3769.381          36.000  
G31  23307878.011 4 122483914.28724      2386.665          26.000  
> 2020  9 15 11  4 45.8930000  0 25                     
G22  18375368.395 1  96563210.08821        38.150          49.000  
G 1  18042607.907 1  94814558.94921       134.634          51.000  
G11  18079891.353 1  95010444.92521     -1570.210          47.000  
G 3  18680660.556 1  98167502.69621      1548.267          48.000  
G 8  20442901.813 1 107428259.23021     -3273.908          45.000  
G21  21259748.015 1 111720734.25621     -2132.602          45.000  
G32  20949830.245 1 110092066.18821     -2152.421          44.000  
G28  21443626.159 1 112687010.19821      -641.307          43.000  
E11  19541926.879 1 102693521.279 1       600.272          44.000  
E 4  21716272.669 1 114119786.920 1       981.789          46.000  
E12  21108316.759 1 110924964.692 1     -1696.005          40.000  
E19  23544409.551 1 123726671.668 1     -1978.171          36.000  
R23  16992318.469 1  90897423.040 1       626.594          51.000  
R 8  17229475.306 1  92263040.251 1     -1155.853          46.000  
R 1  17644157.635 1  94318072.072 1      2336.777          47.000  
R24  18651311.547 1  99736936.329 1      3018.640          48.000  
R22  20237398.081 1 108028464.581 1     -3334.447          46.000  
R 7  20346554.589 1 108916668.901 1     -3915.373          44.000  
R15  22080750.693 9               9     -1007.450          25.000  
E36  23917281.319 1 125686156.181 1      2322.545          41.000  
E 9  22316800.876 1 117275588.880 1      2994.462          43.000  
G17  22105538.988 2 116165420.01421      3217.439          34.000  
G 4  22106687.754 1 116171446.94321      3751.382          42.000  
G27  23492963.362 1 123456191.88421     -3769.740          36.000  
G31  23307832.728 4 122483675.67224      2386.271          26.000  
> 2020  9 15 11  4 45.9930000  0 25                     
G22  18375367.723 1  96563206.27121        38.146          49.000  
G 1  18042605.324 1  94814545.46221       134.864          51.000  
G11  18079921.193 1  95010601.94521     -1570.229          47.000  
G 3  18680631.074 1  98167347.86321      1548.309          48.000  
G 8  20442964.075 1 107428586.62121     -3273.999          45.000  
G21  21259788.621 1 111720947.48121     -2132.092          45.000  
G32  20949871.306 1 110092281.47921     -2152.963          44.000  
G28  21443638.339 1 112687074.33021      -641.371          43.000  
E11  19541915.440 1 102693461.269 1       600.161          44.000  
E 4  21716253.945 1 114119688.770 1       981.474          46.000  
E12  21108349.095 1 110925134.325 1     -1696.317          40.000  
E19  23544447.348 1 123726869.525 1     -1978.661          36.000  
R23  16992306.777 1  90897360.399 1       626.369          51.000  
R 8  17229496.787 1  92263155.832 1     -1155.859          46.000  
R 1  17644113.879 1  94317838.397 1      2336.690          47.000  
R24  18651255.035 1  99736634.448 1      3018.774          48.000  
R22  20237460.491 1 108028798.043 1     -3334.664          46.000  
R 7  20346627.775 1 108917060.439 1     -3915.462          44.000  
R15  22080766.678 9               9     -1009.664          25.000  
E36  23917237.109 1 125685923.941 1      2322.387          41.000  
E 9  22316743.814 1 117275289.454 1      2994.267          43.000  
G17  22105477.721 2 116165098.19321      3218.311          34.000  
G 4  22106616.400 1 116171071.81821      3751.241          42.000  
G27  23493035.065 1 123456568.83021     -3769.448          36.000  
G31  23307787.078 4 122483437.00724      2386.628          26.000  
> 2020  9 15 11  4 46.0930000  0 25                     
G22  18375367.130 1  96563202.44421        38.244          49.000  
G 1  18042602.785 1  94814531.96721       134.937          51.000  
G11  18079951.024 1  95010758.95721     -1570.180          47.000  
G 3  18680601.627 1  98167193.01521      1548.486          48.000  
G 8  20443026.329 1 107428914.00321     -3273.834          45.000  
G21  21259829.114 1 111721160.71321     -2132.321          45.000  
G32  20949912.296 1 110092496.74721     -2152.678          44.000  
G28  21443650.563 1 112687138.44421      -641.162          43.000  
E11  19541904.045 1 102693401.240 1       600.451          44.000  
E 4  21716235.195 1 114119590.599 1       981.703          46.000  
E12  21108381.290 1 110925303.919 1     -1695.870          40.000  
E19  23544485.137 1 123727067.357 1     -1978.233          36.000  
R23  16992295.129 1  90897297.736 1       626.568          51.000  
R 8  17229518.382 1  92263271.402 1     -1155.800          46.000  
R 1  17644070.183 1  94317604.717 1      2336.707          47.000  
R24  18651198.531 1  99736332.556 1      3018.945          48.000  
R22  20237522.998 1 108029131.490 1     -3334.642          46.000  
R 7  20346700.883 1 108917451.955 1     -3915.315          44.000  
R15  22080782.819 9               9     -1010.756          25.000  
E36  23917192.759 1 125685691.667 1      2322.736          41.000  
E 9  22316686.883 1 117274990.007 1      2994.373          43.000  
G17  22105416.409 2 116164776.40721      3217.861          34.000  
G 4  22106545.037 1 116170696.66521      3751.537          42.000  
G27  23493106.768 1 123456945.80021     -3769.787          36.000  
G31  23307742.127 4 122483198.39724      2386.231          27.000  
> 2020  9 15 11  4 46.1930000  0 25                     
G22  18375366.423 1  96563198.63221        38.010          49.000  
G 1  18042600.229 1  94814518.49021       134.700          51.000  
G11  18079980.873 1  95010915.97121     -1570.186          47.000  
G 3  18680572.267 1  98167038.18021      1548.224          48.000  
G 8  20443088.687 1 107429241.38121     -3273.845          45.000  
G21  21259869.730 1 111721373.95521     -2132.531          45.000  
G32  20949953.322 1 110092712.01921     -2152.787          44.000  
G28  21443662.787 1 112687202.57721      -641.532          43.000  
E11  19541892.720 1 102693341.221 1       600.267          44.000  
E 4  21716216.576 1 114119492.430 1       981.655          46.000  
E12  21108413.442 1 110925473.516 1     -1696.031          40.000  
E19  23544522.690 1 123727265.205 1     -1978.432          36.000  
R23  16992283.542 1  90897235.084 1       626.415          51.000  
R 8  17229540.011 1  92263386.996 1     -1156.117          46.000  
R 1  17644026.436 1  94317371.041 1      2336.638          47.000  
R24  18651142.044 1  99736030.681 1      3018.719          48.000  
R22  20237585.330 1 108029464.935 1     -3334.479          46.000  
R 7  20346773.982 1 108917843.485 1     -3915.430          44.000  
R15  22080800.331 9               9     -1008.169          25.000  
E36  23917148.610 1 125685459.397 1      2322.663          41.000  
E 9  22316629.803 1 117274690.570 1      2994.243          43.000  
G17  22105355.168 2 116164454.60721      3217.952          34.000  
G 4  22106473.587 1 116170321.52221      3751.349          42.000  
G27  23493178.497 2 123457322.74321     -3769.702          36.000  
G31  23307696.346 4 122482959.75023      2386.361          27.000  
> 2020  9 15 11  4 46.2930000  0 25                     
G22  18375365.716 1  96563194.82221        38.042          49.000  
G 1  18042597.629 1  94814505.01721       134.678          51.000  
G11  18080010.756 1  95011073.00121     -1570.340          47.000  
G 3  18680542.811 1  98166883.35721      1548.193          48.000  
G 8  20443151.045 1 107429568.78521     -3274.060          45.000  
G21  21259910.345 1 111721587.19121     -2132.411          45.000  
G32  20949994.304 1 110092927.31121     -2152.933          44.000  
G28  21443675.072 1 112687266.71821      -641.437          43.000  
E11  19541881.273 1 102693281.225 1       599.936          44.000  
E 4  21716197.956 1 114119394.283 1       981.452          46.000  
E12  21108445.821 1 110925643.153 1     -1696.530          40.000  
E19  23544560.216 1 123727463.067 1     -1978.738          36.000  
R23  16992271.798 1  90897172.453 1       626.259          51.000  
R 8  17229561.623 1  92263502.588 1     -1156.064          46.000  
R 1  17643982.723 1  94317137.385 1      2336.479          47.000  
R24  18651085.541 1  99735728.812 1      3018.677          48.000  
R22  20237647.828 1 108029798.399 1     -3334.768          46.000  
R 7  20346847.186 1 108918235.012 1     -3915.363          44.000  
R15  22080817.196 9               9     -1009.412          25.000  
E36  23917104.513 1 125685227.158 1      2322.313          41.000  
E 9  22316572.776 1 117274391.126 1      2994.430          43.000  
G17  22105293.909 2 116164132.81721      3217.598          34.000  
G 4  22106402.242 1 116169946.38821      3751.309          42.000  
G27  23493250.209 1 123457699.69721     -3769.530          36.000  
G31  23307650.417 4 122482721.10523      2386.406          27.000  
> 2020  9 15 11  4 46.3930000  0 25                     
G22  18375365.045 1  96563191.00421        38.171          49.000  
G 1  18042595.003 1  94814491.53521       134.777          51.000  
G11  18080040.657 1  95011230.02721     -1570.283          47.000  
G 3  18680513.242 1  98166728.52521      1548.242          48.000  
G 8  20443213.334 1 107429896.16521     -3273.768          45.000  
G21  21259950.803 1 111721800.42521     -2132.368          45.000  
G32  20950035.189 1 110093142.59321     -2152.833          44.000  
G28  21443687.191 1 112687330.84821      -641.408          43.000  
E11  19541869.834 1 102693221.200 1       600.116          44.000  
E 4  21716179.363 1 114119296.116 1       981.665          46.000  
E12  21108478.113 1 110925812.745 1     -1695.991          40.000  
E19  23544597.821 1 123727660.892 1     -1978.250          36.000  
R23  16992260.089 1  90897109.806 1       626.454          51.000  
R 8  17229583.122 1  92263618.180 1     -1155.960          46.000  
R 1  17643939.010 1  94316903.717 1      2336.612          47.000  
R24  18651028.941 1  99735426.927 1      3018.860          48.000  
R22  20237710.291 1 108030131.839 1     -3334.459          46.000  
R 7  20346920.302 1 108918626.533 1     -3915.229          44.000  
R15  22080835.161 9               9     -1008.302          25.000  
E36  23917060.234 1 125684994.888 1      2322.704          41.000  
E 9  22316515.827 1 117274091.690 1      2994.355          43.000  
G17  22105232.571 2 116163811.02421      3217.672          34.000  
G 4  22106330.879 1 116169571.24421      3751.353          42.000  
G27  23493321.938 2 123458076.66621     -3769.942          36.000  
G31  23307604.663 4 122482482.47423      2386.385          27.000  
> 2020  9 15 11  4 46.4930000  0 25                     
G22  18375364.443 1  96563187.21921        37.691          49.000  
G 1  18042592.420 1  94814478.08021       134.392          51.000  
G11  18080070.471 1  95011387.07921     -1570.649          47.000  
G 3  18680483.873 1  98166573.71821      1547.900          48.000  
G 8  20443275.736 1 107430223.58521     -3274.384          45.000  
G21  21259991.314 1 111722013.68621     -2132.784          45.000  
G32  20950076.215 1 110093357.90521     -2153.359          44.000  
G28  21443699.345 1 112687395.00821      -641.727          43.000  
E11  19541858.430 1 102693161.202 1       599.676          44.000  
E 4  21716160.560 1 114119197.985 1       981.218          46.000  
E12  21108510.509 1 110925982.368 1     -1696.280          40.000  
E19  23544635.366 1 123727858.767 1     -1978.744          36.000  
R23  16992248.520 1  90897047.191 1       626.016          51.000  
R 8  17229604.778 1  92263733.803 1     -1156.339          46.000  
R 1  17643895.254 1  94316670.090 1      2336.026          47.000  
R24  18650972.507 1  99735125.073 1      3018.432          48.000  
R22  20237772.658 1 108030465.330 1     -3335.082          46.000  
R 7  20346993.410 1 108919018.081 1     -3915.585          44.000  
R15  22080852.533 9               9     -1010.379          25.000  
E36  23917016.163 1 125684762.647 1      2322.236          41.000  
E 9  22316458.861 1 117273792.253 1      2994.257          43.000  
G17  22105171.321 2 116163489.23221      3218.095          34.000  
G 4  22106259.517 1 116169196.11421      3751.146          42.000  
G27  23493393.606 2 123458453.61621     -3769.598          36.000  
G31  23307558.707 4 122482243.85723      2386.256          27.000  
> 2020  9 15 11  4 46.5930000  0 25                     
G22  18375363.814 1  96563183.45321        37.590          49.000  
G 1  18042589.872 1  94814464.64721       134.255          51.000  
G11  18080100.215 1  95011544.15221     -1570.742          47.000  
G 3  18680454.400 1  98166418.93921      1547.681          48.000  
G 8  20443337.937 1 107430551.01921     -3274.434          45.000  
G21  21260031.816 1 111722226.95621     -2132.690          45.000  
G32  20950117.232 1 110093573.23521     -2153.398          44.000  
G28  21443711.595 1 112687459.19021      -641.878          43.000  
E11  19541846.948 1 102693101.224 1       599.526          44.000  
E 4  21716141.958 1 114119099.883 1       980.886          46.000  
E12  21108542.731 1 110926152.031 1     -1696.735          40.000  
E19  23544672.980 1 123728056.659 1     -1978.915          36.000  
R23  16992236.889 1  90896984.607 1       625.754          51.000  
R 8  17229626.521 1  92263849.461 1     -1156.633          46.000  
R 1  17643851.462 1  94316436.478 1      2336.043          47.000  
R24  18650915.933 1  99734823.243 1      3018.237          48.000  
R22  20237835.008 1 108030798.819 1     -3334.893          46.000  
R 7  20347066.605 1 108919409.660 1     -3915.890          44.000  
R15  22080868.692 9               9     -1007.682          25.000  
E36  23916971.909 1 125684530.411 1      2322.344          41.000  
E 9  22316401.965 1 117273492.865 1      2993.811          43.000  
G17  22105110.071 2 116163167.49221      3217.336          34.000  
G 4  22106188.145 1 116168821.00621      3751.002          42.000  
G27  23493465.448 1 123458830.61621     -3770.055          36.000  
G31  23307512.744 4 122482005.27423      2385.787          27.000  
> 2020  9 15 11  4 46.6930000  0 25                     
G22  18375363.116 1  96563179.65821        38.015          49.000  
G 1  18042587.325 1  94814451.19121       134.566          51.000  
G11  18080130.037 1  95011701.21821     -1570.673          47.000  
G 3  18680424.979 1  98166264.13321      1548.004          48.000  
G 8  20443400.235 1 107430878.42421     -3274.068          45.000  
G21  21260072.362 1 111722440.20621     -2132.437          45.000  
G32  20950158.205 1 110093788.54021     -2152.997          44.000  
G28  21443723.854 1 112687523.35021      -641.483          43.000  
E11  19541835.405 1 102693041.212 1       600.159          44.000  
E 4  21716123.365 1 114119001.753 1       981.265          46.000  
E12  21108575.031 1 110926321.661 1     -1696.380          40.000  
E19  23544710.681 1 123728254.531 1     -1978.683          36.000  
R23  16992225.180 1  90896921.994 1       626.149          51.000  
R 8  17229648.072 1  92263965.088 1     -1156.362          46.000  
R 1  17643807.750 1  94316202.850 1      2336.289          47.000  
R24  18650859.429 1  99734521.376 1      3018.762          48.000  
R22  20237897.358 1 108031132.295 1     -3334.695          46.000  
R 7  20347139.695 1 108919801.206 1     -3915.434          44.000  
R15  22080884.327 9               9     -1010.347          25.000  
E36  23916927.647 1 125684298.166 1      2322.487          41.000  
E 9  22316344.928 1 117273193.440 1      2994.267          43.000  
G17  22105048.803 2 116162845.70921      3217.852          34.000  
G 4  22106116.756 1 116168445.87521      3751.280          42.000  
G27  23493537.108 1 123459207.56621     -3769.403          36.000  
G31  23307467.670 4 122481766.67623      2385.727          27.000  
> 2020  9 15 11  4 46.7930000  0 25                     
G22  18375362.366 1  96563175.88721        37.650          49.000  
G 1  18042584.759 1  94814437.74421       134.452          51.000  
G11  18080159.990 1  95011858.27821     -1570.669          47.000  
G 3  18680395.505 1  98166109.33721      1547.900          48.000  
G 8  20443462.549 1 107431205.83821     -3274.135          45.000  
G21  21260112.968 1 111722653.46621     -2132.664          45.000  
G32  20950199.117 1 110094003.86521     -2153.354          44.000  
G28  21443736.104 1 112687587.52421      -641.774          43.000  
E11  19541823.931 1 102692981.212 1       600.220          44.000  
E 4  21716104.693 1 114118903.626 1       981.239          46.000  
E12  21108607.305 1 110926491.286 1     -1696.212          40.000  
E19  23544748.277 1 123728452.404 1     -1978.691          36.000  
R23  16992213.558 1  90896859.392 1       625.933          51.000  
R 8  17229669.684 1  92264080.731 1     -1156.530          46.000  
R 1  17643763.984 1  94315969.235 1      2336.068          47.000  
R24  18650802.961 1  99734219.533 1      3018.390          48.000  
R22  20237959.864 1 108031465.783 1     -3334.914          46.000  
R 7  20347212.890 1 108920192.759 1     -3915.570          44.000  
R15  22080900.268 9               9     -1008.894          25.000  
E36  23916883.437 1 125684065.915 1      2322.539          41.000  
E 9  22316287.910 1 117272894.014 1      2994.224          43.000  
G17  22104987.553 2 116162523.91321      3218.043          34.000  
G 4  22106045.403 1 116168070.74221      3751.353          42.000  
G27  23493608.793 2 123459584.54221     -3769.731          36.000  
G31  23307421.906 4 122481528.06023      2385.906          27.000  
> 2020  9 15 11  4 46.8930000  0 25                     
G22  18375361.738 1  96563172.12421        37.479          49.000  
G 1  18042582.133 1  94814424.31421       134.180          51.000  
G11  18080190.031 1  95012015.36321     -1571.072          47.000  
G 3  18680366.014 1  98165954.56121      1547.626          48.000  
G 8  20443524.943 1 107431533.27821     -3274.596          45.000  
G21  21260153.558 1 111722866.74221     -2132.828          45.000  
G32  20950240.116 1 110094219.21121     -2153.521          44.000  
G28  21443748.311 1 112687651.71221      -641.946          43.000  
E11  19541812.519 1 102692921.244 1       599.742          44.000  
E 4  21716085.926 1 114118805.519 1       980.939          46.000  
E12  21108639.702 1 110926660.928 1     -1696.558          40.000  
E19  23544785.987 1 123728650.298 1     -1979.136          36.000  
R23  16992201.936 1  90896796.819 1       625.570          51.000  
R 8  17229691.348 1  92264196.406 1     -1156.864          46.000  
R 1  17643720.333 1  94315735.635 1      2335.847          47.000  
R24  18650746.492 1  99733917.703 1      3018.213          48.000  
R22  20238022.310 1 108031799.277 1     -3334.998          46.000  
R 7  20347286.006 1 108920584.323 1     -3915.746          44.000  
R15  22080916.645 9               9     -1010.780          25.000  
E36  23916839.497 1 125683833.676 1      2322.400          41.000  
E 9  22316230.856 1 117272594.615 1      2993.910          43.000  
G17  22104926.276 2 116162202.16921      3217.259          34.000  
G 4  22105974.040 1 116167695.64821      3750.764          42.000  
G27  23493680.601 1 123459961.52521     -3770.139          36.000  
G31  23307377.042 4 122481289.47823      2385.358          28.000  
> 2020  9 15 11  4 46.9930000  0 25                     
G22  18375361.110 1  96563168.35921        37.696          49.000  
G 1  18042579.568 1  94814410.88221       134.346          51.000  
G11  18080219.906 1  95012172.44521     -1570.793          47.000  
G 3  18680336.523 1  98165799.77721      1547.937          48.000  
G 8  20443587.161 1 107431860.70021     -3274.136          45.000  
G21  21260194.060 1 111723080.01021     -2132.621          45.000  
G32  20950281.176 1 110094434.54321     -2153.351          44.000  
G28  21443760.491 1 112687715.90521      -641.863          43.000  
E11  19541801.098 1 102692861.274 1       599.781          44.000  
E 4  21716067.341 1 114118707.420 1       980.990          46.000  
E12  21108672.020 1 110926830.594 1     -1696.652          40.000  
E19  23544823.584 1 123728848.185 1     -1978.889          36.000  
R23  16992190.210 1  90896734.235 1       625.847          51.000  
R 8  17229712.812 1  92264312.061 1     -1156.531          46.000  
R 1  17643676.751 1  94315502.045 1      2335.905          47.000  
R24  18650690.145 1  99733615.867 1      3018.347          48.000  
R22  20238084.694 1 108032132.786 1     -3335.060          46.000  
R 7  20347359.149 1 108920975.899 1     -3915.717          44.000  
R15  22080933.886 9               9     -1010.137          25.000  
E36  23916795.296 1 125683601.454 1      2322.250          41.000  
E 9  22316173.847 1 117272295.206 1      2994.126          43.000  
G17  22104865.070 2 116161880.38721      3218.028          34.000  
G 4  22105902.581 1 116167320.50621      3751.504          42.000  
G27  23493752.356 1 123460338.49821     -3769.735          36.000  
G31  23307333.835 4 122481050.81623      2386.968          28.000  
> 2020  9 15 11  4 47.0930000  0 25                     
G22  18375360.359 1  96563164.58021        37.805          49.000  
G 1  18042577.003 1  94814397.43521       134.454          51.000  
G11  18080249.780 1  95012329.51521     -1570.760          47.000  
G 3  18680307.146 1  98165644.98921      1547.845          48.000  
G 8  20443649.546 1 107432188.12121     -3274.248          45.000  
G21  21260234.649 1 111723293.26621     -2132.606          45.000  
G32  20950322.202 1 110094649.86921     -2153.406          44.000  
G28  21443772.697 1 112687780.08921      -641.883          43.000  
E11  19541789.633 1 102692801.276 1       599.915          44.000  
E 4  21716048.608 1 114118609.297 1       981.174          46.000  
E12  21108704.224 1 110927000.223 1     -1696.438          40.000  
E19  23544861.110 1 123729046.072 1     -1978.880          36.000  
R23  16992178.509 1  90896671.640 1       625.921          51.000  
R 8  17229734.494 1  92264427.726 1     -1156.730          46.000  
R 1  17643632.986 1  94315268.439 1      2336.067          47.000  
R24  18650633.606 1  99733314.015 1      3018.542          48.000  
R22  20238147.105 1 108032466.266 1     -3334.864          46.000  
R 7  20347432.257 1 108921367.446 1     -3915.468          44.000  
R15  22080950.917 9               9     -1009.175          25.000  
E36  23916750.972 1 125683369.185 1      2322.682          41.000  
E 9  22316116.959 1 117271995.786 1      2994.163          43.000  
G17  22104803.854 2 116161558.62121      3217.631          34.000  
G 4  22105831.192 1 116166945.37621      3751.233          42.000  
G27  23493824.094 1 123460715.44321     -3769.624          36.000  
G31  23307287.836 4 122480812.27323      2384.937          28.000  
> 2020  9 15 11  4 47.1930000  0 25                     
G22  18375359.661 1  96563160.83321        37.381          49.000  
G 1  18042574.490 1  94814384.01221       134.119          51.000  
G11  18080279.681 1  95012486.61321     -1571.125          47.000  
G 3  18680277.751 1  98165490.22421      1547.516          48.000  
G 8  20443711.939 1 107432515.55921     -3274.498          45.000  
G21  21260275.168 1 111723506.53221     -2132.680          45.000  
G32  20950363.158 1 110094865.22721     -2153.727          44.000  
G28  21443784.930 1 112687844.28621      -642.161          43.000  
E11  19541778.264 1 102692741.300 1       599.593          44.000  
E 4  21716030.006 1 114118511.191 1       980.957          46.000  
E12  21108736.542 1 110927169.854 1     -1696.414          40.000  
E19  23544898.742 1 123729243.954 1     -1978.914          36.000  
R23  16992166.922 1  90896609.079 1       625.485          51.000  
R 8  17229756.089 1  92264543.400 1     -1156.886          46.000  
R 1  17643589.282 1  94315034.848 1      2335.825          47.000  
R24  18650577.225 1  99733012.186 1      3018.219          48.000  
R22  20238209.664 1 108032799.777 1     -3335.279          46.000  
R 7  20347505.451 1 108921759.021 1     -3915.914          44.000  
R15  22080967.827 9               9     -1009.173          25.000  
E36  23916706.893 1 125683136.953 1      2322.223          41.000  
E 9  22316060.001 1 117271696.373 1      2994.065          43.000  
G17  22104742.622 2 116161236.86021      3217.415          34.000  
G 4  22105759.908 1 116166570.26721      3750.985          42.000  
G27  23493895.858 1 123461092.40821     -3769.531          36.000  
G31  23307245.022 4 122480573.65123      2386.266          29.000  
> 2020  9 15 11  4 47.2930000  0 25                     
G22  18375358.902 1  96563157.06721        37.628          49.000  
G 1  18042571.837 1  94814370.58421       134.202          51.000  
G11  18080309.600 1  95012643.70221     -1570.954          47.000  
G 3  18680248.243 1  98165335.44421      1547.748          48.000  
G 8  20443774.271 1 107432842.98121     -3274.266          45.000  
G21  21260315.705 1 111723719.80421     -2132.842          45.000  
G32  20950404.096 1 110095080.56721     -2153.390          44.000  
G28  21443797.206 1 112687908.49221      -642.245          43.000  
E11  19541766.852 1 102692681.324 1       599.519          44.000  
E 4  21716011.378 1 114118413.089 1       980.992          46.000  
E12  21108768.947 1 110927339.514 1     -1696.771          40.000  
E19  23544936.495 1 123729441.836 1     -1978.670          36.000  
R23  16992155.205 1  90896546.505 1       625.696          51.000  
R 8  17229777.622 1  92264659.081 1     -1156.918          46.000  
R 1  17643545.586 1  94314801.280 1      2335.572          47.000  
R24  18650520.747 1  99732710.354 1      3018.243          48.000  
R22  20238272.101 1 108033133.263 1     -3334.863          46.000  
R 7  20347578.516 1 108922150.584 1     -3915.628          44.000  
R15  22080984.553 9               9     -1008.855          25.000  
E36  23916662.569 1 125682904.717 1      2322.320          41.000  
E 9  22316003.087 1 117271396.967 1      2993.969          43.000  
G17  22104681.336 2 116160915.08221      3217.541          34.000  
G 4  22105688.467 1 116166195.13221      3751.319          42.000  
G27  23493967.605 1 123461469.39421     -3769.868          36.000  
G31  23307196.301 4 122480335.01723      2386.400          29.000  
> 2020  9 15 11  4 47.3930000  0 25                     
G22  18375358.152 1  96563153.32121        37.351          49.000  
G 1  18042569.237 1  94814357.16621       134.084          51.000  
G11  18080339.562 1  95012800.81321     -1571.184          47.000  
G 3  18680218.787 1  98165180.68521      1547.461          48.000  
G 8  20443836.516 1 107433170.43521     -3274.659          45.000  
G21  21260356.251 1 111723933.08021     -2132.839          45.000  
G32  20950445.043 1 110095295.91021     -2153.521          44.000  
G28  21443809.465 1 112687972.69721      -642.127          43.000  
E11  19541755.474 1 102692621.348 1       599.514          44.000  
E 4  21715992.829 1 114118315.008 1       980.751          46.000  
E12  21108801.230 1 110927509.162 1     -1696.589          40.000  
E19  23544974.197 1 123729639.746 1     -1979.023          36.000  
R23  16992143.618 1  90896483.954 1       625.366          51.000  
R 8  17229799.287 1  92264774.778 1     -1157.073          46.000  
R 1  17643501.847 1  94314567.707 1      2335.654          47.000  
R24  18650464.313 1  99732408.532 1      3018.066          48.000  
R22  20238334.520 1 108033466.787 1     -3335.310          46.000  
R 7  20347651.658 1 108922542.163 1     -3915.881          44.000  
R15  22081001.863 9               9     -1009.986          24.000  
E36  23916618.446 1 125682672.468 1      2322.437          41.000  
E 9  22315946.208 1 117271097.560 1      2993.908          43.000  
G17  22104620.156 2 116160593.34721      3217.334          34.000  
G 4  22105617.104 1 116165820.01921      3751.041          42.000  
G27  23494039.404 1 123461846.37221     -3769.866          36.000  
G31  23307148.706 4 122480096.43723      2385.465          29.000  
> 2020  9 15 11  4 47.4930000  0 25                     
G22  18375357.436 1  96563149.57121        37.481          49.000  
G 1  18042566.672 1  94814343.73621       134.303          51.000  
G11  18080369.489 1  95012957.90421     -1570.859          47.000  
G 3  18680189.357 1  98165025.91621      1547.736          48.000  
G 8  20443898.779 1 107433497.85721     -3274.219          45.000  
G21  21260396.831 1 111724146.33721     -2132.441          45.000  
G32  20950485.998 1 110095511.27221     -2153.576          44.000  
G28  21443821.654 1 112688036.89921      -642.048          43.000  
E11  19541744.114 1 102692561.359 1       599.832          44.000  
E 4  21715974.192 1 114118216.905 1       981.050          46.000  
E12  21108833.478 1 110927678.797 1     -1696.235          40.000  
E19  23545011.837 1 123729837.644 1     -1978.931          37.000  
R23  16992131.935 1  90896421.389 1       625.659          51.000  
R 8  17229820.881 1  92264890.473 1     -1156.972          46.000  
R 1  17643458.143 1  94314334.136 1      2335.705          47.000  
R24  18650407.809 1  99732106.699 1      3018.371          48.000  
R22  20238396.888 1 108033800.290 1     -3335.123          45.000  
R 7  20347724.757 1 108922933.725 1     -3915.509          44.000  
R15  22081018.127 9               9     -1006.296          24.000  
E36  23916574.262 1 125682440.228 1      2322.449          41.000  
E 9  22315889.181 1 117270798.149 1      2994.078          43.000  
G17  22104558.923 2 116160271.54221      3218.171          34.000  
G 4  22105545.750 1 116165444.88521      3751.305          42.000  
G27  23494111.054 1 123462223.32421     -3769.409          36.000  
G31  23307104.600 8 122479857.85823      2385.680          29.000  
> 2020  9 15 11  4 47.5930000  0 25                     
G22  18375356.590 1  96563145.81621        37.456          49.000  
G 1  18042564.186 1  94814330.31121       134.151          51.000  
G11  18080399.372 1  95013115.01521     -1571.235          47.000  
G 3  18680159.866 1  98164871.15721      1547.467          48.000  
G 8  20443961.128 1 107433825.30321     -3274.546          45.000  
G21  21260437.403 1 111724359.61721     -2132.923          45.000  
G32  20950526.945 1 110095726.63021     -2153.616          44.000  
G28  21443833.790 1 112688101.10821      -642.140          43.000  
E11  19541732.798 1 102692501.376 1       599.859          44.000  
E 4  21715955.616 1 114118118.812 1       980.893          46.000  
E12  21108865.761 1 110927848.438 1     -1696.375          40.000  
E19  23545049.451 1 123730035.551 1     -1979.149          37.000  
R23  16992120.269 1  90896358.831 1       625.515          51.000  
R 8  17229842.572 1  92265006.175 1     -1157.127          46.000  
R 1  17643414.457 1  94314100.578 1      2335.360          47.000  
R24  18650351.349 1  99731804.873 1      3018.115          48.000  
R22  20238459.228 1 108034133.797 1     -3335.197          45.000  
R 7  20347798.004 1 108923325.289 1     -3915.655          44.000  
R15  22081035.001 9               9     -1009.043          24.000  
E36  23916530.131 1 125682207.982 1      2322.453          41.000  
E 9  22315832.224 1 117270498.735 1      2994.124          43.000  
G17  22104497.647 2 116159949.81621      3216.825          34.000  
G 4  22105474.414 1 116165069.75921      3751.205          42.000  
G27  23494182.792 1 123462600.29221     -3769.781          36.000  
G31  23307058.855 8 122479619.21423      2386.363          29.000  
> 2020  9 15 11  4 47.6930000  0 24                     
G22  18375355.875 1  96563142.06621        37.450          49.000  
G 1  18042561.629 1  94814316.89321       134.123          51.000  
G11  18080429.160 1  95013272.12421     -1571.157          47.000  
G 3  18680130.445 1  98164716.39121      1547.638          48.000  
G 8  20444023.434 1 107434152.73321     -3274.347          45.000  
G21  21260478.009 1 111724572.87721     -2132.502          45.000  
G32  20950568.006 1 110095941.99021     -2153.718          44.000  
G28  21443845.953 1 112688165.32021      -642.139          43.000  
E11  19541721.324 1 102692441.394 1       599.960          44.000  
E 4  21715936.875 1 114118020.731 1       980.789          46.000  
E12  21108898.017 1 110928018.106 1     -1696.611          40.000  
E19  23545087.099 1 123730233.436 1     -1978.780          36.000  
R23  16992108.586 1  90896296.281 1       625.471          51.000  
R 8  17229864.210 1  92265121.871 1     -1156.943          46.000  
R 1  17643370.683 1  94313867.012 1      2335.639          47.000  
R24  18650294.959 1  99731503.041 1      3018.310          48.000  
R22  20238521.735 1 108034467.305 1     -3335.168          46.000  
R 7  20347871.129 1 108923716.859 1     -3915.635          44.000  
E36  23916485.964 1 125681975.725 1      2322.470          41.000  
E 9  22315775.223 1 117270199.316 1      2994.175          43.000  
G17  22104436.510 2 116159628.03821      3217.799          34.000  
G 4  22105403.086 1 116164694.62321      3751.531          42.000  
G27  23494254.512 1 123462977.24421     -3769.483          36.000  
G31  23307014.086 8 122479380.59723      2386.086          30.000  
> 2020  9 15 11  4 47.7930000  0 24                     
G22  18375355.168 1  96563138.30721        37.635          49.000  
G 1  18042559.090 1  94814303.45221       134.439          51.000  
G11  18080459.026 1  95013429.20921     -1570.816          47.000  
G 3  18680100.980 1  98164561.61321      1547.797          48.000  
G 8  20444085.819 1 107434480.15721     -3274.198          45.000  
G21  21260518.520 1 111724786.12921     -2132.501          45.000  
G32  20950608.953 1 110096157.33621     -2153.465          44.000  
G28  21443858.177 1 112688229.51621      -641.918          43.000  
E11  19541709.903 1 102692381.406 1       600.039          44.000  
E 4  21715918.229 1 114117922.621 1       981.071          46.000  
E12  21108930.335 1 110928187.726 1     -1696.164          40.000  
E19  23545124.801 1 123730431.317 1     -1978.729          36.000  
R23  16992096.781 1  90896233.714 1       625.695          51.000  
R 8  17229885.866 1  92265237.567 1     -1156.973          46.000  
R 1  17643327.048 1  94313633.436 1      2335.749          47.000  
R24  18650238.559 1  99731201.198 1      3018.408          48.000  
R22  20238584.207 1 108034800.792 1     -3334.963          46.000  
R 7  20347944.237 1 108924108.412 1     -3915.475          44.000  
E36  23916441.684 1 125681743.459 1      2322.654          41.000  
E 9  22315718.152 1 117269899.888 1      2994.373          43.000  
G17  22104375.312 2 116159306.25921      3217.595          34.000  
G 4  22105331.706 1 116164319.47421      3751.492          42.000  
G27  23494326.276 1 123463354.17421     -3769.206          36.000  
G31  23306967.808 8 122479142.01223      2385.714          30.000  
> 2020  9 15 11  4 47.8930000  0 24                     
G22  18375354.365 1  96563134.54421        37.553          49.000  
G 1  18042556.568 1  94814290.01721       134.268          51.000  
G11  18080488.997 1  95013586.30821     -1571.036          47.000  
G 3  18680071.542 1  98164406.84421      1547.558          48.000  
G 8  20444148.168 1 107434807.57821     -3274.241          45.000  
G21  21260559.109 1 111724999.38121     -2132.596          45.000  
G32  20950649.847 1 110096372.67921     -2153.430          44.000  
G28  21443870.462 1 112688293.72421      -642.141          43.000  
E11  19541698.578 1 102692321.417 1       599.879          44.000  
E 4  21715899.505 1 114117824.514 1       981.085          46.000  
E12  21108962.618 1 110928357.348 1     -1696.128          40.000  
E19  23545162.519 1 123730629.208 1     -1978.983          36.000  
R23  16992085.151 1  90896171.153 1       625.560          51.000  
R 8  17229907.504 1  92265353.264 1     -1156.965          46.000  
R 1  17643283.414 1  94313399.875 1      2335.578          47.000  
R24  18650182.082 1  99730899.349 1      3018.493          48.000  
R22  20238646.644 1 108035134.292 1     -3335.085          46.000  
R 7  20348017.415 1 108924499.974 1     -3915.689          44.000  
E36  23916397.527 1 125681511.184 1      2322.780          41.000  
E 9  22315661.229 1 117269600.460 1      2994.253          43.000  
G17  22104314.105 2 116158984.44921      3217.888          34.000  
G 4  22105260.387 1 116163944.32021      3751.615          42.000  
G27  23494398.058 1 123463731.12621     -3769.390          36.000  
G31  23306921.268 8 122478903.38423      2386.313          30.000  
> 2020  9 15 11  4 47.9930000  0 24                     
G22  18375353.632 1  96563130.78621        37.622          49.000  
G 1  18042554.091 1  94814276.58721       134.308          51.000  
G11  18080518.828 1  95013743.41321     -1571.064          47.000  
G 3  18680042.068 1  98164252.07521      1547.760          48.000  
G 8  20444210.396 1 107435135.00021     -3274.149          45.000  
G21  21260599.646 1 111725212.62721     -2132.402          45.000  
G32  20950690.742 1 110096588.03121     -2153.447          44.000  
G28  21443882.721 1 112688357.92821      -642.072          43.000  
E11  19541687.261 1 102692261.427 1       599.822          44.000  
E 4  21715880.842 1 114117726.423 1       980.917          46.000  
E12  21108994.770 1 110928526.997 1     -1696.422          40.000  
E19  23545200.159 1 123730827.101 1     -1978.907          36.000  
R23  16992073.485 1  90896108.598 1       625.540          51.000  
R 8  17229929.090 1  92265468.958 1     -1156.836          46.000  
R 1  17643239.754 1  94313166.302 1      2335.789          47.000  
R24  18650125.622 1  99730597.515 1      3018.353          48.000  
R22  20238709.054 1 108035467.782 1     -3334.871          45.000  
R 7  20348090.522 1 108924891.513 1     -3915.258          44.000  
E36  23916353.386 1 125681278.914 1      2322.754          41.000  
E 9  22315604.280 1 117269301.033 1      2994.240          43.000  
G17  22104252.890 2 116158662.70221      3217.497          34.000  
G 4  22105188.937 1 116163569.16921      3751.690          42.000  
G27  23494469.796 1 123464108.07321     -3769.543          36.000  
G31  23306878.184 8 122478664.80623      2385.318          30.000  
> 2020  9 15 11  4 48.0930000  0 24                     
G22  18375352.917 1  96563127.022 1        37.684          49.000  
G 1  18042551.490 1  94814262.65111       134.401          51.000  
G11  18080548.659 1  95013900.509 1     -1570.928          47.000  
G 3  18680012.665 1  98164096.79611      1547.833          48.000  
G 8  20444272.615 1 107435462.431 1     -3274.262          45.000  
G21  21260640.201 1 111725425.36911     -2132.372          45.000  
G32  20950731.645 1 110096802.88111     -2153.441          44.000  
G28  21443894.919 1 112688421.62611      -641.850          43.000  
E11  19541675.840 1 102692201.429 1       599.842          44.000  
E 4  21715862.179 1 114117628.317 1       981.092          46.000  
E12  21109027.027 1 110928696.604 1     -1696.049          40.000  
E19  23545237.782 1 123731024.976 1     -1978.752          36.000  
R23  16992061.706 1  90896046.044 1       625.582          51.000  
R 8  17229950.763 1  92265584.673 1     -1157.102          46.000  
R 1  17643196.041 1  94312932.746 1      2335.613          47.000  
R24  18650069.144 1  99730295.662 1      3018.585          48.000  
R22  20238771.509 1 108035801.278 1     -3334.891          46.000  
R 7  20348163.752 1 108925283.071 1     -3915.538          44.000  
E36  23916309.115 1 125681046.635 1      2322.770          41.000  
E 9  22315547.201 1 117269001.601 1      2994.325          43.000  
G17  22104191.701 2 116158340.890 1      3218.370          34.000  
G 4  22105117.609 1 116163193.51711      3751.551          42.000  
G27  23494541.490 1 123464484.980 1     -3769.099          36.000  
G31  23306832.630 8 122478426.17623      2385.801          30.000  
> 2020  9 15 11  4 48.1930000  0 24                     
G22  18375352.149 1  96563123.256 1        37.590          49.000  
G 1  18042548.995 1  94814249.210 1       134.329          51.000  
G11  18080578.595 1  95014057.607 1     -1571.010          47.000  
G 3  18679983.244 1  98163942.020 1      1547.687          48.000  
G 8  20444334.947 1 107435789.828 1     -3274.010          45.000  
G21  21260680.737 1 111725638.602 1     -2132.375          45.000  
G32  20950772.592 1 110097018.229 1     -2153.480          44.000  
G28  21443907.108 1 112688485.840 1      -642.413          43.000  
E11  19541664.367 1 102692141.406 1       600.103          44.000  
E 4  21715843.577 1 114117530.197 1       981.190          46.000  
E12  21109059.353 1 110928866.233 1     -1696.368          40.000  
E19  23545275.413 1 123731222.845 1     -1978.732          36.000  
R23  16992050.093 1  90895983.473 1       625.629          51.000  
R 8  17229972.314 1  92265700.373 1     -1157.061          46.000  
R 1  17643152.415 1  94312699.175 1      2335.686          47.000  
R24  18650012.666 1  99729993.803 1      3018.573          48.000  
R22  20238833.850 1 108036134.755 1     -3334.836          45.000  
R 7  20348236.764 1 108925674.599 1     -3915.332          44.000  
E36  23916264.931 1 125680814.348 1      2322.749          41.000  
E 9  22315490.287 1 117268702.146 1      2994.507          43.000  
G17  22104130.477 2 116158019.097 1      3217.976          34.000  
G 4  22105046.264 1 116162818.342 1      3751.694          42.000  
G27  23494613.219 1 123464861.919 1     -3769.462          36.000  
G31  23306786.998 8 122478187.49423      2386.722          30.000  
> 2020  9 15 11  4 48.2930000  0 24                     
G22  18375351.547 1  96563119.496 1        37.597          49.000  
G 1  18042546.482 1  94814235.777 1       134.294          51.000  
G11  18080608.539 1  95014214.706 1     -1571.041          47.000  
G 3  18679953.840 1  98163787.254 1      1547.644          48.000  
G 8  20444397.209 1 107436117.256 1     -3274.299          45.000  
G21  21260721.274 1 111725851.847 1     -2132.460          45.000  
G32  20950813.556 1 110097233.581 1     -2153.510          44.000  
G28  21443919.279 1 112688550.029 1      -641.930          43.000  
E11  19541652.972 1 102692081.411 1       599.925          44.000  
E 4  21715824.993 1 114117432.109 1       980.873          46.000  
E12  21109091.619 1 110929035.870 1     -1696.461          40.000  
E19  23545313.184 1 123731420.727 1     -1978.835          36.000  
R23  16992038.498 1  90895920.930 1       625.386          51.000  
R 8  17229993.935 1  92265816.087 1     -1157.165          46.000  
R 1  17643108.764 1  94312465.624 1      2335.538          47.000  
R24  18649956.189 1  99729691.964 1      3018.402          48.000  
R22  20238896.191 1 108036468.250 1     -3334.959          45.000  
R 7  20348309.906 1 108926066.156 1     -3915.638          44.000  
E36  23916220.756 1 125680582.059 1      2322.840          41.000  
E 9  22315433.285 1 117268402.710 1      2994.338          43.000  
G17  22104069.235 2 116157697.301 1      3217.972          34.000  
G 4  22104974.884 1 116162443.192 1      3751.465          42.000  
G27  23494685.088 1 123465238.858 1     -3769.658          36.000  
G31  23306740.074 8 122477948.87123      2385.972          30.000  
> 2020  9 15 11  4 48.3930000  0 24                     
G22  18375350.849 1  96563115.744 1        37.493          49.000  
G 1  18042543.908 1  94814222.347 1       134.257          51.000  
G11  18080638.432 1  95014371.826 1     -1571.274          47.000  
G 3  18679924.375 1  98163632.481 1      1547.711          48.000  
G 8  20444459.506 1 107436444.676 1     -3274.187          45.000  
G21  21260761.881 1 111726065.091 1     -2132.459          45.000  
G32  20950854.547 1 110097448.936 1     -2153.592          44.000  
G28  21443931.503 1 112688614.253 1      -642.300          43.000  
E11  19541641.542 1 102692021.407 1       600.172          44.000  
E 4  21715806.443 1 114117334.015 1       980.854          46.000  
E12  21109123.858 1 110929205.480 1     -1696.110          40.000  
E19  23545350.886 1 123731618.599 1     -1978.787          36.000  
R23  16992026.954 1  90895858.384 1       625.396          51.000  
R 8  17230015.547 1  92265931.816 1     -1157.370          46.000  
R 1  17643065.060 1  94312232.077 1      2335.374          47.000  
R24  18649899.694 1  99729390.120 1      3018.384          48.000  
R22  20238958.558 1 108036801.749 1     -3335.092          45.000  
R 7  20348383.032 1 108926457.701 1     -3915.434          44.000  
E36  23916176.677 1 125680349.782 1      2322.752          41.000  
E 9  22315376.232 1 117268103.270 1      2994.352          43.000  
G17  22104008.063 2 116157375.533 1      3217.560          34.000  
G 4  22104903.504 1 116162068.031 1      3751.448          42.000  
G27  23494756.747 1 123465615.753 1     -3769.006          36.000  
G31  23306695.881 8 122477710.24623      2386.424          30.000  
> 2020  9 15 11  4 48.4930000  0 24                     
G22  18375350.099 1  96563111.984 1        37.591          49.000  
G 1  18042541.352 1  94814208.905 1       134.412          51.000  
G11  18080668.289 1  95014528.929 1     -1571.044          47.000  
G 3  18679894.919 1  98163477.709 1      1547.723          48.000  
G 8  20444521.812 1 107436772.088 1     -3274.070          45.000  
G21  21260802.470 1 111726278.327 1     -2132.292          45.000  
G32  20950895.538 1 110097664.291 1     -2153.502          44.000  
G28  21443943.788 1 112688678.460 1      -642.046          43.000  
E11  19541629.998 1 102691961.403 1       600.212          44.000  
E 4  21715787.876 1 114117235.920 1       980.968          46.000  
E12  21109156.132 1 110929375.106 1     -1696.288          40.000  
E19  23545388.543 1 123731816.495 1     -1978.906          36.000  
R23  16992015.210 1  90895795.835 1       625.481          51.000  
R 8  17230037.168 1  92266047.525 1     -1157.050          46.000  
R 1  17643021.408 1  94311998.527 1      2335.420          47.000  
R24  18649843.286 1  99729088.269 1      3018.457          48.000  
R22  20239020.890 1 108037135.244 1     -3334.974          45.000  
R 7  20348456.165 1 108926849.238 1     -3915.389          44.000  
E36  23916132.344 1 125680117.477 1      2323.121          41.000  
E 9  22315319.257 1 117267803.827 1      2994.429          43.000  
G17  22103946.752 2 116157053.726 1      3218.040          34.000  
G 4  22104832.141 1 116161692.841 1      3751.923          42.000  
G27  23494828.502 1 123465992.680 1     -3769.372          36.000  
G31  23306652.265 8 122477471.58823      2386.768          30.000  
> 2020  9 15 11  4 48.5930000  0 24                     
G22  18375349.313 1  96563108.210 1        37.757          49.000  
G 1  18042538.857 1  94814195.463 1       134.335          51.000  
G11  18080698.138 1  95014686.018 1     -1570.898          47.000  
G 3  18679865.420 1  98163322.927 1      1547.839          48.000  
G 8  20444584.127 1 107437099.494 1     -3274.066          45.000  
G21  21260842.990 1 111726491.550 1     -2132.232          45.000  
G32  20950936.572 1 110097879.631 1     -2153.380          44.000  
G28  21443955.907 1 112688742.664 1      -642.190          43.000  
E11  19541618.621 1 102691901.387 1       600.283          44.000  
E 4  21715769.143 1 114117137.808 1       981.085          46.000  
E12  21109188.363 1 110929544.704 1     -1695.909          40.000  
E19  23545426.297 1 123732014.353 1     -1978.470          36.000  
R23  16992003.606 1  90895733.275 1       625.546          51.000  
R 8  17230058.763 1  92266163.236 1     -1157.179          46.000  
R 1  17642977.739 1  94311764.962 1      2335.609          47.000  
R24  18649786.660 1  99728786.401 1      3018.646          48.000  
R22  20239083.283 1 108037468.710 1     -3334.716          45.000  
R 7  20348529.343 1 108927240.779 1     -3915.481          44.000  
E36  23916088.187 1 125679885.178 1      2322.973          41.000  
E 9  22315262.291 1 117267504.370 1      2994.497          43.000  
G17  22103885.572 2 116156731.923 1      3218.228          34.000  
G 4  22104760.805 1 116161317.667 1      3751.833          42.000  
G27  23494900.205 1 123466369.588 1     -3769.084          36.000  
G31  23306606.405 8 122477232.96423      2386.433          30.000  
> 2020  9 15 11  4 48.6930000  0 24                     
G22  18375348.633 1  96563104.437 1        37.645          49.000  
G 1  18042536.300 1  94814182.010 1       134.503          51.000  
G11  18080728.082 1  95014843.113 1     -1571.024          47.000  
G 3  18679835.946 1  98163168.137 1      1547.858          48.000  
G 8  20444646.433 1 107437426.891 1     -3274.008          45.000  
G21  21260883.579 1 111726704.765 1     -2132.109          45.000  
G32  20950977.562 1 110098094.966 1     -2153.351          44.000  
G28  21443968.131 1 112688806.851 1      -641.907          43.000  
E11  19541607.191 1 102691841.368 1       600.190          44.000  
E 4  21715750.384 1 114117039.692 1       981.049          46.000  
E12  21109220.620 1 110929714.290 1     -1695.806          40.000  
E19  23545463.919 1 123732212.221 1     -1978.642          36.000  
R23  16991991.958 1  90895670.716 1       625.564          51.000  
R 8  17230080.410 1  92266278.947 1     -1157.092          46.000  
R 1  17642934.008 1  94311531.403 1      2335.523          47.000  
R24  18649730.226 1  99728484.538 1      3018.567          48.000  
R22  20239145.755 1 108037802.184 1     -3334.783          45.000  
R 7  20348602.494 1 108927632.288 1     -3915.093          44.000  
E36  23916043.924 1 125679652.856 1      2323.280          41.000  
E 9  22315205.325 1 117267204.901 1      2994.691          43.000  
G17  22103824.295 2 116156410.114 1      3218.117          34.000  
G 4  22104689.407 1 116160942.471 1      3751.907          42.000  
G27  23494971.917 1 123466746.456 1     -3768.560          36.000  
G31  23306560.974 8 122476994.32823      2386.359          30.000  
> 2020  9 15 11  4 48.7930000  0 24                     
G22  18375347.926 1  96563100.677 1        37.535          49.000  
G 1  18042533.683 1  94814168.571 1       134.316          51.000  
G11  18080757.974 1  95015000.225 1     -1571.182          47.000  
G 3  18679806.412 1  98163013.375 1      1547.528          48.000  
G 8  20444708.748 1 107437754.309 1     -3274.238          45.000  
G21  21260924.194 1 111726917.997 1     -2132.384          45.000  
G32  20951018.527 1 110098310.337 1     -2153.793          44.000  
G28  21443980.268 1 112688871.069 1      -642.294          43.000  
E11  19541595.717 1 102691781.363 1       599.892          44.000  
E 4  21715731.721 1 114116941.591 1       980.995          46.000  
E12  21109252.981 1 110929883.933 1     -1696.566          40.000  
E19  23545501.690 1 123732410.077 1     -1978.501          36.000  
R23  16991980.275 1  90895608.174 1       625.361          51.000  
R 8  17230101.987 1  92266394.672 1     -1157.296          46.000  
R 1  17642890.339 1  94311297.863 1      2335.410          47.000  
R24  18649673.774 1  99728182.682 1      3018.457          48.000  
R22  20239208.201 1 108038135.675 1     -3335.016          45.000  
R 7  20348675.724 1 108928023.835 1     -3915.489          44.000  
E36  23915999.697 1 125679420.551 1      2323.115          41.000  
E 9  22315148.428 1 117266905.441 1      2994.606          43.000  
G17  22103763.115 2 116156088.317 1      3217.677          34.000  
G 4  22104618.036 1 116160567.280 1      3751.921          42.000  
G27  23495043.707 1 123467123.365 1     -3769.297          36.000  
G31  23306516.336 8 122476755.67923      2386.271          30.000  
> 2020  9 15 11  4 48.8930000  0 24                     
G22  18375347.193 1  96563096.911 1        37.634          49.000  
G 1  18042531.152 1  94814155.136 1       134.300          51.000  
G11  18080787.867 1  95015157.327 1     -1571.014          47.000  
G 3  18679776.921 1  98162858.604 1      1547.638          48.000  
G 8  20444771.045 1 107438081.709 1     -3273.970          45.000  
G21  21260964.766 1 111727131.227 1     -2132.376          45.000  
G32  20951059.430 1 110098525.691 1     -2153.544          44.000  
G28  21443992.422 1 112688935.256 1      -641.900          43.000  
E11  19541584.288 1 102691721.356 1       599.840          44.000  
E 4  21715713.102 1 114116843.496 1       980.934          46.000  
E12  21109285.246 1 110930053.539 1     -1696.208          40.000  
E19  23545539.357 1 123732607.977 1     -1978.822          36.000  
R23  16991968.618 1  90895545.637 1       625.344          51.000  
R 8  17230123.590 1  92266510.406 1     -1157.451          46.000  
R 1  17642846.626 1  94311064.317 1      2335.487          47.000  
R24  18649617.306 1  99727880.824 1      3018.500          48.000  
R22  20239270.585 1 108038469.167 1     -3334.912          45.000  
R 7  20348748.867 1 108928415.369 1     -3915.251          44.000  
E36  23915955.617 1 125679188.249 1      2323.023          41.000  
E 9  22315091.392 1 117266606.001 1      2994.362          43.000  
G17  22103701.795 2 116155766.483 1      3218.457          34.000  
G 4  22104546.760 1 116160192.098 1      3751.839          42.000  
G27  23495115.332 1 123467500.263 1     -3768.971          36.000  
G31  23306470.224 8 122476517.06322      2385.868          30.000  
> 2020  9 15 11  4 48.9930000  0 24                     
G22  18375346.469 1  96563093.150 1        37.640          49.000  
G 1  18042528.500 1  94814141.694 1       134.475          51.000  
G11  18080817.698 1  95015314.432 1     -1571.027          47.000  
G 3  18679747.439 1  98162703.832 1      1547.766          48.000  
G 8  20444833.325 1 107438409.125 1     -3274.150          45.000  
G21  21261005.399 1 111727344.441 1     -2132.121          45.000  
G32  20951100.386 1 110098741.046 1     -2153.515          44.000  
G28  21444004.646 1 112688999.476 1      -642.232          43.000  
E11  19541572.770 1 102691661.330 1       600.171          44.000  
E 4  21715694.430 1 114116745.397 1       980.967          46.000  
E12  21109317.529 1 110930223.136 1     -1695.921          40.000  
E19  23545577.032 1 123732805.845 1     -1978.688          36.000  
R23  16991956.953 1  90895483.091 1       625.485          51.000  
R 8  17230145.290 1  92266626.144 1     -1157.427          46.000  
R 1  17642803.045 1  94310830.789 1      2335.274          47.000  
R24  18649560.915 1  99727578.963 1      3018.665          48.000  
R22  20239333.022 1 108038802.648 1     -3334.740          45.000  
R 7  20348821.974 1 108928806.904 1     -3915.235          44.000  
E36  23915911.459 1 125678955.937 1      2323.113          41.000  
E 9  22315034.417 1 117266306.538 1      2994.639          43.000  
G17  22103640.562 2 116155444.709 1      3217.791          34.000  
G 4  22104475.328 1 116159816.902 1      3752.094          42.000  
G27  23495187.026 1 123467877.148 1     -3768.579          36.000  
G31  23306426.467 8 122476278.37522      2387.057          30.000  
> 2020  9 15 11  4 49.0930000  0 24                     
G22  18375345.605 1  96563089.384 1        37.590          49.000  
G 1  18042526.057 1  94814128.242 1       134.471          51.000  
G11  18080847.494 1  95015471.544 1     -1571.083          47.000  
G 3  18679718.027 1  98162549.044 1      1547.815          48.000  
G 8  20444895.509 1 107438736.513 1     -3273.918          45.000  
G21  21261045.988 1 111727557.648 1     -2132.143          45.000  
G32  20951141.455 1 110098956.390 1     -2153.564          44.000  
G28  21444016.834 1 112689063.675 1      -641.973          43.000  
E11  19541561.349 1 102691601.284 1       600.528          44.000  
E 4  21715675.715 1 114116647.283 1       981.132          46.000  
E12  21109349.803 1 110930392.726 1     -1695.850          40.000  
E19  23545614.724 1 123733003.690 1     -1978.427          36.000  
R23  16991945.383 1  90895420.546 1       625.375          51.000  
R 8  17230166.884 1  92266741.863 1     -1157.246          46.000  
R 1  17642759.262 1  94310597.236 1      2335.545          47.000  
R24  18649504.455 1  99727277.085 1      3018.756          48.000  
R22  20239395.441 1 108039136.127 1     -3334.826          45.000  
R 7  20348895.091 1 108929198.415 1     -3915.093          44.000  
E36  23915867.171 1 125678723.606 1      2323.266          41.000  
E 9  22314977.468 1 117266007.059 1      2994.791          43.000  
G17  22103579.355 2 116155122.856 1      3218.458          34.000  
G 4  22104403.922 1 116159441.694 1      3752.170          42.000  
G27  23495258.772 1 123468254.032 1     -3768.970          36.000  
G31  23306381.263 8 122476039.73922      2386.352          30.000  
> 2020  9 15 11  4 49.1930000  0 24                     
G22  18375344.829 1  96563085.619 1        37.683          49.000  
G 1  18042523.596 1  94814114.806 1       134.380          51.000  
G11  18080877.351 1  95015628.649 1     -1570.982          47.000  
G 3  18679688.553 1  98162394.273 1      1547.754          48.000  
G 8  20444957.850 1 107439063.924 1     -3273.964          45.000  
G21  21261086.533 1 111727770.870 1     -2132.235          45.000  
G32  20951182.576 1 110099171.744 1     -2153.534          44.000  
G28  21444029.119 1 112689127.889 1      -642.115          43.000  
E11  19541549.946 1 102691541.275 1       600.274          44.000  
E 4  21715657.087 1 114116549.194 1       980.914          46.000  
E12  21109382.174 1 110930562.343 1     -1696.113          40.000  
E19  23545652.417 1 123733201.574 1     -1978.754          36.000  
R23  16991933.700 1  90895358.009 1       625.384          51.000  
R 8  17230188.549 1  92266857.599 1     -1157.292          46.000  
R 1  17642715.523 1  94310363.706 1      2335.317          47.000  
R24  18649448.195 1  99726975.224 1      3018.677          48.000  
R22  20239457.800 1 108039469.601 1     -3334.582          45.000  
R 7  20348968.233 1 108929589.957 1     -3915.373          44.000  
E36  23915822.952 1 125678491.278 1      2323.400          41.000  
E 9  22314920.432 1 117265707.597 1      2994.622          43.000  
G17  22103518.079 2 116154801.092 1      3217.640          34.000  
G 4  22104332.507 1 116159066.499 1      3752.077          42.000  
G27  23495330.467 1 123468630.908 1     -3768.942          36.000  
G31  23306335.944 8 122475801.07122      2386.243          30.000  
> 2020  9 15 11  4 49.2930000  0 24                     
G22  18375343.991 1  96563081.847 1        37.682          49.000  
G 1  18042521.066 1  94814101.350 1       134.521          51.000  
G11  18080907.270 1  95015785.755 1     -1571.153          47.000  
G 3  18679659.115 1  98162239.499 1      1547.705          48.000  
G 8  20445020.042 1 107439391.314 1     -3273.979          45.000  
G21  21261127.088 1 111727984.075 1     -2132.017          45.000  
G32  20951223.514 1 110099387.101 1     -2153.604          44.000  
G28  21444041.378 1 112689192.104 1      -642.170          43.000  
E11  19541538.455 1 102691481.247 1       600.431          44.000  
E 4  21715638.397 1 114116451.072 1       981.198          46.000  
E12  21109414.544 1 110930731.916 1     -1695.658          40.000  
E19  23545690.004 1 123733399.441 1     -1978.776          36.000  
R23  16991922.105 1  90895295.461 1       625.402          51.000  
R 8  17230210.152 1  92266973.337 1     -1157.481          46.000  
R 1  17642671.897 1  94310130.168 1      2335.291          47.000  
R24  18649391.788 1  99726673.345 1      3018.805          48.000  
R22  20239520.219 1 108039803.085 1     -3334.884          45.000  
R 7  20349041.446 1 108929981.468 1     -3915.055          44.000  
E36  23915778.838 1 125678258.949 1      2323.246          41.000  
E 9  22314863.475 1 117265408.120 1      2994.721          43.000  
G17  22103456.811 2 116154479.238 1      3218.662          34.000  
G 4  22104261.092 1 116158691.292 1      3752.078          42.000  
G27  23495402.266 1 123469007.776 1     -3768.669          36.000  
G31  23306291.970 8 122475562.44222      2386.130          30.000  
> 2020  9 15 11  4 49.3930000  0 24                     
G22  18375343.136 1  96563078.077 1        37.682          49.000  
G 1  18042518.431 1  94814087.902 1       134.446          51.000  
G11  18080937.284 1  95015942.869 1     -1571.206          47.000  
G 3  18679629.676 1  98162084.717 1      1547.833          48.000  
G 8  20445082.348 1 107439718.714 1     -3274.046          45.000  
G21  21261167.625 1 111728197.279 1     -2132.057          45.000  
G32  20951264.444 1 110099602.448 1     -2153.467          44.000  
G28  21444053.567 1 112689256.295 1      -641.838          43.000  
E11  19541527.060 1 102691421.211 1       600.495          44.000  
E 4  21715619.638 1 114116352.963 1       981.099          46.000  
E12  21109447.001 1 110930901.512 1     -1695.883          40.000  
E19  23545727.540 1 123733597.305 1     -1978.690          37.000  
R23  16991910.500 1  90895232.929 1       625.279          51.000  
R 8  17230231.790 1  92267089.061 1     -1157.249          46.000  
R 1  17642628.246 1  94309896.632 1      2335.307          47.000  
R24  18649335.345 1  99726371.472 1      3018.774          48.000  
R22  20239582.639 1 108040136.551 1     -3334.645          45.000  
R 7  20349114.641 1 108930372.995 1     -3915.357          44.000  
E36  23915734.628 1 125678026.620 1      2323.219          41.000  
E 9  22314806.378 1 117265108.637 1      2994.872          43.000  
G17  22103395.587 2 116154157.410 1      3218.209          34.000  
G 4  22104189.677 1 116158316.077 1      3752.142          42.000  
G27  23495474.021 1 123469384.640 1     -3768.407          36.000  
G31  23306244.758 8 122475323.72722      2387.525          30.000  
> 2020  9 15 11  4 49.4930000  0 24                     
G22  18375342.499 1  96563074.315 1        37.547          49.000  
G 1  18042515.909 1  94814074.455 1       134.447          51.000  
G11  18080967.141 1  95016099.973 1     -1571.107          47.000  
G 3  18679600.290 1  98161929.939 1      1547.754          48.000  
G 8  20445144.672 1 107440046.112 1     -3274.008          45.000  
G21  21261208.196 1 111728410.492 1     -2132.168          45.000  
G32  20951305.522 1 110099817.802 1     -2153.574          44.000  
G28  21444065.826 1 112689320.518 1      -642.325          43.000  
E11  19541515.621 1 102691361.198 1       600.104          44.000  
E 4  21715601.080 1 114116254.866 1       980.965          46.000  
E12  21109479.310 1 110931071.120 1     -1696.134          40.000  
E19  23545765.267 1 123733795.173 1     -1978.692          37.000  
R23  16991898.721 1  90895170.388 1       625.377          51.000  
R 8  17230253.498 1  92267204.814 1     -1157.527          46.000  
R 1  17642584.568 1  94309663.095 1      2335.358          47.000  
R24  18649278.937 1  99726069.600 1      3018.665          48.000  
R22  20239645.084 1 108040470.035 1     -3334.970          45.000  
R 7  20349187.687 1 108930764.512 1     -3915.177          44.000  
E36  23915690.365 1 125677794.270 1      2323.620          41.000  
E 9  22314749.359 1 117264809.163 1      2994.702          43.000  
G17  22103334.398 4 116153835.598 2      3218.116          34.000  
G 4  22104118.270 1 116157940.858 1      3752.228          42.000  
G27  23495545.733 1 123469761.515 1     -3768.841          36.000  
G31  23306199.807 8 122475085.08122      2386.459          30.000  
> 2020  9 15 11  4 49.5930000  0 24                     
G22  18375341.731 1  96563070.530 1        37.849          49.000  
G 1  18042513.379 1  94814060.986 1       134.732          51.000  
G11  18080996.999 1  95016257.071 1     -1570.933          47.000  
G 3  18679570.790 1  98161775.152 1      1547.894          48.000  
G 8  20445206.882 1 107440373.491 1     -3273.724          45.000  
G21  21261248.786 1 111728623.677 1     -2131.846          45.000  
G32  20951346.530 1 110100033.147 1     -2153.364          44.000  
G28  21444078.059 1 112689384.707 1      -641.825          43.000  
E11  19541504.113 1 102691301.154 1       600.415          44.000  
E 4  21715582.574 1 114116156.743 1       981.288          46.000  
E12  21109511.576 1 110931240.691 1     -1695.675          40.000  
E19  23545802.872 1 123733992.996 1     -1978.165          37.000  
R23  16991887.038 1  90895107.844 1       625.431          51.000  
R 8  17230275.154 1  92267320.549 1     -1157.360          46.000  
R 1  17642540.785 1  94309429.558 1      2335.317          47.000  
R24  18649222.521 1  99725767.707 1      3019.019          48.000  
R22  20239707.486 1 108040803.501 1     -3334.657          45.000  
R 7  20349260.760 1 108931156.011 1     -3915.020          44.000  
E36  23915646.155 1 125677561.919 1      2323.649          41.000  
E 9  22314692.358 1 117264509.658 1      2995.116          43.000  
G17  22103273.078 4 116153513.731 2      3218.619          34.000  
G 4  22104046.899 1 116157565.618 1      3752.395          42.000  
G27  23495617.453 2 123470138.339 1     -3768.083          36.000  
G31  23306152.359 8 122474846.36822      2387.735          30.000  
> 2020  9 15 11  4 49.6930000  0 24                     
G22  18375341.068 1  96563066.757 1        37.601          49.000  
G 1  18042510.831 1  94814047.535 1       134.368          51.000  
G11  18081026.882 1  95016414.189 1     -1571.326          47.000  
G 3  18679541.343 1  98161620.368 1      1547.736          48.000  
G 8  20445269.196 1 107440700.884 1     -3274.086          45.000  
G21  21261289.384 1 111728836.869 1     -2132.029          45.000  
G32  20951387.468 1 110100248.491 1     -2153.534          44.000  
G28  21444090.160 1 112689448.933 1      -642.430          43.000  
E11  19541492.700 1 102691241.105 1       600.283          44.000  
E 4  21715563.754 1 114116058.628 1       981.164          46.000  
E12  21109543.832 1 110931410.276 1     -1695.954          40.000  
E19  23545840.539 1 123734190.860 1     -1978.721          37.000  
R23  16991875.434 1  90895045.309 1       625.155          51.000  
R 8  17230296.792 1  92267436.287 1     -1157.460          46.000  
R 1  17642497.107 1  94309196.026 1      2335.229          47.000  
R24  18649166.217 1  99725465.823 1      3018.726          48.000  
R22  20239769.775 1 108041136.968 1     -3334.814          45.000  
R 7  20349333.929 1 108931547.525 1     -3915.347          44.000  
E36  23915602.024 1 125677329.564 1      2323.481          41.000  
E 9  22314635.435 1 117264210.184 1      2994.691          43.000  
G17  22103211.845 4 116153191.927 2      3217.430          34.000  
G 4  22103975.466 1 116157190.401 1      3752.097          42.000  
G27  23495689.191 2 123470515.216 1     -3769.036          36.000  
G31  23306108.341 8 122474607.76123      2386.082          30.000  
> 2020  9 15 11  4 49.7930000  0 24                     
G22  18375340.361 1  96563062.989 1        37.664          49.000  
G 1  18042508.310 1  94814034.081 1       134.527          51.000  
G11  18081056.818 1  95016571.292 1     -1571.082          47.000  
G 3  18679511.905 1  98161465.598 1      1547.662          48.000  
G 8  20445331.476 1 107441028.269 1     -3273.850          45.000  
G21  21261329.912 1 111729050.066 1     -2132.002          45.000  
G32  20951428.441 1 110100463.854 1     -2153.710          44.000  
G28  21444102.367 1 112689513.133 1      -642.090          43.000  
E11  19541481.244 1 102691181.071 1       600.205          44.000  
E 4  21715545.021 1 114115960.534 1       980.877          46.000  
E12  21109576.107 1 110931579.855 1     -1695.876          40.000  
E19  23545878.048 1 123734388.714 1     -1978.447          37.000  
R23  16991863.760 1  90894982.779 1       625.253          51.000  
R 8  17230318.343 1  92267552.031 1     -1157.443          46.000  
R 1  17642453.412 1  94308962.495 1      2335.328          47.000  
R24  18649109.766 1  99725163.937 1      3018.866          48.000  
R22  20239832.220 1 108041470.434 1     -3334.706          45.000  
R 7  20349407.045 1 108931939.033 1     -3915.099          44.000  
E36  23915557.848 1 125677097.220 1      2323.351          41.000  
E 9  22314578.443 1 117263910.692 1      2994.876          43.000  
G17  22103150.621 4 116152870.048 2      3218.597          34.000  
G 4  22103904.043 1 116156815.165 1      3752.300          42.000  
G27  23495760.885 2 123470892.079 1     -3768.616          36.000  
G31  23306065.239 8 122474369.02623      2387.276          30.000  
