     2.11           OBSERVATION DATA    M (MIXED)           RINEX VERSION / TYPE
teqc  2019Feb25                         20200513 11:24:49UTCPGM / RUN BY / DATE
Linux 2.6.32-573.12.1.x86_64|x86_64|gcc -static|Linux 64|=+ COMMENT
teqc  2019Feb25                         20200513 11:24:47UTCCOMMENT
teqc  2019Feb25     UCB SEISMO LAB      20200410 00:45:11UTCCOMMENT
                                                            COMMENT
BARD Data:  Bay Area Regional Deformation Network           COMMENT
            Berkeley Seismological Laboratory               COMMENT
            202 McCone Hall                                 COMMENT
            University of California                        COMMENT
            Berkeley, CA 94720-4760 USA                     COMMENT
                                                            COMMENT
NCEDC Archive:         ftp://www.ncedc.org                  COMMENT
                      http://www.ncedc.org                  COMMENT
                                                            COMMENT
Questions:                 bard@seismo.berkeley.edu         COMMENT
                                                            COMMENT
BIT 2 OF LLI FLAGS DATA COLLECTED UNDER A/S CONDITION       COMMENT
 SNR is mapped to RINEX snr flag value [0-9]                COMMENT
  L1 & L2: min(max(int(snr_dBHz/6), 0), 9)                  COMMENT
MHDL                                                        MARKER NAME
Mario Aranha        UC Berkeley                             OBSERVER / AGENCY
4501810             SEPT POLARX5        5.3.0               REC # / TYPE / VERS
12377               ASH700936C_M    SCIS                    ANT # / TYPE
 -2709308.5619 -4253691.1766  3891678.1159                  APPROX POSITION XYZ
        0.0000        0.0000        0.0000                  ANTENNA: DELTA H/E/N
     1     1                                                WAVELENGTH FACT L1/2
     3    C1    P1    L1                                    # / TYPES OF OBSERV
     1.0000                                                 INTERVAL
teqc windowed: start @ 2020 Apr  9 20:00:00.000             COMMENT
teqc windowed: delta = 3600.000 sec                         COMMENT
    18                                                      LEAP SECONDS
  2020     4     9    20     0    0.0000000     GPS         TIME OF FIRST OBS
                                                            END OF HEADER
 20  4  9 20  0  0.0000000  0 16G17G15G01R16R18G28G30R15G13G07G19R05
                                R06R17R14R24
  20626712.548    20626712.0704  108394127.217 8
  22695979.967    22695979.6464  119268182.604 7
  23549750.497    23549750.2524  123754788.848 6
  22180749.507    22180750.000   118485597.013 6
  21925033.854    21925033.912   117037341.964 7
  20907725.057    20907724.0924  109870844.906 8
  21044847.357    21044846.5844  110591415.680 8
  19904069.934    19904070.224   106361332.072 8
  21111406.376    21111405.8264  110941194.784 8
  23250332.262    23250331.7754  122181291.257 6
  21809726.246    21809724.8334  114610907.984 7
  22600680.749    22600682.196   120813593.280 7
  22447427.283    22447426.930   119783786.778 6
  19852891.946    19852892.036   106236859.974 8
  21789869.285    21789869.467   116152267.115 7
  21380014.359    21380014.048   114328604.685 6
 20  4  9 20  0  1.0000000  0 16G17G15G01R16R18G28G30R15G13G07G19R05
                                R06R17R14R24
  20626493.208    20626492.7304  108392974.429 8
  22695866.097    22695865.7804  119267584.472 7
  23549706.201    23549705.9564  123754556.048 6
  22180247.189    22180248.446   118482916.977 6
  21924238.912    21924238.957   117033098.327 7
  20907897.056    20907896.0914  109871748.748 8
  21045164.115    21045163.3424  110593080.164 8
  19903998.282    19903998.468   106360948.900 8
  21111493.543    21111492.9984  110941653.174 8
  23250877.782    23250877.2954  122184157.619 6
  21809134.910    21809133.4974  114607800.357 7
  22601314.518    22601315.847   120816981.088 7
  22447466.621    22447466.517   119783998.837 6
  19852664.603    19852664.472   106235642.062 8
  21790264.419    21790264.670   116154373.474 7
  21380460.954    21380460.589   114330992.459 6
 20  4  9 20  0  2.0000000  0 16G17G15G01R16R18G28G30R15G13G07G19R05
                                R06R17R14R24
  20626273.913    20626273.4354  108391821.805 8
  22695752.197    22695751.8804  119266986.542 7
  23549661.773    23549661.5284  123754323.505 6
  22179745.685    22179746.803   118480236.627 6
  21923443.888    21923444.047   117028854.582 7
  20908069.022    20908068.0574  109872652.354 8
  21045480.899    21045480.1214  110594744.668 8
  19903926.530    19903926.794   106360565.593 8
  21111580.859    21111580.3094  110942111.840 8
  23251423.247    23251422.7604  122187023.858 6
  21808543.524    21808542.1114  114604692.720 7
  22601948.580    22601949.679   120820368.831 7
  22447506.211    22447506.312   119784211.282 6
  19852437.045    19852437.091   106234424.628 8
  21790659.678    21790659.918   116156479.640 7
  21380907.385    21380907.118   114333380.587 6
 20  4  9 20  0  3.0000000  0 16G17G15G01R16R18G28G30R15G13G07G19R05
                                R06R17R14R24
  20626054.584    20626054.1064  108390669.176 8
  22695638.364    22695638.0474  119266388.677 7
  23549617.496    23549617.2514  123754091.030 6
  22179243.911    22179244.889   118477555.681 6
  21922649.013    21922649.063   117024610.568 7
  20908240.915    20908239.9504  109873555.556 8
  21045797.628    21045796.8504  110596409.011 8
  19903854.825    19903854.930   106360181.972 8
  21111668.168    21111667.6184  110942570.596 8
  23251968.808    23251968.3214  122189889.815 6
  21807952.028    21807950.6154  114601584.908 7
  22602582.219    22602583.285   120823756.337 7
  22447545.934    22447546.279   119784423.945 6
  19852209.507    19852209.516   106233207.463 8
  21791054.763    21791055.012   116158585.446 7
  21381354.163    21381353.752   114335768.879 6
 20  4  9 20  0  4.0000000  0 16G17G15G01R16R18G28G30R15G13G07G19R05
                                R06R17R14R24
  20625835.377    20625834.8994  108389517.291 8
  22695524.533    22695524.2164  119265791.598 7
  23549573.386    23549573.1414  123753859.356 6
  22178741.994    22178742.890   118474874.936 6
  21921854.109    21921854.043   117020367.029 7
  20908412.864    20908411.8994  109874459.099 8
  21046114.451    21046113.6734  110598073.962 8
  19903783.093    19903783.204   106359798.799 8
  21111755.640    21111755.0954  110943030.194 8
  23252514.309    23252513.8184  122192756.215 6
  21807360.670    21807359.2534  114598477.661 7
  22603216.196    22603216.998   120827144.334 7
  22447585.927    22447586.280   119784637.581 6
  19851982.193    19851982.280   106231991.355 8
  21791449.909    21791450.164   116160691.658 7
  21381800.826    21381800.587   114338158.102 6
 20  4  9 20  0  5.0000000  0 16G17G15G01R16R18G28G30R15G13G07G19R05
                                R06R17R14R24
  20625616.243    20625615.7704  108388365.893 8
  22695410.889    22695410.5724  119265195.064 7
  23549529.399    23549529.1544  123753628.271 6
  22178240.868    22178240.856   118472194.103 6
  21921059.347    21921059.095   117016123.739 7
  20908584.770    20908583.8054  109875362.725 8
  21046431.258    21046430.4764  110599739.247 8
  19903711.387    19903711.514   106359415.806 8
  21111843.207    21111842.6574  110943490.378 8
  23253059.801    23253059.3144  122195622.825 6
  21806769.328    21806767.9154  114595370.739 7
  22603849.894    22603850.840   120830532.551 7
  22447626.458    22447626.417   119784851.961 6
  19851755.096    19851755.135   106230776.078 8
  21791844.955    21791845.253   116162798.019 7
  21382247.239    21382247.189   114340548.008 6
 20  4  9 20  0  6.0000000  0 16G17G15G01R16R18G28G30R15G13G07G19R05
                                R06R17R14R24
  20625397.263    20625396.7854  108387215.391 8
  22695297.501    22695297.1844  119264599.478 7
  23549485.616    23549485.3714  123753398.140 6
  22177739.080    22177739.047   118469513.584 6
  21920264.074    21920264.342   117011881.059 7
  20908756.845    20908755.8804  109876266.846 8
  21046748.321    21046747.5434  110601405.276 8
  19903639.697    19903640.000   106359033.405 8
  21111930.931    21111930.3814  110943951.556 8
  23253605.731    23253605.2404  122198490.047 6
  21806178.227    21806176.8104  114592264.534 7
  22604483.778    22604484.833   120833921.401 7
  22447667.471    22447666.783   119785067.464 6
  19851528.380    19851528.326   106229562.037 8
  21792240.140    21792240.403   116164904.912 7
  21382694.155    21382694.335   114342938.985 6
 20  4  9 20  0  7.0000000  0 16G17G15G01R16R18G28G30R15G13G07G19R05
                                R06R17R14R24
  20625178.301    20625177.8234  108386064.922 8
  22695184.247    22695183.9304  119264003.980 7
  23549441.917    23549441.6674  123753168.111 6
  22177237.025    22177237.105   118466832.573 6
  21919469.166    21919469.334   117007638.129 7
  20908928.799    20908927.8344  109877170.582 8
  21047065.362    21047064.5844  110603071.200 8
  19903567.914    19903568.309   106358650.744 8
  21112018.697    21112018.1474  110944412.858 8
  23254151.043    23254150.5524  122201357.011 6
  21805587.058    21805585.6414  114589158.173 7
  22605117.530    22605118.727   120837310.037 7
  22447707.921    22447707.321   119785283.247 6
  19851301.459    19851301.420   106228348.332 8
  21792635.327    21792635.450   116167011.476 7
  21383141.641    21383141.579   114345330.165 6
 20  4  9 20  0  8.0000000  0 16G17G15G01R16R18G28G30R15G13G07G19R05
                                R06R17R14R24
  20624959.576    20624959.0984  108384915.558 8
  22695071.185    22695070.8724  119263409.629 7
  23549398.320    23549398.0704  123752939.270 6
  22176735.563    22176735.431   118464152.183 6
  21918674.758    21918674.751   117003396.042 7
  20909100.857    20909099.8924  109878075.037 8
  21047382.580    21047381.8024  110604738.079 8
  19903496.450    19903496.922   106358268.933 8
  21112106.739    21112106.1894  110944875.377 8
  23254696.686    23254696.1954  122204224.785 6
  21804996.086    21804994.6734  114586052.766 7
  22605751.611    22605752.958   120840699.565 7
  22447748.747    22447747.917   119785500.394 6
  19851074.824    19851074.953   106227136.043 8
  21793030.653    21793030.762   116169118.824 7
  21383588.972    21383589.294   114347722.657 6
 20  4  9 20  0  9.0000000  0 16G17G15G01R16R18G28G30R15G13G07G19R05
                                R06R17R14R24
  20624740.969    20624740.4914  108383766.623 8
  22694958.189    22694957.8724  119262815.780 7
  23549354.945    23549354.7004  123752710.901 6
  22176233.174    22176233.660   118461471.694 6
  21917880.205    21917880.013   116999154.098 7
  20909272.959    20909271.9944  109878979.510 8
  21047699.799    21047699.0174  110606405.241 8
  19903425.212    19903425.535   106357887.242 8
  21112194.871    21112194.3214  110945338.420 8
  23255242.515    23255242.0244  122207092.714 6
  21804405.219    21804403.8064  114582947.608 7
  22606386.180    22606387.234   120844089.279 7
  22447789.492    22447788.575   119785718.224 6
  19850848.525    19850848.549   106225924.474 8
  21793425.940    21793426.105   116171226.281 7
  21384036.578    21384037.242   114350115.762 6
 20  4  9 20  0 10.0000000  0 16G17G15G01R16R18G28G30R15G13G07G19R05
                                R06R17R14R24
  20624522.512    20624522.0394  108382618.303 8
  22694845.300    22694844.9874  119262222.597 7
  23549311.657    23549311.4124  123752483.258 6
  22175731.416    22175731.754   118458791.300 6
  21917085.569    21917085.246   116994912.501 7
  20909445.161    20909444.1964  109879884.204 8
  21048017.159    21048016.3814  110608072.877 8
  19903353.921    19903354.130   106357505.865 8
  21112283.172    21112282.6224  110945802.178 8
  23255788.161    23255787.6704  122209960.968 6
  21803814.411    21803812.9984  114579842.897 7
  22607020.519    22607021.433   120847479.348 7
  22447830.968    22447829.564   119785936.922 6
  19850622.105    19850622.242   106224713.833 8
  21793821.382    21793821.461   116173334.003 7
  21384484.547    21384485.233   114352509.655 6
 20  4  9 20  0 11.0000000  0 16G17G15G01R16R18G28G30R15G13G07G19R05
                                R06R17R14R24
  20624304.114    20624303.6364  108381470.580 8
  22694732.598    22694732.2854  119261630.074 7
  23549268.467    23549268.2174  123752256.262 6
  22175229.411    22175230.043   118456110.943 6
  21916290.961    21916290.716   116990671.247 7
  20909617.374    20909616.4094  109880789.088 8
  21048334.533    21048333.7514  110609740.958 8
  19903282.571    19903282.845   106357124.767 8
  21112371.563    21112371.0094  110946266.625 8
  23256334.097    23256333.6064  122212829.537 6
  21803223.724    21803222.3074  114576738.604 7
  22607654.769    22607655.814   120850869.766 7
  22447872.139    22447870.731   119786156.476 6
  19850395.840    19850396.198   106223504.113 8
  21794216.964    21794216.910   116175441.955 7
  21384932.665    21384933.081   114354904.337 6
 20  4  9 20  0 12.0000000  0 16G17G15G01R16R18G28G30R15G13G07G19R05
                                R06R17R14R24
  20624085.883    20624085.4054  108380323.780 8
  22694619.979    22694619.6664  119261038.517 7
  23549225.407    23549225.1624  123752030.271 6
  22174727.567    22174728.318   118453430.970 6
  21915496.298    21915496.376   116986430.663 7
  20909789.696    20909788.7314  109881694.490 8
  21048652.086    21048651.3044  110611409.820 8
  19903211.358    19903211.709   106356744.289 8
  21112460.080    21112459.5304  110946732.096 8
  23256880.287    23256879.7964  122215698.744 6
  21802633.196    21802631.7794  114573635.063 7
  22608289.140    22608290.265   120854260.851 7
  22447913.745    22447912.245   119786377.175 6
  19850170.045    19850170.304   106222295.655 8
  21794612.326    21794612.545   116177550.464 7
  21385380.736    21385381.365   114357300.119 6
 20  4  9 20  0 13.0000000  0 16G17G15G01R16R18G28G30R15G13G07G19R05
                                R06R17R14R24
  20623867.836    20623867.3584  108379177.871 8
  22694507.626    22694507.3134  119260447.910 7
  23549182.512    23549182.2624  123751805.235 6
  22174226.292    22174226.455   118450751.310 6
  21914702.367    21914702.088   116982190.727 7
  20909962.069    20909961.1044  109882600.374 8
  21048969.763    21048968.9854  110613079.431 8
  19903140.204    19903140.670   106356364.410 8
  21112548.884    21112548.3344  110947198.550 8
  23257426.390    23257425.8994  122218568.562 6
  21802042.715    21802041.2984  114570532.240 7
  22608923.806    22608924.762   120857652.598 7
  22447954.927    22447953.953   119786599.018 6
  19849944.452    19849944.694   106221088.423 8
  21795007.931    21795008.276   116179659.541 7
  21385828.710    21385829.521   114359697.005 6
 20  4  9 20  0 14.0000000  0 16G17G15G01R16R18G28G30R15G13G07G19R05
                                R06R17R14R24
  20623649.844    20623649.3664  108378032.354 8
  22694395.405    22694395.0884  119259857.744 7
  23549139.786    23549139.5364  123751580.658 6
  22173724.755    22173724.692   118448071.510 6
  21913908.159    21913907.800   116977950.909 7
  20910134.515    20910133.5504  109883506.259 8
  21049287.522    21049286.7444  110614749.283 8
  19903069.156    19903069.604   106355984.628 8
  21112637.781    21112637.2274  110947665.503 8
  23257972.586    23257972.0904  122221438.477 6
  21801452.311    21801450.8944  114567429.635 7
  22609558.330    22609559.310   120861044.521 7
  22447996.273    22447995.563   119786821.452 6
  19849719.009    19849719.291   106219881.898 8
  21795403.714    21795404.035   116181768.659 7
  21386276.768    21386277.606   114362094.462 6
 20  4  9 20  0 15.0000000  0 16G17G15G01R16R18G28G30R15G13G07G19R05
                                R06R17R14R24
  20623431.929    20623431.4514  108376887.286 8
  22694283.095    22694282.7824  119259268.086 7
  23549097.184    23549096.9344  123751356.615 6
  22173222.894    22173223.024   118445391.649 6
  21913114.179    21913113.612   116973711.255 7
  20910306.880    20910305.9154  109884412.192 8
  21049605.366    21049604.5884  110616419.435 8
  19902997.978    19902998.594   106355605.019 8
  21112726.752    21112726.1984  110948133.018 8
  23258518.713    23258518.2224  122224308.560 6
  21800862.016    21800860.5994  114564327.301 7
  22610192.937    22610193.926   120864436.647 7
  22448037.695    22448037.350   119787044.582 6
  19849493.843    19849493.942   106218676.140 8
  21795799.553    21795799.795   116183877.875 7
  21386725.132    21386725.738   114364492.562 6
 20  4  9 20  0 16.0000000  0 16G17G15G01R16R18G28G30R15G13G07G19R05
                                R06R17R14R24
  20623214.001    20623213.5234  108375742.356 8
  22694170.820    22694170.5034  119258678.623 7
  23549054.830    23549054.5804  123751132.804 6
  22172721.033    22172721.171   118442711.396 6
  21912319.901    21912319.248   116969471.471 7
  20910479.222    20910478.2574  109885317.852 8
  21049923.252    21049922.4744  110618089.578 8
  19902926.944    19902927.595   106355225.215 8
  21112815.683    21112815.1294  110948600.765 8
  23259064.828    23259064.3374  122227178.507 6
  21800271.550    21800270.1334  114561224.946 7
  22610827.476    22610828.513   120867828.672 7
  22448079.273    22448079.134   119787268.087 6
  19849268.724    19849268.628   106217470.818 8
  21796195.167    21796195.436   116185986.879 7
  21387173.510    21387174.024   114366890.969 6
 20  4  9 20  0 17.0000000  0 16G17G15G01R16R18G28G30R15G13G07G19R05
                                R06R17R14R24
  20622996.285    20622995.8074  108374598.245 8
  22694058.862    22694058.5454  119258090.024 7
  23549012.617    23549012.3674  123750909.857 6
  22172219.428    22172219.536   118440031.406 6
  21911525.695    21911525.164   116965232.249 7
  20910651.628    20910650.6584  109886223.935 8
  21050241.262    21050240.4844  110619760.398 8
  19902855.853    19902856.702   106354845.932 8
  21112904.829    21112904.2754  110949069.425 8
  23259610.985    23259610.4944  122230048.968 6
  21799681.321    21799679.9004  114558123.232 7
  22611462.328    22611463.265   120871221.249 7
  22448121.083    22448121.249   119787492.657 6
  19849043.826    19849043.656   106216266.629 8
  21796591.155    21796591.144   116188096.368 7
  21387622.804    21387622.367   114369290.399 6
 20  4  9 20  0 18.0000000  0 16G17G15G01R16R18G28G30R15G13G07G19R05
                                R06R17R14R24
  20622778.628    20622778.1504  108373454.340 8
  22693946.873    22693946.5564  119257501.699 7
  23548970.351    23548970.1014  123750687.205 6
  22171717.851    22171717.739   118437351.119 6
  21910731.472    21910730.964   116960992.983 7
  20910823.963    20910822.9984  109887129.820 8
  21050559.223    21050558.4454  110621431.282 8
  19902784.749    19902785.751   106354466.568 8
  21112994.075    21112993.5214  110949538.399 8
  23260157.191    23260156.7004  122232919.363 6
  21799091.068    21799089.6514  114555021.559 7
  22612097.350    22612097.780   120874613.781 7
  22448163.523    22448163.318   119787717.684 6
  19848818.880    19848818.743   106215062.958 8
  21796986.852    21796986.887   116190205.737 7
  21388071.192    21388071.135   114371690.227 6
 20  4  9 20  0 19.0000000  0 16G17G15G01R16R18G28G30R15G13G07G19R05
                                R06R17R14R24
  20622561.199    20622560.7214  108372311.539 8
  22693835.116    22693834.7994  119256914.525 7
  23548928.217    23548927.9674  123750465.713 6
  22171216.309    22171216.079   118434671.395 6
  21909937.448    21909936.976   116956754.560 7
  20910996.451    20910995.4864  109888036.393 8
  21050877.363    21050876.5814  110623103.121 8
  19902713.862    19902714.950   106354088.013 8
  21113083.577    21113083.0274  110950008.559 8
  23260703.661    23260703.1704  122235790.566 6
  21798500.991    21798499.5744  114551920.807 7
  22612732.218    22612732.609   120878007.141 7
  22448206.009    22448205.823   119787944.055 6
  19848594.233    19848594.180   106213860.733 8
  21797382.682    21797382.776   116192315.857 7
  21388520.321    21388520.137   114374091.320 6
 20  4  9 20  0 20.0000000  0 16G17G15G01R16R18G28G30R15G13G07G19R05
                                R06R17R14R24
  20622343.821    20622343.3434  108371169.074 8
  22693723.382    22693723.0614  119256327.749 7
  23548886.183    23548885.9294  123750244.634 6
  22170714.720    22170714.225   118431991.477 6
  21909143.650    21909142.954   116952516.213 7
  20911168.982    20911168.0174  109888942.911 8
  21051195.576    21051194.7984  110624775.138 8
  19902643.070    19902644.160   106353709.484 8
  21113173.150    21113172.5964  110950479.158 8
  23261250.136    23261249.6454  122238661.821 6
  21797910.932    21797909.5154  114548820.224 7
  22613367.115    22613367.432   120881400.578 7
  22448248.920    22448248.370   119788171.020 6
  19848369.532    19848369.620   106212659.171 8
  21797778.486    21797778.644   116194425.936 7
  21388969.220    21388969.540   114376492.936 6
 20  4  9 20  0 21.0000000  0 16G17G15G01R16R18G28G30R15G13G07G19R05
                                R06R17R14R24
  20622126.614    20622126.1364  108370027.283 8
  22693611.861    22693611.5404  119255741.695 7
  23548844.122    23548843.8684  123750024.306 6
  22170212.825    22170212.622   118429311.688 6
  21908349.768    21908349.077   116948278.258 7
  20911341.575    20911340.6054  109889849.692 8
  21051513.876    21051513.0984  110626447.687 8
  19902572.296    19902573.357   106353331.340 8
  21113262.839    21113262.2854  110950950.530 8
  23261796.597    23261796.1064  122241533.448 6
  21797321.007    21797319.5864  114545720.144 7
  22614001.843    22614002.247   120884794.437 7
  22448291.968    22448291.085   119788398.902 6
  19848145.026    19848145.217   106211458.586 8
  21798174.436    21798174.456   116196536.342 7
  21389418.456    21389419.176   114378895.413 6
 20  4  9 20  0 22.0000000  0 16G17G15G01R16R18G28G30R15G13G07G19R05
                                R06R17R14R24
  20621909.496    20621909.0234  108368886.238 8
  22693500.363    22693500.0424  119255156.450 7
  23548802.237    23548801.9834  123749804.802 6
  22169711.361    22169711.144   118426632.095 6
  21907556.145    21907555.267   116944040.778 7
  20911514.215    20911513.2504  109890756.826 8
  21051832.207    21051831.4294  110628120.840 8
  19902501.699    19902502.734   106352953.659 8
  21113352.642    21113352.0884  110951422.751 8
  23262343.081    23262342.5854  122244405.534 6
  21796731.230    21796729.8094  114542620.634 7
  22614636.774    22614637.318   120888188.811 7
  22448334.823    22448333.862   119788627.772 6
  19847920.806    19847921.052   106210259.064 8
  21798570.379    21798570.406   116198647.168 7
  21389867.861    21389868.634   114381298.853 6
 20  4  9 20  0 23.0000000  0 16G17G15G01R16R18G28G30R15G13G07G19R05
                                R06R17R14R24
  20621692.387    20621691.9094  108367745.548 8
  22693388.972    22693388.6514  119254571.601 7
  23548760.406    23548760.1524  123749585.739 6
  22169209.820    22169209.563   118423952.296 6
  21906762.394    21906761.439   116939803.364 7
  20911686.816    20911685.8514  109891663.905 8
  21052150.562    21052149.7844  110629794.195 8
  19902431.065    19902432.052   106352576.023 8
  21113442.572    21113442.0184  110951895.415 8
  23262889.620    23262889.1294  122247277.686 6
  21796141.509    21796140.0884  114539521.316 7
  22615272.071    22615272.311   120891583.317 7
  22448377.976    22448376.889   119788857.210 6
  19847696.836    19847696.993   106209060.215 8
  21798966.528    21798966.230   116200758.020 7
  21390316.624    21390318.333   114383702.782 6
 20  4  9 20  0 24.0000000  0 16G17G15G01R16R18G28G30R15G13G07G19R05
                                R06R17R14R24
  20621475.318    20621474.8404  108366605.178 8
  22693277.864    22693277.5434  119253987.135 7
  23548718.792    23548718.5384  123749367.046 6
  22168708.011    22168707.711   118421272.294 6
  21905968.373    21905967.683   116935566.026 7
  20911859.338    20911858.3684  109892570.904 8
  21052468.942    21052468.1644  110631467.728 8
  19902360.574    19902361.362   106352198.398 8
  21113532.643    21113532.0894  110952368.502 8
  23263436.277    23263435.7814  122250149.893 6
  21795551.809    21795550.3884  114536422.143 7
  22615907.093    22615907.257   120894977.917 7
  22448421.366    22448420.029   119789087.246 6
  19847472.939    19847473.066   106207861.991 8
  21799362.458    21799362.172   116202868.858 7
  21390766.287    21390767.796   114386107.211 6
 20  4  9 20  0 25.0000000  0 16G17G15G01R16R18G28G30R15G13G07G19R05
                                R06R17R14R24
  20621258.418    20621257.9404  108365465.631 8
  22693166.918    22693166.5974  119253403.553 7
  23548677.168    23548676.9144  123749149.272 6
  22168206.334    22168206.125   118418592.567 6
  21905174.658    21905173.922   116931329.272 7
  20912031.991    20912031.0264  109893478.316 8
  21052787.506    21052786.7284  110633141.949 8
  19902290.006    19902290.733   106351821.304 8
  21113622.837    21113622.2834  110952842.508 8
  23263982.934    23263982.4384  122253022.614 6
  21794962.253    21794960.8324  114533323.621 7
  22616541.984    22616542.492   120898373.090 7
  22448464.363    22448463.426   119789318.330 6
  19847249.384    19847249.369   106206664.936 8
  21799758.307    21799758.216   116204980.156 7
  21391216.279    21391217.315   114388512.664 6
 20  4  9 20  0 26.0000000  0 16G17G15G01R16R18G28G30R15G13G07G19R05
                                R06R17R14R24
  20621041.707    20621041.2294  108364326.889 8
  22693055.928    22693055.6074  119252820.829 7
  23548635.902    23548635.6434  123748932.366 6
  22167704.098    22167704.409   118415913.140 6
  21904380.917    21904380.254   116927093.091 7
  20912204.702    20912203.7324  109894386.140 8
  21053106.241    21053105.4634  110634816.808 8
  19902219.534    19902220.270   106351444.713 8
  21113713.207    21113712.6534  110953317.420 8
  23264529.580    23264529.0844  122255895.886 6
  21794372.759    21794371.3384  114530225.743 7
  22617177.229    22617177.548   120901768.809 7
  22448507.251    22448506.989   119789550.486 6
  19847025.945    19847025.895   106205469.012 8
  21800154.394    21800154.339   116207091.889 7
  21391666.006    21391666.848   114390919.118 6
 20  4  9 20  0 27.0000000  0 16G17G15G01R16R18G28G30R15G13G07G19R05
                                R06R17R14R24
  20620825.132    20620824.6544  108363188.798 8
  22692945.219    22692944.8984  119252238.814 7
  23548594.721    23548594.4624  123748716.197 6
  22167202.877    22167202.809   118413233.840 6
  21903587.332    21903586.925   116922857.277 7
  20912377.479    20912376.5144  109895294.215 8
  21053425.162    21053424.3844  110636492.196 8
  19902149.267    19902149.944   106351068.480 8
  21113803.720    21113803.1664  110953793.084 8
  23265076.273    23265075.7774  122258769.503 6
  21793783.429    21793782.0034  114527128.346 7
  22617812.972    22617812.857   120905164.902 7
  22448551.427    22448550.895   119789783.539 6
  19846802.748    19846802.694   106204274.067 8
  21800550.587    21800550.582   116209203.913 7
  21392116.330    21392116.589   114393326.422 6
 20  4  9 20  0 28.0000000  0 16G17G15G01R16R18G28G30R15G13G07G19R05
                                R06R17R14R24
  20620608.655    20620608.1774  108362050.941 8
  22692834.482    22692834.1564  119251657.079 7
  23548553.725    23548553.4664  123748500.308 6
  22166701.446    22166700.952   118410554.199 6
  21902793.949    21902793.335   116918621.412 7
  20912550.231    20912549.2664  109896202.122 8
  21053744.059    21053743.2814  110638167.650 8
  19902078.836    19902079.514   106350692.170 8
  21113894.263    21113893.7094  110954269.063 8
  23265623.165    23265622.6694  122261643.054 6
  21793193.999    21793192.5734  114524030.992 7
  22618448.062    22618448.130   120908560.961 7
  22448594.599    22448594.585   119790017.033 6
  19846579.657    19846579.468   106203079.649 8
  21800946.701    21800946.757   116211315.846 7
  21392566.510    21392566.875   114395734.143 6
 20  4  9 20  0 29.0000000  0 16G17G15G01R16R18G28G30R15G13G07G19R05
                                R06R17R14R24
  20620392.189    20620391.7164  108360913.547 8
  22692723.805    22692723.4794  119251075.872 7
  23548512.650    23548512.3914  123748284.974 6
  22166198.998    22166199.335   118407874.497 6
  21902000.232    21901999.891   116914385.721 7
  20912723.019    20912722.0494  109897110.087 8
  21054062.961    21054062.1834  110639843.437 8
  19902008.421    19902008.988   106350316.020 8
  21113984.948    21113984.3944  110954745.614 8
  23266170.066    23266169.5754  122264516.797 6
  21792604.608    21792603.1824  114520933.953 7
  22619083.274    22619083.427   120911957.247 7
  22448638.200    22448638.408   119790251.260 6
  19846356.649    19846356.384   106201886.005 8
  21801342.987    21801342.912   116213427.933 7
  21393017.071    21393017.374   114398142.528 6
 20  4  9 20  0 30.0000000  0 16G17G15G01R16R18G28G30R15G13G07G19R05
                                R06R17R14R24
  20620175.929    20620175.4514  108359776.832 8
  22692613.459    22692613.1334  119250495.408 7
  23548471.930    23548471.6714  123748070.368 6
  22165697.303    22165697.378   118405194.920 6
  21901206.711    21901206.424   116910150.444 7
  20912895.836    20912894.8714  109898018.323 8
  21054381.891    21054381.1094  110641519.746 8
  19901937.938    19901938.641   106349940.258 8
  21114075.784    21114075.2304  110955222.938 8
  23266717.047    23266716.5564  122267390.927 6
  21792015.292    21792013.8664  114517837.410 7
  22619718.262    22619718.773   120915353.991 7
  22448682.319    22448682.597   119790486.372 6
  19846133.597    19846133.563   106200693.369 8
  21801739.227    21801739.264   116215540.342 7
  21393467.856    21393468.212   114400551.740 6
 20  4  9 20  0 31.0000000  0 16G17G15G01R16R18G28G30R15G13G07G19R05
                                R06R17R14R24
  20619959.740    20619959.2624  108358640.736 8
  22692503.275    22692502.9494  119249915.611 7
  23548431.281    23548431.0224  123747856.467 6
  22165194.958    22165195.949   118402515.437 6
  21900413.288    21900413.137   116905915.529 7
  20913068.757    20913067.7924  109898926.781 8
  21054700.930    21054700.1524  110643196.527 8
  19901867.702    19901868.348   106349564.817 8
  21114166.725    21114166.1714  110955700.963 8
  23267263.976    23267263.4854  122270265.420 6
  21791426.041    21791424.6204  114514741.299 7
  22620353.991    22620354.201   120918751.118 7
  22448726.460    22448726.863   119790722.334 6
  19845911.028    19845910.954   106199501.672 8
  21802135.660    21802135.661   116217653.017 7
  21393919.287    21393919.248   114402961.759 6
 20  4  9 20  0 32.0000000  0 16G17G15G01R16R18G28G30R15G13G07G19R05
                                R06R17R14R24
  20619743.637    20619743.1594  108357505.152 8
  22692393.179    22692392.8534  119249336.363 7
  23548390.811    23548390.5524  123747643.164 6
  22164692.888    22164694.425   118399835.928 6
  21899620.050    21899619.853   116901680.894 7
  20913241.653    20913240.6884  109899835.338 8
  21055020.112    21055019.3344  110644873.669 8
  19901797.225    19901798.104   106349189.591 8
  21114257.871    21114257.3174  110956179.615 8
  23267811.039    23267810.5484  122273140.087 6
  21790836.919    21790835.4934  114511645.546 7
  22620989.425    22620989.605   120922148.497 7
  22448771.069    22448771.123   119790959.068 6
  19845688.319    19845688.419   106198310.812 8
  21802532.275    21802532.088   116219765.843 7
  21394369.859    21394370.225   114405372.454 6
 20  4  9 20  0 33.0000000  0 16G17G15G01R16R18G28G30R15G13G07G19R05
                                R06R17R14R24
  20619527.549    20619527.0764  108356369.853 8
  22692283.012    22692282.6824  119248757.461 7
  23548350.199    23548349.9404  123747430.206 6
  22164191.600    22164192.807   118397156.158 6
  21898826.945    21898826.484   116897446.263 7
  20913414.553    20913413.5884  109900743.777 8
  21055339.288    21055338.5104  110646550.940 8
  19901726.843    19901727.831   106348814.337 8
  21114349.097    21114348.5434  110956658.634 8
  23268358.108    23268357.6124  122276014.768 6
  21790247.906    21790246.4804  114508549.896 7
  22621625.057    22621625.027   120925545.877 7
  22448815.386    22448815.525   119791196.307 6
  19845465.728    19845465.857   106197120.535 8
  21802928.754    21802928.582   116221878.593 7
  21394820.292    21394821.187   114407783.589 6
 20  4  9 20  0 34.0000000  0 16G17G15G01R16R18G28G30R15G13G07G19R05
                                R06R17R14R24
  20619311.814    20619311.3414  108355235.976 8
  22692173.029    22692172.7034  119248180.019 7
  23548309.961    23548309.6984  123747218.745 6
  22163690.394    22163691.370   118394477.326 6
  21898034.296    21898033.474   116893212.800 7
  20913587.605    20913586.6404  109901653.237 8
  21055658.688    21055657.9104  110648229.486 8
  19901656.757    19901657.816   106348440.236 8
  21114440.552    21114439.9984  110957139.171 8
  23268905.407    23268904.9164  122278890.583 6
  21789659.027    21789657.6014  114505455.481 7
  22622260.916    22622260.790   120928944.439 7
  22448860.043    22448860.230   119791435.224 6
  19845243.593    19845243.722   106195931.995 8
  21803325.384    21803325.279   116223992.432 7
  21395270.942    21395272.138   114410196.368 6
 20  4  9 20  0 35.0000000  0 16G17G15G01R16R18G28G30R15G13G07G19R05
                                R06R17R14R24
  20619096.152    20619095.6744  108354102.308 8
  22692063.176    22692062.8504  119247602.846 7
  23548269.795    23548269.5324  123747007.571 6
  22163189.051    22163190.005   118391798.099 6
  21897241.294    21897240.386   116888979.274 7
  20913760.635    20913759.6704  109902562.498 8
  21055978.106    21055977.3244  110649908.100 8
  19901586.840    19901587.735   106348066.038 8
  21114532.021    21114531.4674  110957620.020 8
  23269452.528    23269452.0374  122281766.322 6
  21789070.239    21789068.8134  114502361.109 7
  22622896.835    22622896.143   120932342.990 7
  22448904.644    22448904.940   119791674.616 6
  19845021.621    19845021.691   106194744.011 8
  21803722.094    21803721.955   116226106.131 7
  21395722.230    21395723.100   114412609.527 6
 20  4  9 20  0 36.0000000  0 16G17G15G01R16R18G28G30R15G13G07G19R05
                                R06R17R14R24
  20618880.494    20618880.0164  108352968.643 8
  22691953.146    22691952.8164  119247025.740 7
  23548229.525    23548229.2624  123746796.455 6
  22162688.060    22162688.407   118389118.359 6
  21896448.243    21896447.264   116884745.464 7
  20913933.508    20913932.5434  109903471.347 8
  21056297.507    21056296.7294  110651586.566 8
  19901516.757    19901517.644   106347691.535 8
  21114623.497    21114622.9394  110958100.969 8
  23269999.664    23269999.1734  122284641.784 6
  21788481.433    21788480.0074  114499266.584 7
  22623532.646    22623531.853   120935741.276 7
  22448949.817    22448949.782   119791914.230 6
  19844799.583    19844799.783   106193556.349 8
  21804118.327    21804118.522   116228219.477 7
  21396173.782    21396174.073   114415022.880 6
 20  4  9 20  0 37.0000000  0 16G17G15G01R16R18G28G30R15G13G07G19R05
                                R06R17R14R24
  20618664.805    20618664.3274  108351835.520 8
  22691843.407    22691843.0774  119246449.227 7
  23548189.605    23548189.3424  123746585.971 6
  22162186.663    22162186.619   118386438.618 6
  21895655.393    21895654.257   116880511.942 7
  20914106.562    20914105.5974  109904380.332 8
  21056616.939    21056616.1614  110653265.421 8
  19901446.818    19901447.573   106347317.279 8
  21114715.087    21114714.5334  110958582.547 8
  23270546.853    23270546.3624  122287517.502 6
  21787892.716    21787891.2904  114496172.407 7
  22624168.201    22624167.757   120939139.851 7
  22448995.035    22448994.780   119792154.649 6
  19844577.740    19844578.084   106192369.539 8
  21804514.735    21804515.087   116230333.010 7
  21396624.888    21396625.224   114417436.953 6
 20  4  9 20  0 38.0000000  0 16G17G15G01R16R18G28G30R15G13G07G19R05
                                R06R17R14R24
  20618449.398    20618448.9254  108350703.567 8
  22691734.048    22691733.7184  119245873.932 7
  23548149.621    23548149.3584  123746376.731 6
  22161686.187    22161685.018   118383759.498 6
  21894862.469    21894861.358   116876279.334 7
  20914279.686    20914278.7214  109905290.092 8
  21056936.609    21056935.8314  110654945.308 8
  19901377.056    19901377.672   106346943.896 8
  21114806.988    21114806.4344  110959065.407 8
  23271094.104    23271093.6084  122290394.087 6
  21787304.096    21787302.6704  114493079.239 7
  22624803.754    22624803.733   120942539.364 7
  22449040.629    22449040.184   119792396.466 6
  19844356.014    19844356.541   106191184.216 8
  21804911.389    21804911.715   116232447.386 7
  21397076.416    21397076.875   114419852.374 6
 20  4  9 20  0 39.0000000  0 16G17G15G01R16R18G28G30R15G13G07G19R05
                                R06R17R14R24
  20618234.185    20618233.7074  108349572.698 8
  22691624.856    22691624.5304  119245299.793 7
  23548110.149    23548109.8864  123746168.650 6
  22161185.016    22161183.467   118381080.950 6
  21894069.643    21894068.646   116872047.562 7
  20914452.945    20914451.9804  109906200.535 8
  21057256.538    21057255.7604  110656626.134 8
  19901307.471    19901307.963   106346571.289 8
  21114899.143    21114898.5894  110959549.442 8
  23271641.493    23271641.0024  122293271.489 6
  21786715.604    21786714.1744  114489986.995 7
  22625439.586    22625439.924   120945939.694 7
  22449086.565    22449085.785   119792639.630 6
  19844134.876    19844135.307   106190000.277 8
  21805308.041    21805308.410   116234562.500 7
  21397528.415    21397528.861   114422269.094 6
 20  4  9 20  0 40.0000000  0 16G17G15G01R16R18G28G30R15G13G07G19R05
                                R06R17R14R24
  20618019.139    20618018.6614  108348442.564 8
  22691515.788    22691515.4624  119244726.429 7
  23548070.634    23548070.3714  123745961.360 6
  22160683.773    22160682.057   118378402.589 6
  21893276.916    21893276.102   116867816.252 7
  20914626.272    20914625.3024  109907111.294 8
  21057576.572    21057575.7944  110658307.541 8
  19901237.848    19901238.351   106346199.121 8
  21114991.393    21114990.8394  110960034.307 8
  23272189.033    23272188.5424  122296149.320 6
  21786127.197    21786125.7714  114486895.300 7
  22626076.019    22626076.224   120949340.509 7
  22449132.518    22449131.478   119792883.761 6
  19843913.929    19843914.353   106188817.397 8
  21805704.804    21805705.201   116236678.002 7
  21397981.040    21397981.284   114424686.716 6
 20  4  9 20  0 41.0000000  0 16G17G15G01R16R18G28G30R15G13G07G19R05
                                R06R17R14R24
  20617804.038    20617803.5604  108347311.963 8
  22691406.725    22691406.4044  119244152.656 7
  23548031.129    23548030.8614  123745753.684 6
  22160182.030    22160180.490   118375723.240 6
  21892484.124    21892483.266   116863584.216 7
  20914799.430    20914798.4654  109908021.189 8
  21057896.436    21057895.6584  110659988.332 8
  19901167.995    19901168.492   106345826.178 8
  21115083.641    21115083.0874  110960518.807 8
  23272736.503    23272736.0164  122299026.398 6
  21785538.688    21785537.2674  114483802.965 7
  22626711.782    22626712.189   120952740.595 7
  22449178.121    22449177.153   119793127.615 6
  19843692.804    19843693.219   106187634.389 8
  21806101.524    21806101.836   116238792.702 7
  21398432.950    21398433.487   114427104.024 6
 20  4  9 20  0 42.0000000  0 16G17G15G01R16R18G28G30R15G13G07G19R05
                                R06R17R14R24
  20617589.038    20617588.5604  108346181.791 8
  22691297.724    22691297.3984  119243579.362 7
  23547991.714    23547991.4424  123745546.521 6
  22159679.653    22159678.735   118373043.763 6
  21891691.271    21891690.494   116859352.357 7
  20914972.574    20914971.6094  109908931.107 8
  21058216.289    21058215.5114  110661669.409 8
  19901098.158    19901098.709   106345453.369 8
  21115175.876    21115175.3184  110961003.829 8
  23273284.072    23273283.5854  122301903.611 6
  21784950.242    21784948.8164  114480710.914 7
  22627348.049    22627348.287   120956140.869 6
  22449223.587    22449223.113   119793372.159 6
  19843471.868    19843472.188   106186452.132 8
  21806498.256    21806498.497   116240907.478 7
  21398885.268    21398885.825   114429521.965 6
 20  4  9 20  0 43.0000000  0 16G17G15G01R16R18G28G30R15G13G07G19R05
                                R06R17R14R24
  20617374.126    20617373.6484  108345052.468 8
  22691188.922    22691188.5964  119243006.986 7
  23547952.348    23547952.0804  123745340.266 6
  22159177.845    22159177.460   118370364.591 6
  21890898.453    21890897.960   116855121.077 7
  20915145.796    20915144.8264  109909841.461 8
  21058536.307    21058535.5294  110663351.185 8
  19901028.374    19901029.071   106345081.143 8
  21115268.416    21115267.8624  110961489.793 8
  23273831.779    23273831.2924  122304781.393 6
  21784362.028    21784360.6024  114477619.533 7
  22627984.537    22627984.441   120959541.726 6
  22449269.552    22449269.308   119793617.807 6
  19843251.321    19843251.449   106185271.027 8
  21806895.258    21806895.186   116243022.755 7
  21399337.546    21399338.034   114431940.939 6
 20  4  9 20  0 44.0000000  0 16G17G15G01R16R18G28G30R15G13G07G19R05
                                R06R17R14R24
  20617159.373    20617158.8954  108343923.911 8
  22691080.112    22691079.7864  119242435.409 7
  23547913.338    23547913.0664  123745134.875 6
  22158676.510    22158675.889   118367685.677 6
  21890105.625    21890105.317   116850890.318 7
  20915319.176    20915318.2114  109910752.196 8
  21058856.376    21058855.5984  110665033.585 8
  19900958.689    19900959.517   106344709.389 8
  21115361.080    21115360.5264  110961976.628 8
  23274379.616    23274379.1294  122307659.653 6
  21783773.852    21783772.4314  114474528.752 7
  22628621.070    22628620.522   120962943.077 7
  22449315.801    22449315.524   119793864.448 6
  19843030.543    19843030.866   106184091.000 8
  21807292.289    21807292.022   116245138.441 7
  21399790.330    21399790.716   114434360.859 6
 20  4  9 20  0 45.0000000  0 16G17G15G01R16R18G28G30R15G13G07G19R05
                                R06R17R14R24
  20616944.675    20616944.1974  108342795.985 8
  22690971.432    22690971.1064  119241864.526 7
  23547874.379    23547874.1074  123744930.145 6
  22158175.512    22158174.360   118365006.831 6
  21889313.111    21889312.981   116846659.896 7
  20915492.534    20915491.5644  109911663.140 8
  21059176.568    21059175.7864  110666716.464 8
  19900889.308    19900890.108   106344337.943 8
  21115453.786    21115453.2284  110962464.181 8
  23274927.453    23274926.9664  122310538.256 6
  21783185.775    21783184.3544  114471438.418 7
  22629257.209    22629256.731   120966344.830 7
  22449361.920    22449361.961   119794111.943 6
  19842810.192    19842810.638   106182911.915 8
  21807689.259    21807688.958   116247254.408 7
  21400243.722    21400243.221   114436781.587 6
 20  4  9 20  0 46.0000000  0 16G17G15G01R16R18G28G30R15G13G07G19R05
                                R06R17R14R24
  20616730.157    20616729.6794  108341668.958 8
  22690862.940    22690862.6144  119241294.596 7
  23547835.670    23547835.3934  123744726.421 6
  22157674.357    22157673.032   118362328.319 6
  21888520.895    21888520.645   116842430.092 7
  20915665.964    20915664.9944  109912574.590 8
  21059496.914    21059496.1364  110668400.095 8
  19900819.891    19900820.600   106343967.100 8
  21115546.746    21115546.1924  110962952.737 8
  23275475.480    23275474.9984  122313417.472 6
  21782597.844    21782596.4184  114468348.810 7
  22629893.921    22629893.176   120969747.257 7
  22449408.544    22449408.595   119794360.590 6
  19842589.819    19842590.441   106181734.089 8
  21808086.340    21808085.953   116249370.953 7
  21400696.533    21400696.205   114439203.407 6
 20  4  9 20  0 47.0000000  0 16G17G15G01R16R18G28G30R15G13G07G19R05
                                R06R17R14R24
  20616515.810    20616515.3374  108340542.633 8
  22690754.719    22690754.3934  119240725.428 7
  23547796.996    23547796.7194  123744523.463 6
  22157172.190    22157171.914   118359649.991 6
  21887728.617    21887728.419   116838200.742 7
  20915839.508    20915838.5434  109913486.340 8
  21059817.451    21059816.6734  110670084.285 8
  19900750.570    19900751.378   106343596.689 8
  21115639.875    21115639.3214  110963442.084 8
  23276023.639    23276023.1524  122316297.102 6
  21782010.021    21782008.5954  114465259.741 7
  22630530.481    22630529.710   120973150.125 7
  22449455.415    22449455.439   119794610.201 6
  19842369.988    19842370.709   106180557.298 8
  21808483.409    21808483.067   116251487.860 7
  21401149.969    21401149.317   114441626.095 6
 20  4  9 20  0 48.0000000  0 16G17G15G01R16R18G28G30R15G13G07G19R05
                                R06R17R14R24
  20616301.488    20616301.0104  108339416.017 8
  22690646.418    22690646.0924  119240156.017 7
  23547758.337    23547758.0564  123744320.291 6
  22156670.797    22156670.629   118356970.843 6
  21886936.515    21886936.032   116833970.842 7
  20916012.830    20916011.8604  109914397.384 8
  21060137.912    21060137.1344  110671768.022 8
  19900681.206    19900681.922   106343225.666 8
  21115732.958    21115732.4044  110963931.238 8
  23276571.481    23276570.9944  122319176.146 6
  21781422.213    21781420.7924  114462170.207 7
  22631166.862    22631166.319   120976552.431 7
  22449502.172    22449502.084   119794859.731 6
  19842150.146    19842150.765   106179380.512 8
  21808880.294    21808880.020   116253604.098 7
  21401603.150    21401602.312   114444048.653 6
 20  4  9 20  0 49.0000000  0 16G17G15G01R16R18G28G30R15G13G07G19R05
                                R06R17R14R24
  20616087.251    20616086.7734  108338290.010 8
  22690538.233    22690537.9074  119239587.272 7
  23547719.803    23547719.5264  123744117.803 6
  22156168.932    22156169.246   118354291.756 6
  21886144.056    21886143.600   116829741.299 7
  20916186.181    20916185.2114  109915308.620 8
  21060458.398    21060457.6204  110673452.226 8
  19900611.819    19900612.426   106342854.937 8
  21115826.204    21115825.6504  110964421.085 8
  23277119.224    23277118.7374  122322055.519 6
  21780834.352    21780832.9314  114459081.101 7
  22631803.018    22631802.857   120979955.077 7
  22449548.777    22449548.864   119795110.122 6
  19841930.540    19841930.991   106178204.630 8
  21809277.244    21809276.954   116255720.619 7
  21402056.535    21402055.393   114446472.006 6
 20  4  9 20  0 50.0000000  0 16G17G15G01R16R18G28G30R15G13G07G19R05
                                R06R17R14R24
  20615873.142    20615872.6644  108337164.844 8
  22690430.163    22690429.8334  119239019.410 7
  23547681.647    23547681.3704  123743916.216 6
  22155668.080    22155667.664   118351612.980 6
  21885351.767    21885351.268   116825512.368 7
  20916359.667    20916358.6974  109916220.314 8
  21060779.027    21060778.2494  110675137.129 8
  19900542.474    19900543.093   106342484.750 8
  21115919.597    21115919.0434  110964911.877 8
  23277667.070    23277666.5834  122324935.451 6
  21780246.644    21780245.2234  114455992.680 7
  22632439.552    22632439.441   120983358.288 7
  22449596.411    22449595.932   119795361.586 6
  19841710.969    19841711.416   106177029.923 8
  21809674.282    21809673.967   116257837.634 7
  21402509.352    21402509.110   114448896.395 6
 20  4  9 20  0 51.0000000  0 16G17G15G01R16R18G28G30R15G13G07G19R05
                                R06R17R14R24
  20615659.194    20615658.7214  108336040.509 8
  22690322.176    22690321.8464  119238452.449 7
  23547643.471    23547643.1904  123743715.559 6
  22155166.894    22155166.361   118348934.497 6
  21884559.597    21884559.149   116821284.018 7
  20916533.240    20916532.2704  109917132.428 8
  21061099.785    21061099.0074  110676822.712 8
  19900473.281    19900473.947   106342115.106 8
  21116013.199    21116012.6414  110965403.598 8
  23278215.137    23278214.6464  122327815.918 6
  21779659.067    21779657.6414  114452904.919 7
  22633076.259    22633076.139   120986762.086 7
  22449643.861    22449643.284   119795614.124 6
  19841491.779    19841492.112   106175856.360 8
  21810071.450    21810071.259   116259955.128 7
  21402962.857    21402962.758   114451321.781 6
 20  4  9 20  0 52.0000000  0 16G17G15G01R16R18G28G30R15G13G07G19R05
                                R06R17R14R24
  20615445.361    20615444.8834  108334916.657 8
  22690214.326    22690213.9964  119237886.015 7
  23547605.332    23547605.0554  123743515.439 6
  22154665.311    22154664.980   118346255.961 6
  21883767.498    21883767.001   116817055.874 7
  20916706.821    20916705.8514  109918044.617 8
  21061420.574    21061419.7964  110678508.626 8
  19900404.086    19900404.766   106341745.641 8
  21116106.926    21116106.3724  110965895.889 8
  23278763.316    23278762.8254  122330696.576 6
  21779071.555    21779070.1344  114449817.458 7
  22633712.826    22633712.921   120990166.138 7
  22449690.925    22449690.880   119795867.376 6
  19841272.513    19841272.891   106174683.602 8
  21810468.635    21810468.505   116262072.741 7
  21403416.435    21403416.565   114453747.832 6
 20  4  9 20  0 53.0000000  0 16G17G15G01R16R18G28G30R15G13G07G19R05
                                R06R17R14R24
  20615231.632    20615231.1544  108333793.524 8
  22690106.741    22690106.4114  119237320.358 7
  23547567.334    23547567.0574  123743316.110 6
  22154164.006    22154163.584   118343577.622 6
  21882975.370    21882975.016   116812828.181 7
  20916880.463    20916879.4934  109918957.120 8
  21061741.436    21061740.6584  110680195.115 8
  19900335.141    19900335.650   106341376.602 8
  21116200.711    21116200.1574  110966389.004 8
  23279311.580    23279311.0894  122333577.671 6
  21778484.162    21778482.7414  114446730.569 7
  22634350.002    22634349.910   120993570.677 7
  22449738.506    22449738.849   119796121.609 6
  19841053.563    19841053.935   106173511.890 8
  21810865.922    21810865.877   116264190.706 7
  21403870.216    21403870.356   114456174.785 6
 20  4  9 20  0 54.0000000  0 16G17G15G01R16R18G28G30R15G13G07G19R05
                                R06R17R14R24
  20615018.012    20615017.5344  108332671.155 8
  22689999.302    22689998.9764  119236755.530 7
  23547529.551    23547529.2704  123743117.619 6
  22153663.175    22153662.221   118340899.534 6
  21882183.307    21882183.136   116808600.994 7
  20917054.133    20917053.1684  109919869.987 8
  21062062.364    21062061.5864  110681882.223 8
  19900265.986    19900266.653   106341008.039 8
  21116294.731    21116294.1774  110966882.982 8
  23279859.890    23279859.3944  122336459.240 6
  21777896.830    21777895.4134  114443644.266 7
  22634986.926    22634986.910   120996975.749 6
  22449786.594    22449786.905   119796376.823 6
  19840834.755    19840835.143   106172341.259 8
  21811263.276    21811263.467   116266309.091 7
  21404324.347    21404324.244   114458602.711 6
 20  4  9 20  0 55.0000000  0 16G17G15G01R16R18G28G30R15G13G07G19R05
                                R06R17R14R24
  20614804.501    20614804.0234  108331549.014 8
  22689891.957    22689891.6274  119236190.976 7
  23547491.866    23547491.5854  123742919.432 6
  22153161.717    22153160.670   118338221.096 6
  21881391.233    21881391.319   116804373.759 7
  20917227.841    20917226.8714  109920782.677 8
  21062383.320    21062382.5424  110683569.411 8
  19900196.974    19900197.731   106340639.417 8
  21116388.786    21116388.2324  110967377.275 8
  23280408.211    23280407.7154  122339340.757 6
  21777309.536    21777308.1154  114440558.011 7
  22635623.586    22635623.982   121000380.787 7
  22449834.045    22449834.774   119796632.516 6
  19840616.318    19840616.490   106171171.171 8
  21811660.924    21811661.012   116268427.379 7
  21404778.452    21404778.350   114461031.029 6
 20  4  9 20  0 56.0000000  0 16G17G15G01R16R18G28G30R15G13G07G19R05
                                R06R17R14R24
  20614591.084    20614590.6114  108330427.365 8
  22689784.646    22689784.3164  119235626.957 7
  23547454.171    23547453.8904  123742721.812 6
  22152659.996    22152659.180   118335542.642 6
  21880599.399    21880599.406   116800146.765 7
  20917401.564    20917400.5944  109921695.463 8
  21062704.429    21062703.6514  110685256.951 8
  19900127.977    19900128.724   106340270.982 8
  21116482.921    21116482.3634  110967872.162 8
  23280956.600    23280956.1044  122342222.455 7
  21776722.329    21776720.9124  114437472.086 7
  22636260.538    22636261.035   121003786.035 7
  22449882.755    22449882.793   119796888.935 6
  19840397.649    19840397.951   106170001.899 8
  21812058.628    21812058.538   116270545.843 7
  21405232.568    21405232.308   114463460.004 6
 20  4  9 20  0 57.0000000  0 16G17G15G01R16R18G28G30R15G13G07G19R05
                                R06R17R14R24
  20614377.837    20614377.3644  108329306.714 8
  22689677.522    22689677.1924  119235064.009 7
  23547416.825    23547416.5444  123742525.273 6
  22152158.488    22152157.753   118332864.654 6
  21879807.900    21879807.722   116795920.512 7
  20917575.352    20917574.3824  109922608.832 8
  21063025.697    21063024.9244  110686945.326 8
  19900059.211    19900059.855   106339903.240 8
  21116577.309    21116576.7554  110968368.145 8
  23281505.250    23281504.7504  122345104.896 6
  21776135.310    21776133.8934  114434386.997 7
  22636897.691    22636898.333   121007192.024 7
  22449930.753    22449931.018   119797146.615 6
  19840179.414    19840179.698   106168833.953 8
  21812456.417    21812456.197   116272664.988 7
  21405687.485    21405686.717   114465890.207 6
 20  4  9 20  0 58.0000000  0 16G17G15G01R16R18G28G30R15G13G07G19R05
                                R06R17R14R24
  20614164.544    20614164.0664  108328185.918 8
  22689570.371    22689570.0414  119234500.961 7
  23547379.401    23547379.1204  123742328.664 6
  22151657.642    22151656.381   118330185.954 6
  21879016.038    21879015.914   116791693.851 7
  20917749.115    20917748.1454  109923521.663 8
  21063347.036    21063346.2634  110688633.409 8
  19899990.423    19899990.880   106339535.037 8
  21116671.676    21116671.1184  110968864.080 8
  23282053.804    23282053.3044  122347986.913 6
  21775548.207    21775546.7864  114431301.589 7
  22637535.163    22637535.445   121010597.577 7
  22449979.414    22449979.222   119797404.365 6
  19839961.092    19839961.523   106167666.188 8
  21812854.096    21812853.774   116274783.616 7
  21406141.624    21406141.271   114468320.419 6
 20  4  9 20  0 59.0000000  0 16G17G15G01R16R18G28G30R15G13G07G19R05
                                R06R17R14R24
  20613951.348    20613950.8704  108327065.670 8
  22689463.371    22689463.0414  119233938.508 7
  23547342.073    23547341.7874  123742132.666 6
  22151156.168    22151154.872   118327507.253 6
  21878224.116    21878224.093   116787467.474 7
  20917922.869    20917921.8994  109924434.624 8
  21063668.339    21063667.5664  110690321.911 8
  19899921.685    19899921.960   106339167.074 8
  21116766.208    21116765.6504  110969360.658 8
  23282602.227    23282601.7274  122350869.143 6
  21774961.156    21774959.7354  114428216.563 7
  22638172.499    22638172.639   121014003.415 7
  22450027.925    22450027.740   119797662.897 6
  19839742.948    19839743.434   106166499.266 8
  21813251.676    21813251.302   116276902.400 7
  21406595.917    21406596.246   114470751.334 6
 20  4  9 20  1  0.0000000  0 16G17G15G01R16R18G28G30R15G13G07G19R05
                                R06R17R14R24
  20613738.364    20613737.8864  108325946.555 8
  22689356.382    22689356.0474  119233377.258 7
  23547305.085    23547304.7994  123741937.870 6
  22150654.662    22150653.405   118324829.093 6
  21877432.375    21877432.592   116783241.978 7
  20918096.764    20918095.7944  109925348.313 8
  21063989.941    21063989.1684  110692011.385 8
  19899853.045    19899853.292   106338799.968 8
  21116860.984    21116860.4304  110969858.466 8
  23283150.870    23283150.3744  122353752.247 6
  21774374.242    21774372.8214  114425132.500 7
  22638809.696    22638810.098   121017410.153 7
  22450076.706    22450076.514   119797922.807 6
  19839525.244    19839525.772   106165333.803 8
  21813649.289    21813649.091   116279021.980 7
  21407050.750    21407051.527   114473183.583 6
 20  4  9 20  1  1.0000000  0 16G17G15G01R16R18G28G30R15G13G07G19R05
                                R06R17R14R24
  20613525.393    20613524.9154  108324827.830 8
  22689249.655    22689249.3204  119232816.450 7
  23547267.964    23547267.6834  123741743.533 6
  22150152.071    22150151.972   118322150.841 6
  21876640.846    21876641.085   116779016.596 7
  20918270.650    20918269.6804  109926261.984 8
  21064311.538    21064310.7654  110693701.093 8
  19899784.432    19899784.663   106338432.970 8
  21116955.833    21116955.2794  110970356.744 8
  23283699.521    23283699.0214  122356635.460 6
  21773787.308    21773785.8914  114422048.647 7
  22639446.749    22639447.490   121020817.027 7
  22450125.433    22450125.369   119798183.357 6
  19839307.697    19839308.140   106164169.069 8
  21814047.029    21814046.821   116281141.589 7
  21407506.170    21407506.847   114475616.395 6
 20  4  9 20  1  2.0000000  0 16G17G15G01R16R18G28G30R15G13G07G19R05
                                R06R17R14R24
  20613312.532    20613312.0544  108323709.573 8
  22689142.986    22689142.6514  119232256.148 7
  23547231.212    23547230.9314  123741549.775 6
  22149650.775    22149650.445   118319472.547 6
  21875849.401    21875849.595   116774791.446 7
  20918444.589    20918443.6194  109927175.720 8
  21064633.181    21064632.4084  110695391.129 8
  19899715.531    19899715.971   106338066.155 8
  21117050.802    21117050.2484  110970855.598 8
  23284248.281    23284247.7854  122359518.835 6
  21773200.515    21773199.0944  114418965.094 7
  22640084.454    22640084.831   121024224.150 7
  22450174.555    22450174.137   119798444.599 6
  19839090.229    19839090.565   106163005.113 8
  21814444.540    21814444.444   116283261.340 7
  21407960.803    21407961.715   114478049.850 6
 20  4  9 20  1  3.0000000  0 16G17G15G01R16R18G28G30R15G13G07G19R05
                                R06R17R14R24
  20613099.808    20613099.3304  108322592.018 8
  22689036.667    22689036.3324  119231696.612 7
  23547194.531    23547194.2454  123741356.758 6
  22149149.700    22149149.027   118316794.446 6
  21875058.008    21875058.201   116770566.729 7
  20918618.421    20918617.4514  109928089.755 8
  21064954.941    21064954.1724  110697081.714 8
  19899646.963    19899647.424   106337699.729 8
  21117145.857    21117145.2994  110971355.248 8
  23284796.896    23284796.3964  122362402.629 6
  21772613.812    21772612.3954  114415882.072 7
  22640721.763    22640722.290   121027631.710 7
  22450223.827    22450223.296   119798706.787 6
  19838872.850    19838873.269   106161842.156 8
  21814842.470    21814842.184   116285381.478 7
  21408416.195    21408416.781   114480484.183 6
 20  4  9 20  1  4.0000000  0 16G17G15G01R16R18G28G30R15G13G07G19R05
                                R06R17R14R24
  20612887.272    20612886.7944  108321475.003 8
  22688930.421    22688930.0864  119231137.668 7
  23547158.066    23547157.7854  123741164.363 6
  22148648.677    22148647.787   118314116.360 6
  21874266.785    21874266.861   116766342.284 7
  20918792.405    20918791.4354  109929003.913 8
  21065276.815    21065276.0424  110698772.688 8
  19899578.434    19899579.024   106337333.535 8
  21117241.024    21117240.4664  110971855.527 8
  23285345.619    23285345.1234  122365286.650 6
  21772027.170    21772025.7534  114412799.425 7
  22641359.326    22641359.799   121031039.547 7
  22450272.781    22450272.733   119798969.752 6
  19838655.648    19838656.179   106160680.076 8
  21815240.343    21815239.964   116287501.805 7
  21408871.356    21408872.398   114482919.231 6
 20  4  9 20  1  5.0000000  0 16G17G15G01R16R18G28G30R15G13G07G19R05
                                R06R17R14R24
  20612674.755    20612674.2774  108320358.109 8
  22688824.123    22688823.7934  119230578.888 7
  23547121.432    23547121.1514  123740972.179 6
  22148146.855    22148146.438   118311437.823 6
  21873475.522    21873475.447   116762117.706 7
  20918966.265    20918965.2954  109929917.790 8
  21065598.585    21065597.8124  110700463.637 8
  19899510.047    19899510.376   106336967.142 8
  21117336.283    21117335.7294  110972356.029 8
  23285894.404    23285893.9084  122368170.517 6
  21771440.556    21771439.1394  114409716.728 7
  22641996.439    22641997.247   121034447.241 7
  22450322.573    22450321.970   119799233.064 6
  19838438.438    19838438.975   106159518.438 8
  21815637.881    21815637.572   116289621.886 7
  21409326.778    21409327.663   114485354.577 6
 20  4  9 20  1  6.0000000  0 16G17G15G01R16R18G28G30R15G13G07G19R05
                                R06R17R14R24
  20612462.417    20612461.9394  108319242.000 8
  22688717.961    22688717.6264  119230020.961 7
  23547085.000    23547084.7194  123740780.825 6
  22147645.773    22147645.181   118308759.509 6
  21872684.244    21872684.223   116757893.684 7
  20919140.251    20919139.2814  109930832.049 8
  21065920.511    21065919.7384  110702155.225 8
  19899441.481    19899441.972   106336601.247 8
  21117431.651    21117431.0974  110972857.410 8
  23286443.403    23286442.9074  122371054.906 6
  21770854.104    21770852.6834  114406634.659 7
  22642634.066    22642634.840   121037855.467 7
  22450372.660    22450371.514   119799497.397 6
  19838221.567    19838222.113   106158357.904 8
  21816035.535    21816035.277   116291742.395 7
  21409782.081    21409783.248   114487790.881 6
 20  4  9 20  1  7.0000000  0 16G17G15G01R16R18G28G30R15G13G07G19R05
                                R06R17R14R24
  20612250.144    20612249.6664  108318126.883 8
  22688612.070    22688611.7404  119229464.074 7
  23547048.657    23547048.3714  123740590.556 6
  22147144.352    22147143.899   118306081.616 6
  21871893.351    21871893.077   116753670.392 7
  20919314.331    20919313.3614  109931746.885 8
  21066242.618    21066241.8494  110703847.667 8
  19899373.222    19899373.789   106336236.059 8
  21117527.223    21117526.6654  110973359.872 8
  23286992.365    23286991.8694  122373939.981 6
  21770267.633    21770266.2124  114403553.395 7
  22643271.729    22643272.530   121041264.433 7
  22450422.090    22450421.333   119799762.981 6
  19838005.137    19838005.486   106157198.684 8
  21816433.370    21816432.983   116293863.547 7
  21410238.137    21410238.934   114490228.355 6
 20  4  9 20  1  8.0000000  0 16G17G15G01R16R18G28G30R15G13G07G19R05
                                R06R17R14R24
  20612037.930    20612037.4524  108317011.667 8
  22688506.026    22688505.6914  119228907.145 7
  23547012.487    23547012.2014  123740400.255 6
  22146643.061    22146642.133   118303403.065 6
  21871102.046    21871101.854   116749446.715 7
  20919488.323    20919487.3534  109932661.230 8
  21066564.659    21066563.8864  110705539.854 8
  19899304.866    19899305.431   106335870.463 8
  21117622.887    21117622.3294  110973862.342 8
  23287541.256    23287540.7604  122376824.668 6
  21769681.193    21769679.7724  114400471.876 7
  22643909.417    22643910.442   121044673.049 7
  22450472.224    22450471.044   119800028.691 6
  19837788.571    19837788.875   106156039.687 8
  21816831.082    21816830.550   116295984.247 7
  21410694.090    21410694.672   114492665.915 6
 20  4  9 20  1  9.0000000  0 16G17G15G01R16R18G28G30R15G13G07G19R05
                                R06R17R14R24
  20611825.975    20611825.4974  108315897.748 8
  22688400.127    22688399.7924  119228351.567 7
  23546976.682    23546976.4014  123740211.335 6
  22146141.711    22146141.053   118300725.348 6
  21870310.612    21870310.834   116745224.073 7
  20919662.550    20919661.5804  109933576.477 8
  21066886.844    21066886.0714  110707233.191 8
  19899236.711    19899237.164   106335505.866 8
  21117718.768    21117718.2144  110974366.203 8
  23288090.409    23288089.9094  122379710.360 6
  21769094.883    21769093.4624  114397391.484 7
  22644547.471    22644548.298   121048082.743 7
  22450522.478    22450521.073   119800295.933 6
  19837572.292    19837572.620   106154882.342 8
  21817228.955    21817228.365   116298105.919 7
  21411150.285    21411150.747   114495104.943 6
 20  4  9 20  1 10.0000000  0 16G17G15G01R16R18G28G30R15G13G07G19R05
                                R06R17R14R24
  20611614.177    20611613.6994  108314784.462 8
  22688294.492    22688294.1574  119227796.670 7
  23546940.827    23546940.5414  123740023.116 6
  22145640.460    22145639.696   118298047.734 6
  21869519.172    21869519.814   116741001.794 7
  20919836.799    20919835.8294  109934491.941 8
  21067209.158    21067208.3854  110708927.016 8
  19899168.686    19899169.012   106335141.619 8
  21117814.791    21117814.2374  110974870.790 8
  23288639.751    23288639.2554  122382596.373 6
  21768508.824    21768507.4034  114394311.538 7
  22645185.475    22645186.395   121051492.786 7
  22450572.484    22450571.179   119800564.044 6
  19837356.148    19837356.547   106153725.923 8
  21817626.772    21817626.318   116300227.882 7
  21411606.542    21411606.907   114497544.788 6
 20  4  9 20  1 11.0000000  0 16G17G15G01R16R18G28G30R15G13G07G19R05
                                R06R17R14R24
  20611402.475    20611401.9974  108313671.859 8
  22688189.082    22688188.7474  119227242.528 7
  23546905.026    23546904.7454  123739835.657 6
  22145139.008    22145138.375   118295370.290 6
  21868728.083    21868728.955   116736779.974 7
  20920011.004    20920010.0344  109935407.689 8
  21067531.554    21067530.7814  110710621.378 8
  19899100.551    19899100.866   106334777.772 8
  21117910.958    21117910.4004  110975376.163 8
  23289188.949    23289188.4534  122385482.803 6
  21767922.752    21767921.3314  114391232.116 7
  22645823.462    22645824.389   121054903.245 7
  22450622.881    22450621.490   119800833.063 6
  19837140.195    19837140.663   106152570.526 8
  21818024.839    21818024.360   116302350.204 7
  21412063.338    21412063.524   114499985.508 6
 20  4  9 20  1 12.0000000  0 16G17G15G01R16R18G28G30R15G13G07G19R05
                                R06R17R14R24
  20611190.923    20611190.4454  108312559.966 8
  22688083.843    22688083.5084  119226689.136 7
  23546869.417    23546869.1364  123739648.969 6
  22144638.112    22144637.206   118292692.991 6
  21867937.446    21867938.115   116732558.616 7
  20920185.354    20920184.3844  109936323.740 8
  21067854.050    21067853.2774  110712316.292 8
  19899032.521    19899032.855   106334414.313 8
  21118007.298    21118006.7404  110975882.336 8
  23289738.420    23289737.9204  122388369.652 6
  21767336.747    21767335.3264  114388153.235 7
  22646461.572    22646462.537   121058314.127 7
  22450673.736    22450672.026   119801103.025 6
  19836924.423    19836924.959   106151416.149 8
  21818422.957    21818422.623   116304472.884 7
  21412519.978    21412520.208   114502427.119 6
 20  4  9 20  1 13.0000000  0 16G17G15G01R16R18G28G30R15G13G07G19R05
                                R06R17R14R24
  20610979.348    20610978.8704  108311448.190 8
  22687978.627    22687978.2974  119226135.917 7
  23546834.010    23546833.7294  123739462.477 6
  22144136.771    22144135.981   118290015.245 6
  21867146.580    21867147.249   116728337.107 7
  20920359.616    20920358.6464  109937239.490 8
  21068176.593    21068175.8244  110714011.180 8
  19898964.481    19898964.804   106334050.662 8
  21118103.682    21118103.1244  110976388.718 8
  23290287.807    23290287.3074  122391256.323 6
  21766750.742    21766749.3214  114385074.287 7
  22647099.659    22647100.627   121061724.861 7
  22450724.043    22450722.952   119801373.341 6
  19836708.889    19836709.246   106150262.197 8
  21818821.060    21818820.815   116306595.293 7
  21412976.712    21412976.965   114504869.025 6
 20  4  9 20  1 14.0000000  0 16G17G15G01R16R18G28G30R15G13G07G19R05
                                R06R17R14R24
  20610767.819    20610767.3414  108310336.750 8
  22687873.305    22687872.9704  119225583.093 7
  23546798.640    23546798.3544  123739276.387 6
  22143635.269    22143634.641   118287337.274 6
  21866355.956    21866356.443   116724115.668 7
  20920533.885    20920532.9154  109938155.177 8
  21068499.160    21068498.3874  110715706.253 8
  19898896.506    19898896.769   106333687.068 8
  21118200.083    21118199.5294  110976895.530 8
  23290837.249    23290836.7444  122394143.038 6
  21766164.942    21766163.5214  114381995.514 7
  22647737.850    22647738.786   121065135.658 7
  22450774.253    22450773.952   119801644.216 6
  19836493.402    19836493.764   106149108.898 8
  21819219.063    21819218.951   116308717.669 7
  21413433.411    21413433.850   114507311.441 6
 20  4  9 20  1 15.0000000  0 16G17G15G01R16R18G28G30R15G13G07G19R05
                                R06R17R14R24
  20610556.469    20610555.9964  108309226.122 8
  22687768.298    22687767.9634  119225031.130 7
  23546763.217    23546762.9364  123739091.202 6
  22143134.015    22143133.744   118284659.584 6
  21865565.154    21865565.593   116719894.761 7
  20920708.250    20920707.2804  109939071.257 8
  21068821.788    21068821.0194  110717401.979 8
  19898828.370    19898828.873   106333324.015 8
  21118296.699    21118296.1414  110977403.247 8
  23291386.606    23291386.1064  122397030.268 6
  21765579.193    21765577.7764  114378917.370 7
  22648376.067    22648377.017   121068547.048 7
  22450825.131    22450824.893   119801916.155 6
  19836278.080    19836278.456   106147956.721 8
  21819617.374    21819617.271   116310840.542 7
  21413889.876    21413890.729   114509754.841 6
 20  4  9 20  1 16.0000000  0 16G17G15G01R16R18G28G30R15G13G07G19R05
                                R06R17R14R24
  20610345.344    20610344.8664  108308116.672 8
  22687663.419    22687663.0844  119224480.401 7
  23546728.038    23546727.7574  123738907.245 6
  22142633.142    22142632.714   118281982.575 6
  21864774.498    21864774.994   116715674.801 7
  20920882.634    20920881.6644  109939988.111 8
  21069144.688    21069143.9194  110719098.747 8
  19898760.624    19898761.116   106332961.873 8
  21118393.541    21118392.9834  110977912.247 8
  23291936.146    23291935.6414  122399918.406 6
  21764993.689    21764992.2684  114375840.267 7
  22649014.314    22649015.411   121071959.389 7
  22450876.432    22450876.319   119802189.529 6
  19836062.984    19836063.382   106146806.071 8
  21820015.851    21820015.752   116312964.270 7
  21414347.297    21414347.767   114512199.602 6
 20  4  9 20  1 17.0000000  0 16G17G15G01R16R18G28G30R15G13G07G19R05
                                R06R17R14R24
  20610134.279    20610133.8014  108307007.615 8
  22687558.672    22687558.3374  119223930.113 7
  23546693.241    23546692.9644  123738723.778 6
  22142132.440    22142131.364   118279305.424 6
  21863983.879    21863984.482   116711454.949 7
  20921057.032    20921056.0624  109940904.950 8
  21069467.611    21069466.8384  110720795.759 8
  19898692.870    19898693.375   106332599.775 8
  21118490.519    21118489.9654  110978421.732 8
  23292485.655    23292485.1504  122402806.628 6
  21764408.193    21764406.7724  114372763.376 7
  22649652.500    22649653.658   121075371.881 7
  22450927.578    22450927.773   119802463.561 6
  19835848.193    19835848.506   106145656.128 8
  21820414.278    21820414.338   116315088.024 7
  21414803.796    21414805.101   114514644.935 6
 20  4  9 20  1 18.0000000  0 16G17G15G01R16R18G28G30R15G13G07G19R05
                                R06R17R14R24
  20609923.307    20609922.8294  108305898.726 8
  22687453.981    22687453.6464  119223380.058 7
  23546658.465    23546658.1844  123738540.546 6
  22141630.562    22141629.880   118276627.904 6
  21863193.309    21863193.903   116707235.032 7
  20921231.429    20921230.4594  109941821.545 8
  21069790.551    21069789.7784  110722492.790 8
  19898625.015    19898625.545   106332237.509 8
  21118587.533    21118586.9794  110978931.482 8
  23293035.189    23293034.6894  122405694.738 6
  21763822.701    21763821.2804  114369686.492 7
  22650290.297    22650291.870   121078784.271 7
  22450979.121    22450979.102   119802737.999 6
  19835633.415    19835633.578   106144506.667 8
  21820812.779    21820812.778   116317211.586 7
  21415261.489    21415262.222   114517090.582 6
 20  4  9 20  1 19.0000000  0 16G17G15G01R16R18G28G30R15G13G07G19R05
                                R06R17R14R24
  20609712.377    20609711.9044  108304790.594 8
  22687349.466    22687349.1314  119222830.813 7
  23546623.617    23546623.3404  123738358.145 6
  22141129.411    22141128.637   118273950.607 6
  21862403.103    21862403.440   116703015.630 7
  20921405.972    20921405.0024  109942738.492 8
  21070113.636    21070112.8634  110724190.431 8
  19898557.278    19898557.870   106331875.719 8
  21118684.673    21118684.1194  110979442.075 8
  23293584.766    23293584.2614  122408583.316 7
  21763237.338    21763235.9174  114366610.181 7
  22650929.005    22650930.336   121082197.132 7
  22451030.985    22451030.668   119803013.447 6
  19835418.828    19835419.032   106143358.280 8
  21821211.304    21821211.435   116319335.570 7
  21415718.735    21415719.828   114519537.183 6
 20  4  9 20  1 20.0000000  0 16G17G15G01R16R18G28G30R15G13G07G19R05
                                R06R17R14R24
  20609501.546    20609501.0734  108303682.840 8
  22687245.074    22687244.7394  119222281.990 7
  23546589.036    23546588.7644  123738176.197 6
  22140627.977    22140627.297   118271273.114 6
  21861612.523    21861613.095   116698796.352 7
  20921580.513    20921579.5434  109943655.410 8
  21070436.800    21070436.0274  110725888.294 8
  19898489.620    19898490.202   106331514.044 8
  21118781.970    21118781.4164  110979953.144 8
  23294134.516    23294134.0114  122411471.975 7
  21762652.012    21762650.5914  114363534.096 7
  22651567.230    22651568.831   121085610.085 7
  22451082.618    22451082.379   119803289.510 6
  19835204.490    19835204.610   106142210.597 8
  21821609.867    21821610.005   116321459.615 7
  21416175.927    21416177.397   114521984.326 6
 20  4  9 20  1 21.0000000  0 16G17G15G01R16R18G28G30R15G13G07G19R05
                                R06R17R14R24
  20609290.854    20609290.3764  108302575.627 8
  22687140.753    22687140.4184  119221733.772 7
  23546554.646    23546554.3694  123737994.871 6
  22140126.654    22140126.213   118268595.627 6
  21860822.288    21860822.688   116694577.348 7
  20921755.032    20921754.0624  109944572.465 8
  21070759.984    21070759.2154  110727586.561 8
  19898421.928    19898422.476   106331152.621 8
  21118879.312    21118878.7544  110980464.853 8
  23294684.323    23294683.8144  122414360.882 7
  21762066.771    21762065.3504  114360458.381 7
  22652206.295    22652207.170   121089023.300 7
  22451134.443    22451134.179   119803566.372 6
  19834990.120    19834990.246   106141063.792 8
  21822008.516    21822008.509   116323583.877 7
  21416633.587    21416635.382   114524432.203 6
 20  4  9 20  1 22.0000000  0 16G17G15G01R16R18G28G30R15G13G07G19R05
                                R06R17R14R24
  20609080.330    20609079.8524  108301469.217 8
  22687036.596    22687036.2614  119221186.402 7
  23546520.426    23546520.1544  123737814.414 6
  22139624.990    22139625.100   118265918.413 6
  21860032.367    21860032.534   116690358.874 7
  20921929.645    20921928.6754  109945489.920 8
  21071083.232    21071082.4594  110729285.476 8
  19898354.559    19898354.972   106330791.690 8
  21118976.857    21118976.3034  110980977.454 8
  23295234.378    23295233.8694  122417250.323 7
  21761481.612    21761480.1914  114357383.305 7
  22652844.433    22652845.896   121092437.081 7
  22451186.313    22451186.274   119803844.269 6
  19834776.126    19834776.257   106139918.104 8
  21822407.232    21822407.265   116325708.576 7
  21417092.473    21417093.442   114526881.078 6
 20  4  9 20  1 23.0000000  0 16G17G15G01R16R18G28G30R15G13G07G19R05
                                R06R17R14R24
  20608869.906    20608869.4284  108300363.285 8
  22686932.527    22686932.1924  119220639.561 7
  23546486.108    23546485.8404  123737634.489 6
  22139124.077    22139123.960   118263241.154 6
  21859242.248    21859242.254   116686140.617 7
  20922104.331    20922103.3614  109946407.435 8
  21071406.565    21071405.7924  110730984.719 8
  19898287.095    19898287.382   106330430.940 8
  21119074.408    21119073.8544  110981490.631 8
  23295784.347    23295783.8334  122420139.944 7
  21760896.535    21760895.1094  114354308.543 7
  22653483.235    22653484.487   121095851.096 7
  22451238.205    22451238.644   119804122.864 6
  19834562.293    19834562.248   106138773.192 8
  21822805.857    21822805.913   116327833.371 7
  21417550.899    21417551.678   114529330.582 6
 20  4  9 20  1 24.0000000  0 16G17G15G01R16R18G28G30R15G13G07G19R05
                                R06R17R14R24
  20608659.622    20608659.1444  108299258.226 8
  22686828.691    22686828.3564  119220093.663 7
  23546452.048    23546451.7764  123737455.538 6
  22138622.725    22138622.412   118260564.207 6
  21858451.928    21858452.129   116681922.977 7
  20922279.012    20922278.0424  109947325.429 8
  21071730.059    21071729.2864  110732684.699 8
  19898219.795    19898219.988   106330070.775 8
  21119172.225    21119171.6674  110982004.777 8
  23296334.363    23296333.8544  122423030.141 7
  21760311.522    21760310.0964  114351234.483 7
  22654122.218    22654123.171   121099265.774 7
  22451291.011    22451291.036   119804402.569 6
  19834348.696    19834348.493   106137629.487 8
  21823204.507    21823204.651   116329958.708 7
  21418008.969    21418010.036   114531781.164 6
 20  4  9 20  1 25.0000000  0 16G17G15G01R16R18G28G30R15G13G07G19R05
                                R06R17R14R24
  20608449.368    20608448.8904  108298153.534 8
  22686724.860    22686724.5254  119219548.179 7
  23546418.102    23546417.8304  123737277.032 6
  22138122.165    22138121.521   118257887.117 6
  21857661.889    21857661.965   116677705.469 7
  20922453.732    20922452.7624  109948243.383 8
  21072053.598    21072052.8294  110734384.895 8
  19898152.445    19898152.640   106329710.669 8
  21119270.148    21119269.5944  110982519.380 8
  23296884.354    23296883.8404  122425920.434 6
  21759726.536    21759725.1104  114348160.620 7
  22654761.054    22654761.834   121102680.559 7
  22451343.768    22451343.495   119804682.875 6
  19834135.016    19834134.958   106136486.514 8
  21823603.402    21823603.442   116332084.054 7
  21418467.347    21418468.317   114534232.263 6
 20  4  9 20  1 26.0000000  0 16G17G15G01R16R18G28G30R15G13G07G19R05
                                R06R17R14R24
  20608239.135    20608238.6574  108297049.036 8
  22686621.025    22686620.6904  119219002.944 7
  23546384.166    23546383.8984  123737098.789 6
  22137621.485    22137620.248   118255209.676 6
  21856871.663    21856871.879   116673487.909 7
  20922628.345    20922627.3754  109949161.122 8
  21072377.138    21072376.3694  110736085.131 8
  19898085.031    19898085.239   106329350.459 8
  21119368.167    21119367.6134  110983034.276 8
  23297434.187    23297433.6694  122428810.612 6
  21759141.582    21759140.1564  114345086.792 7
  22655400.411    22655400.601   121106095.233 7
  22451396.303    22451395.970   119804963.603 6
  19833921.490    19833921.425   106135344.056 8
  21824002.128    21824002.163   116334209.237 7
  21418925.867    21418926.632   114536683.710 6
 20  4  9 20  1 27.0000000  0 16G17G15G01R16R18G28G30R15G13G07G19R05
                                R06R17R14R24
  20608028.955    20608028.4824  108295944.707 8
  22686517.342    22686517.0034  119218457.925 7
  23546350.178    23546349.9154  123736920.773 6
  22137120.225    22137118.873   118252531.872 6
  21856081.274    21856081.687   116669270.275 7
  20922802.914    20922801.9444  109950078.624 8
  21072700.759    21072699.9904  110737785.384 8
  19898017.691    19898017.813   106328990.115 8
  21119466.178    21119465.6244  110983549.434 8
  23297984.084    23297983.5664  122431700.672 6
  21758556.628    21758555.2074  114342012.962 7
  22656039.385    22656039.329   121109509.795 7
  22451449.541    22451448.920   119805244.702 6
  19833707.913    19833707.942   106134202.042 8
  21824400.612    21824400.832   116336334.244 7
  21419384.014    21419385.015   114539135.472 6
 20  4  9 20  1 28.0000000  0 16G17G15G01R16R18G28G30R15G13G07G19R05
                                R06R17R14R24
  20607818.862    20607818.3894  108294840.858 8
  22686413.777    22686413.4384  119217913.442 7
  23546316.409    23546316.1464  123736743.310 6
  22136618.700    22136617.435   118249853.995 6
  21855291.016    21855291.574   116665052.844 7
  20922977.524    20922976.5544  109950996.211 8
  21073024.361    21073023.5924  110739485.964 8
  19897950.476    19897950.462   106328629.931 8
  21119564.240    21119563.6824  110984065.166 8
  23298533.947    23298533.4244  122434590.928 6
  21757971.692    21757970.2664  114338939.431 7
  22656678.456    22656678.204   121112924.569 7
  22451502.121    22451501.843   119805526.504 6
  19833494.569    19833494.678   106133060.803 8
  21824799.051    21824799.438   116338459.397 7
  21419842.882    21419843.402   114541587.908 6
 20  4  9 20  1 29.0000000  0 16G17G15G01R16R18G28G30R15G13G07G19R05
                                R06R17R14R24
  20607609.064    20607608.5914  108293738.302 8
  22686310.520    22686310.1854  119217370.305 7
  23546282.862    23546282.5994  123736567.234 6
  22136116.727    22136116.267   118247176.869 6
  21854500.841    21854501.736   116660836.438 7
  20923152.282    20923151.3124  109951914.670 8
  21073348.203    21073347.4344  110741187.702 8
  19897883.325    19897883.336   106328270.750 8
  21119662.606    21119662.0524  110984582.286 8
  23299084.116    23299083.5894  122437482.192 6
  21757386.986    21757385.5654  114335867.035 7
  22657317.536    22657317.277   121116340.392 7
  22451554.975    22451554.945   119805809.839 6
  19833281.455    19833281.831   106131921.194 8
  21825197.796    21825198.259   116340585.526 7
  21420301.691    21420302.206   114544041.824 6
 20  4  9 20  1 30.0000000  0 16G17G15G01R16R18G28G30R15G13G07G19R05
                                R06R17R14R24
  20607399.451    20607398.9784  108292636.739 8
  22686207.383    22686207.0444  119216828.218 7
  23546249.765    23546249.5064  123736392.221 6
  22135615.901    22135615.099   118244500.185 6
  21853711.418    21853711.965   116656620.790 7
  20923327.167    20923326.1974  109952833.724 8
  21073672.143    21073671.3704  110742890.271 8
  19897816.047    19897816.242   106327912.295 8
  21119761.251    21119760.6974  110985100.501 8
  23299634.372    23299633.8454  122440374.164 6
  21756802.407    21756800.9814  114332795.465 7
  22657956.683    22657956.520   121119756.969 7
  22451608.257    22451608.044   119806094.435 6
  19833068.877    19833069.101   106130782.952 8
  21825596.583    21825597.140   116342712.293 7
  21420760.115    21420760.939   114546496.921 6
 20  4  9 20  1 31.0000000  0 16G17G15G01R16R18G28G30R15G13G07G19R05
                                R06R17R14R24
  20607189.967    20607189.4894  108291536.002 8
  22686104.281    22686103.9424  119216287.012 7
  23546216.586    23546216.3234  123736218.093 6
  22135114.697    22135114.089   118241823.797 6
  21852921.693    21852922.428   116652405.736 7
  20923502.148    20923501.1744  109953753.196 8
  21073996.224    21073995.4554  110744593.516 8
  19897749.119    19897749.288   106327554.377 8
  21119860.101    21119859.5474  110985619.622 8
  23300184.597    23300184.0654  122443266.659 6
  21756218.107    21756216.6864  114329724.541 7
  22658596.046    22658595.698   121123174.129 7
  22451661.671    22451661.385   119806380.074 6
  19832856.390    19832856.635   106129645.884 8
  21825995.456    21825996.110   116344839.510 7
  21421219.137    21421220.236   114548953.043 6
 20  4  9 20  1 32.0000000  0 16G17G15G01R16R18G28G30R15G13G07G19R05
                                R06R17R14R24
  20606980.595    20606980.1224  108290435.325 8
  22686001.314    22686000.9754  119215745.913 7
  23546183.505    23546183.2424  123736044.117 6
  22134613.454    22134613.192   118239146.961 6
  21852132.090    21852132.883   116648190.485 7
  20923677.007    20923676.0374  109954672.301 8
  21074320.339    21074319.5704  110746296.682 8
  19897682.107    19897682.245   106327196.207 8
  21119958.902    21119958.3444  110986138.915 8
  23300735.027    23300734.5004  122446158.925 6
  21755633.805    21755632.3844  114326653.531 7
  22659235.281    22659234.957   121126591.076 7
  22451715.449    22451714.737   119806666.016 6
  19832643.841    19832644.212   106128509.167 8
  21826394.532    21826394.980   116346966.429 7
  21421678.705    21421679.821   114551409.388 6
 20  4  9 20  1 33.0000000  0 16G17G15G01R16R18G28G30R15G13G07G19R05
                                R06R17R14R24
  20606771.340    20606770.8624  108289335.217 8
  22685898.435    22685898.0964  119215205.435 7
  23546150.670    23546150.4114  123735870.781 6
  22134111.889    22134112.022   118236470.161 6
  21851342.699    21851343.325   116643975.520 7
  20923851.917    20923850.9474  109955591.554 8
  21074644.509    21074643.7404  110748000.257 8
  19897615.034    19897615.208   106326838.282 8
  21120057.854    21120057.2964  110986658.855 8
  23301285.474    23301284.9474  122449051.462 6
  21755049.479    21755048.0584  114323582.906 7
  22659874.208    22659874.167   121130008.315 7
  22451769.482    22451768.477   119806952.763 6
  19832431.625    19832431.891   106127373.292 8
  21826793.750    21826793.854   116349093.582 7
  21422138.777    21422139.384   114553866.480 6
 20  4  9 20  1 34.0000000  0 16G17G15G01R16R18G28G30R15G13G07G19R05
                                R06R17R14R24
  20606562.035    20606561.5624  108288235.408 8
  22685795.635    22685795.2964  119214665.314 7
  23546117.831    23546117.5774  123735697.794 6
  22133610.587    22133610.764   118233793.114 6
  21850553.118    21850553.763   116639760.565 7
  20924026.777    20924025.8034  109956510.696 8
  21074968.759    21074967.9954  110749703.981 8
  19897548.127    19897548.252   106326480.358 8
  21120156.875    21120156.3174  110987179.196 8
  23301835.947    23301835.4204  122451944.013 6
  21754465.205    21754463.7844  114320512.418 7
  22660513.497    22660513.316   121133425.569 6
  22451823.843    22451822.242   119807240.075 6
  19832219.528    19832219.755   106126238.022 8
  21827192.600    21827192.742   116351220.717 7
  21422598.825    21422599.132   114556324.020 6
 20  4  9 20  1 35.0000000  0 16G17G15G01R16R18G28G30R15G13G07G19R05
                                R06R17R14R24
  20606352.842    20606352.3694  108287135.839 8
  22685692.919    22685692.5804  119214125.480 7
  23546085.090    23546084.8314  123735525.129 6
  22133109.362    22133109.479   118231115.789 6
  21849763.687    21849764.211   116635545.572 7
  20924201.649    20924200.6794  109957429.686 8
  21075293.008    21075292.2444  110751407.802 8
  19897481.111    19897481.250   106326122.392 8
  21120255.967    21120255.4094  110987699.872 8
  23302386.321    23302385.7944  122454836.511 6
  21753880.983    21753879.5574  114317441.998 7
  22661152.826    22661152.514   121136842.793 6
  22451876.970    22451876.023   119807527.883 6
  19832007.447    19832007.721   106125103.334 8
  21827591.661    21827591.644   116353347.759 7
  21423058.710    21423059.205   114558781.961 6
 20  4  9 20  1 36.0000000  0 16G17G15G01R16R18G28G30R15G13G07G19R05
                                R06R17R14R24
  20606143.735    20606143.2624  108286037.215 8
  22685590.401    22685590.0624  119213586.659 7
  23546052.451    23546052.1924  123735353.509 6
  22132608.853    22132608.290   118228438.854 6
  21848974.026    21848974.772   116631331.289 7
  20924376.572    20924375.5984  109958349.215 8
  21075617.429    21075616.6604  110753112.435 8
  19897414.174    19897414.368   106325765.098 8
  21120355.147    21120354.5894  110988221.596 8
  23302936.978    23302936.4514  122457729.677 6
  21753296.868    21753295.4424  114314372.370 7
  22661792.207    22661791.813   121140260.710 7
  22451930.929    22451930.358   119807816.864 6
  19831795.497    19831795.864   106123969.949 8
  21827990.773    21827990.781   116355475.387 7
  21423518.258    21423519.116   114561241.009 6
 20  4  9 20  1 37.0000000  0 16G17G15G01R16R18G28G30R15G13G07G19R05
                                R06R17R14R24
  20605934.701    20605934.2234  108284938.662 8
  22685487.862    22685487.5234  119213047.958 7
  23546019.635    23546019.3764  123735182.009 6
  22132107.895    22132107.238   118225761.435 6
  21848184.714    21848185.390   116627116.823 7
  20924551.403    20924550.4334  109959268.394 8
  21075941.853    21075941.0894  110754816.962 8
  19897347.419    19897347.574   106325407.550 8
  21120454.454    21120453.8964  110988743.472 8
  23303487.660    23303487.1334  122460622.612 6
  21752712.747    21752711.3264  114311302.635 7
  22662431.807    22662431.275   121143678.430 7
  22451984.742    22451984.405   119808106.152 6
  19831583.868    19831584.225   106122836.933 8
  21828389.974    21828389.916   116357602.697 7
  21423977.755    21423979.141   114563700.295 6
 20  4  9 20  1 38.0000000  0 16G17G15G01R16R18G28G30R15G13G07G19R05
                                R06R17R14R24
  20605725.797    20605725.3244  108283841.161 8
  22685385.562    22685385.2234  119212510.364 7
  23545987.352    23545987.0934  123735011.657 6
  22131606.477    22131605.904   118223084.539 6
  21847395.413    21847396.007   116622903.193 7
  20924726.450    20924725.4764  109960188.232 8
  21076266.444    21076265.6804  110756522.409 8
  19897280.551    19897280.679   106325050.748 8
  21120553.963    21120553.4054  110989266.508 8
  23304038.539    23304038.0124  122463516.321 7
  21752128.718    21752127.2924  114308233.788 7
  22663071.016    22663070.656   121147096.947 7
  22452038.795    22452038.758   119808396.739 6
  19831372.422    19831372.656   106121705.267 8
  21828789.300    21828789.206   116359730.709 7
  21424437.263    21424438.946   114566160.827 6
 20  4  9 20  1 39.0000000  0 16G17G15G01R16R18G28G30R15G13G07G19R05
                                R06R17R14R24
  20605517.202    20605516.7294  108282745.145 8
  22685283.543    22685283.2044  119211974.310 7
  23545955.007    23545954.7484  123734842.862 6
  22131105.366    22131105.000   118220408.626 6
  21846606.464    21846606.890   116618690.833 7
  20924901.702    20924900.7284  109961109.158 8
  21076591.215    21076590.4464  110758229.198 8
  19897214.068    19897214.167   106324695.169 8
  21120653.785    21120653.2274  110989791.120 8
  23304589.471    23304588.9444  122466411.222 7
  21751545.080    21751543.6594  114305166.258 7
  22663710.894    22663710.409   121150516.731 7
  22452093.806    22452093.472   119808689.066 6
  19831161.349    19831161.580   106120575.434 8
  21829188.840    21829188.798   116361859.895 7
  21424897.382    21424899.128   114568623.050 6
 20  4  9 20  1 40.0000000  0 16G17G15G01R16R18G28G30R15G13G07G19R05
                                R06R17R14R24
  20605308.825    20605308.3524  108281649.923 8
  22685181.657    22685181.3184  119211439.102 7
  23545922.999    23545922.7404  123734674.917 6
  22130604.230    22130604.102   118217732.986 6
  21845817.801    21845817.876   116614478.990 7
  20925076.977    20925076.0034  109962030.467 8
  21076916.091    21076915.3274  110759936.624 8
  19897147.672    19897147.741   106324340.105 8
  21120753.842    21120753.2844  110990316.619 8
  23305140.580    23305140.0534  122469306.603 7
  21750961.376    21750959.9554  114302099.358 7
  22664350.657    22664350.169   121153937.022 7
  22452148.919    22452148.544   119808982.425 6
  19830950.437    19830950.649   106119446.728 8
  21829588.480    21829588.499   116363989.550 7
  21425357.807    21425359.477   114571086.262 6
 20  4  9 20  1 41.0000000  0 16G17G15G01R16R18G28G30R15G13G07G19R05
                                R06R17R14R24
  20605100.585    20605100.1074  108280555.463 8
  22685080.009    22685079.6704  119210904.707 7
  23545891.217    23545890.9584  123734507.839 6
  22130103.276    22130103.220   118215057.567 6
  21845028.762    21845028.918   116610267.656 7
  20925252.396    20925251.4264  109962952.132 8
  21077241.152    21077240.3884  110761644.664 8
  19897081.362    19897081.406   106323985.509 8
  21120853.993    21120853.4354  110990842.978 8
  23305691.813    23305691.2814  122472202.483 7
  21750377.864    21750376.4434  114299033.047 7
  22664990.915    22664990.038   121157357.829 7
  22452203.628    22452203.874   119809276.804 6
  19830739.562    19830739.962   106118319.141 8
  21829988.173    21829988.317   116366119.646 7
  21425818.496    21425819.976   114573550.404 6
 20  4  9 20  1 42.0000000  0 16G17G15G01R16R18G28G30R15G13G07G19R05
                                R06R17R14R24
  20604892.304    20604891.8314  108279460.847 8
  22684978.337    22684977.9984  119210370.223 7
  23545859.214    23545858.9554  123734340.658 6
  22129602.279    22129602.273   118212381.435 6
  21844239.658    21844239.856   116606055.897 7
  20925427.641    20925426.6714  109963873.242 8
  21077566.123    21077565.3544  110763352.408 8
  19897014.972    19897014.931   106323630.417 8
  21120954.204    21120953.6504  110991369.278 8
  23306242.763    23306242.2314  122475097.915 7
  21749794.325    21749792.9084  114295966.434 7
  22665630.846    22665629.837   121160778.198 7
  22452259.259    22452259.178   119809571.243 6
  19830528.767    19830529.286   106117191.693 8
  21830387.653    21830387.982   116368249.206 7
  21426279.566    21426280.740   114576014.567 6
 20  4  9 20  1 43.0000000  0 16G17G15G01R16R18G28G30R15G13G07G19R05
                                R06R17R14R24
  20604684.008    20604683.5354  108278366.258 8
  22684876.683    22684876.3444  119209835.810 7
  23545827.389    23545827.1304  123734173.588 6
  22129101.431    22129101.096   118209704.760 6
  21843450.564    21843450.737   116601843.910 7
  20925602.892    20925601.9184  109964793.961 8
  21077891.105    21077890.3414  110765060.019 8
  19896948.344    19896948.400   106323275.012 8
  21121054.419    21121053.8614  110991895.693 8
  23306793.581    23306793.0494  122477993.073 6
  21749210.722    21749209.3014  114292899.666 7
  22666270.532    22666269.679   121164198.310 7
  22452314.508    22452314.307   119809865.921 6
  19830318.179    19830318.612   106116064.576 8
  21830787.342    21830787.501   116370378.397 7
  21426740.302    21426741.588   114578478.897 6
 20  4  9 20  1 44.0000000  0 16G17G15G01R16R18G28G30R15G13G07G19R05
                                R06R17R14R24
  20604475.809    20604475.3314  108277272.417 8
  22684775.216    22684774.8724  119209302.202 7
  23545795.820    23545795.5614  123734007.342 6
  22128600.708    22128600.131   118207028.287 6
  21842661.382    21842661.760   116597632.428 7
  20925778.136    20925777.1664  109965715.034 8
  21078216.222    21078215.4584  110766768.231 8
  19896881.956    19896881.979   106322920.097 8
  21121154.774    21121154.2204  110992422.954 8
  23307344.577    23307344.0414  122480888.698 6
  21748627.236    21748625.8154  114289833.499 7
  22666909.665    22666909.560   121167618.930 7
  22452369.508    22452369.451   119810161.591 6
  19830107.741    19830108.115   106114938.534 8
  21831187.024    21831187.121   116372507.988 7
  21427201.193    21427202.617   114580944.150 6
 20  4  9 20  1 45.0000000  0 16G17G15G01R16R18G28G30R15G13G07G19R05
                                R06R17R14R24
  20604267.855    20604267.3774  108276179.379 8
  22684673.759    22684673.4204  119208769.447 7
  23545764.189    23545763.9304  123733841.964 6
  22128099.435    22128099.051   118204352.130 6
  21841872.384    21841872.922   116593421.485 7
  20925953.528    20925952.5584  109966636.501 8
  21078541.445    21078540.6814  110768477.102 8
  19896815.484    19896815.652   106322565.716 8
  21121255.353    21121254.7954  110992951.112 8
  23307895.804    23307895.2684  122483784.847 6
  21748043.819    21748042.4024  114286767.942 7
  22667549.812    22667549.276   121171040.106 7
  22452424.682    22452424.968   119810458.278 6
  19829897.583    19829897.838   106113813.654 8
  21831586.691    21831586.792   116374638.040 8
  21427663.220    21427663.848   114583410.358 6
 20  4  9 20  1 46.0000000  0 16G17G15G01R16R18G28G30R15G13G07G19R05
                                R06R17R14R24
  20604059.930    20604059.4524  108275086.675 8
  22684572.399    22684572.0554  119208237.094 7
  23545732.865    23545732.6114  123733677.001 6
  22127598.021    22127597.933   118201675.778 6
  21841083.526    21841084.033   116589210.620 7
  20926128.933    20926127.9634  109967557.890 8
  21078866.580    21078865.8114  110770186.159 8
  19896749.149    19896749.360   106322211.389 8
  21121355.849    21121355.2914  110993479.701 8
  23308446.823    23308446.2874  122486681.023 6
  21747460.544    21747459.1274  114283702.573 7
  22668189.816    22668189.356   121174461.350 7
  22452480.251    22452480.451   119810755.555 6
  19829687.480    19829687.801   106112689.406 8
  21831986.362    21831986.446   116376768.107 8
  21428124.940    21428125.355   114585877.064 6
 20  4  9 20  1 47.0000000  0 16G17G15G01R16R18G28G30R15G13G07G19R05
                                R06R17R14R24
  20603852.113    20603851.6404  108273994.351 8
  22684471.256    22684470.9124  119207705.148 7
  23545701.539    23545701.2854  123733512.476 6
  22127096.830    22127096.741   118198999.242 6
  21840294.716    21840295.240   116584999.891 7
  20926304.267    20926303.2974  109968479.244 8
  21079191.761    21079190.9974  110771895.432 8
  19896682.853    19896683.060   106321857.112 8
  21121456.490    21121455.9324  110994008.760 8
  23308997.764    23308997.2284  122489577.292 6
  21746877.307    21746875.8864  114280637.412 7
  22668830.186    22668829.273   121177882.689 7
  22452536.166    22452536.391   119811053.427 6
  19829477.581    19829477.810   106111565.830 8
  21832385.759    21832386.045   116378898.220 8
  21428586.637    21428587.274   114588344.332 6
 20  4  9 20  1 48.0000000  0 16G17G15G01R16R18G28G30R15G13G07G19R05
                                R06R17R14R24
  20603644.437    20603643.9644  108272903.014 8
  22684370.335    22684369.9914  119207174.253 7
  23545670.630    23545670.3764  123733349.018 6
  22126595.764    22126595.895   118196323.174 6
  21839505.915    21839506.466   116580789.899 7
  20926479.744    20926478.7704  109969401.196 8
  21079517.140    21079516.3714  110773605.559 8
  19896616.538    19896616.837   106321503.494 8
  21121557.344    21121556.7864  110994538.905 8
  23309549.048    23309548.5124  122492474.259 6
  21746294.127    21746292.7104  114277573.070 7
  22669470.169    22669469.612   121181304.741 7
  22452591.957    22452592.589   119811352.544 6
  19829267.841    19829268.111   106110443.564 8
  21832785.373    21832785.797   116381028.994 7
  21429048.536    21429048.989   114590812.780 6
 20  4  9 20  1 49.0000000  0 16G17G15G01R16R18G28G30R15G13G07G19R05
                                R06R17R14R24
  20603436.898    20603436.4254  108271812.388 8
  22684269.462    22684269.1184  119206644.120 7
  23545639.733    23545639.4744  123733186.359 6
  22126095.127    22126094.978   118193647.264 6
  21838717.259    21838717.863   116576580.354 7
  20926655.164    20926654.1904  109970323.425 8
  21079842.617    21079841.8484  110775316.226 8
  19896550.470    19896550.755   106321150.291 8
  21121658.396    21121657.8384  110995069.839 8
  23310100.481    23310099.9454  122495371.653 6
  21745711.159    21745709.7384  114274509.256 7
  22670110.024    22670109.737   121184727.245 7
  22452648.308    22452648.733   119811652.619 6
  19829058.377    19829058.552   106109322.355 8
  21833185.125    21833185.470   116383160.123 7
  21429510.215    21429510.818   114593282.089 6
 20  4  9 20  1 50.0000000  0 16G17G15G01R16R18G28G30R15G13G07G19R05
                                R06R17R14R24
  20603229.359    20603228.8864  108270721.949 8
  22684168.676    22684168.3284  119206114.213 7
  23545608.846    23545608.5924  123733023.948 6
  22125594.151    22125594.033   118190970.958 6
  21837928.715    21837929.249   116572370.729 7
  20926830.672    20926829.7024  109971245.464 8
  21080168.144    21080167.3754  110777026.943 8
  19896484.486    19896484.648   106320797.023 8
  21121759.527    21121758.9694  110995601.059 8
  23310651.732    23310651.1964  122498268.917 6
  21745128.130    21745126.7094  114271445.479 7
  22670750.238    22670750.080   121188149.648 7
  22452704.252    22452704.948   119811953.098 6
  19828848.862    19828849.125   106108201.656 8
  21833584.960    21833585.118   116385291.069 7
  21429971.720    21429972.345   114595751.763 6
 20  4  9 20  1 51.0000000  0 16G17G15G01R16R18G28G30R15G13G07G19R05
                                R06R17R14R24
  20603021.881    20603021.4084  108269631.867 8
  22684068.038    22684067.6904  119205584.729 7
  23545577.842    23545577.5834  123732861.977 6
  22125093.465    22125092.968   118188294.482 6
  21837140.046    21837140.588   116568161.222 7
  20927006.111    20927005.1374  109972167.446 8
  21080493.735    21080492.9664  110778737.869 8
  19896418.420    19896418.498   106320443.843 8
  21121860.722    21121860.1644  110996132.744 8
  23311203.034    23311202.5024  122501166.272 6
  21744545.087    21744543.6704  114268381.890 7
  22671390.204    22671390.370   121191572.151 7
  22452761.197    22452761.240   119812254.169 6
  19828639.376    19828639.753   106107081.631 8
  21833984.446    21833984.593   116387421.993 7
  21430433.933    21430434.177   114598221.974 6
 20  4  9 20  1 52.0000000  0 16G17G15G01R16R18G28G30R15G13G07G19R05
                                R06R17R14R24
  20602814.538    20602814.0654  108268542.613 8
  22683967.461    22683967.1134  119205056.125 7
  23545547.276    23545547.0134  123732700.915 6
  22124592.816    22124591.955   118185618.336 6
  21836351.661    21836352.084   116563952.311 7
  20927181.602    20927180.6284  109973089.846 8
  21080819.433    21080818.6644  110780449.472 8
  19896352.393    19896352.528   106320091.158 8
  21121962.069    21121961.5114  110996665.345 8
  23311754.548    23311754.0124  122504064.148 6
  21743962.188    21743960.7674  114265318.955 7
  22672030.515    22672030.698   121194995.235 7
  22452818.091    22452817.913   119812556.277 6
  19828430.157    19828430.692   106105962.759 8
  21834384.019    21834384.124   116389553.390 7
  21430896.031    21430895.997   114600693.170 6
 20  4  9 20  1 53.0000000  0 16G17G15G01R16R18G28G30R15G13G07G19R05
                                R06R17R14R24
  20602607.309    20602606.8364  108267453.716 8
  22683867.041    22683866.6884  119204527.932 7
  23545516.907    23545516.6484  123732540.259 6
  22124092.240    22124090.957   118182942.022 6
  21835563.038    21835563.507   116559743.500 7
  20927357.088    20927356.1144  109974012.193 8
  21081145.156    21081144.3874  110782161.289 8
  19896286.474    19896286.512   106319738.514 8
  21122063.547    21122062.9894  110997198.404 8
  23312305.996    23312305.4644  122506962.109 6
  21743379.421    21743378.0044  114262256.224 7
  22672670.705    22672671.081   121198418.425 7
  22452875.278    22452874.558   119812859.001 6
  19828221.178    19828221.668   106104844.552 8
  21834783.703    21834783.550   116391684.818 7
  21431358.127    21431357.909   114603164.922 6
 20  4  9 20  1 54.0000000  0 16G17G15G01R16R18G28G30R15G13G07G19R05
                                R06R17R14R24
  20602400.176    20602399.7034  108266365.218 8
  22683766.608    22683766.2554  119204000.182 7
  23545486.528    23545486.2654  123732380.100 6
  22123591.042    22123590.056   118180265.567 6
  21834774.854    21834775.027   116555534.805 7
  20927532.638    20927531.6684  109974934.534 8
  21081471.013    21081470.2444  110783873.343 8
  19896220.481    19896220.615   106319385.960 8
  21122165.069    21122164.5114  110997731.946 8
  23312857.301    23312856.7654  122509860.144 6
  21742796.616    21742795.1994  114259193.720 7
  22673311.078    22673311.526   121201841.724 7
  22452932.571    22452931.304   119813162.332 6
  19828012.637    19828012.912   106103727.044 8
  21835183.330    21835183.073   116393816.292 7
  21431820.110    21431820.115   114605637.218 6
 20  4  9 20  1 55.0000000  0 16G17G15G01R16R18G28G30R15G13G07G19R05
                                R06R17R14R24
  20602193.211    20602192.7334  108265277.619 8
  22683666.296    22683665.9394  119203473.397 7
  23545456.276    23545456.0134  123732220.897 6
  22123089.708    22123089.295   118177589.448 6
  21833986.762    21833986.733   116551326.759 7
  20927708.267    20927707.2934  109975857.359 8
  21081796.928    21081796.1594  110785586.155 8
  19896154.509    19896154.760   106319034.048 8
  21122266.782    21122266.2244  110998266.485 8
  23313408.863    23313408.3314  122512758.821 6
  21742213.973    21742212.5564  114256131.956 7
  22673951.762    22673952.031   121205265.692 7
  22452989.637    22452988.557   119813466.810 6
  19827804.246    19827804.336   106102610.784 8
  21835583.182    21835582.763   116395948.338 7
  21432282.822    21432282.525   114608110.586 6
 20  4  9 20  1 56.0000000  0 16G17G15G01R16R18G28G30R15G13G07G19R05
                                R06R17R14R24
  20601986.360    20601985.8824  108264190.444 8
  22683566.114    22683565.7574  119202947.076 7
  23545425.924    23545425.6614  123732062.209 6
  22122588.430    22122588.455   118174913.200 6
  21833198.364    21833198.425   116547118.890 7
  20927883.830    20927882.8604  109976780.208 8
  21082123.004    21082122.2354  110787299.239 8
  19896088.755    19896088.968   106318682.247 8
  21122368.595    21122368.0374  110998801.540 8
  23313960.489    23313959.9574  122515657.623 6
  21741631.492    21741630.0714  114253070.454 7
  22674591.991    22674592.519   121208689.823 7
  22453046.917    22453045.910   119813771.981 6
  19827595.808    19827595.860   106101495.279 8
  21835982.973    21835982.561   116398080.463 7
  21432745.164    21432745.149   114610584.540 6
 20  4  9 20  1 57.0000000  0 16G17G15G01R16R18G28G30R15G13G07G19R05
                                R06R17R14R24
  20601779.638    20601779.1604  108263104.260 8
  22683466.144    22683465.7874  119202421.803 7
  23545395.920    23545395.6574  123731904.566 6
  22122087.390    22122087.380   118172237.416 6
  21832409.976    21832410.322   116542911.781 7
  20928059.565    20928058.5914  109977703.639 8
  21082449.167    21082448.3984  110789013.165 8
  19896022.996    19896023.233   106318331.134 8
  21122470.612    21122470.0544  110999337.671 8
  23314512.111    23314511.5844  122518557.097 6
  21741049.099    21741047.6824  114250009.762 7
  22675232.334    22675233.255   121212114.666 7
  22453104.316    22453103.654   119814078.371 6
  19827387.709    19827387.627   106100381.076 8
  21836382.973    21836382.554   116400213.227 7
  21433208.722    21433208.192   114613059.672 6
 20  4  9 20  1 58.0000000  0 16G17G15G01R16R18G28G30R15G13G07G19R05
                                R06R17R14R24
  20601573.128    20601572.6554  108262018.659 8
  22683366.202    22683365.8454  119201897.173 7
  23545366.027    23545365.7644  123731747.588 6
  22121586.542    22121586.464   118169561.689 6
  21831621.979    21831622.318   116538705.029 7
  20928235.390    20928234.4164  109978627.253 8
  21082775.360    21082774.5914  110790727.531 8
  19895957.313    19895957.633   106317980.329 8
  21122572.749    21122572.1914  110999874.482 8
  23315063.896    23315063.3694  122521456.883 6
  21740466.713    21740465.2964  114246949.497 7
  22675873.416    22675874.033   121215539.801 7
  22453161.894    22453160.984   119814385.572 6
  19827179.614    19827179.611   106099267.778 8
  21836783.164    21836782.723   116402346.229 7
  21433672.229    21433671.554   114615535.559 6
 20  4  9 20  1 59.0000000  0 16G17G15G01R16R18G28G30R15G13G07G19R05
                                R06R17R14R24
  20601366.728    20601366.2554  108260933.905 8
  22683266.458    22683266.1014  119201373.436 7
  23545336.359    23545336.1004  123731591.551 6
  22121086.267    22121085.689   118166886.286 6
  21830833.968    21830834.438   116534498.896 7
  20928411.277    20928410.3034  109979551.312 8
  21083101.727    21083100.9634  110792442.583 8
  19895891.819    19895892.041   106317630.075 8
  21122675.081    21122674.5234  111000412.235 8
  23315615.857    23315615.3304  122524357.216 6
  21739884.498    21739883.0814  114243889.912 7
  22676514.487    22676515.029   121218965.526 7
  22453219.678    22453218.933   119814693.885 6
  19826971.590    19826971.790   106098155.670 8
  21837183.363    21837183.025   116404479.731 7
  21434135.957    21434135.259   114618012.481 6
 20  4  9 20  2  0.0000000  0 16G17G15G01R16R18G28G30R15G13G07G19R05
                                R06R17R14R24
  20601160.357    20601159.8844  108259849.674 8
  22683166.699    22683166.3424  119200850.281 7
  23545306.684    23545306.4214  123731436.093 6
  22120585.410    22120584.914   118164210.893 6
  21830046.260    21830046.554   116530293.021 7
  20928587.200    20928586.2264  109980475.469 8
  21083428.144    21083427.3804  110794158.010 8
  19895826.269    19895826.566   106317280.014 8
  21122777.511    21122776.9574  111000950.597 8
  23316167.917    23316167.3904  122527257.785 6
  21739302.355    21739300.9384  114240830.681 7
  22677155.682    22677155.963   121222391.510 7
  22453277.420    22453276.759   119815002.932 6
  19826764.016    19826764.112   106097044.411 8
  21837583.667    21837583.434   116406613.401 7
  21434599.338    21434598.620   114620490.062 6
 20  4  9 20  2  1.0000000  0 16G17G15G01R16R18G28G30R15G13G07G19R05
                                R06R17R14R24
  20600954.034    20600953.5614  108258765.620 8
  22683067.104    22683066.7474  119200327.344 7
  23545277.184    23545276.9214  123731280.903 6
  22120084.442    22120083.895   118161535.128 6
  21829257.962    21829258.546   116526087.052 7
  20928762.989    20928762.0154  109981399.405 8
  21083754.514    21083753.7454  110795873.464 8
  19895760.772    19895761.042   106316929.819 8
  21122880.042    21122879.4844  111001489.224 8
  23316719.967    23316719.4404  122530158.241 6
  21738720.243    21738718.8264  114237771.462 7
  22677796.410    22677796.822   121225817.421 7
  22453335.969    22453334.867   119815312.386 6
  19826556.506    19826556.432   106095933.641 8
  21837983.990    21837983.801   116408746.914 7
  21435062.225    21435062.049   114622967.982 6
 20  4  9 20  2  2.0000000  0 16G17G15G01R16R18G28G30R15G13G07G19R05
                                R06R17R14R24
  20600747.805    20600747.3324  108257682.140 8
  22682967.720    22682967.3634  119199805.040 7
  23545247.805    23545247.5424  123731126.366 6
  22119583.716    22119582.966   118158859.379 6
  21828470.185    21828470.628   116521881.393 7
  20928938.765    20928937.7914  109982323.509 8
  21084081.024    21084080.2554  110797589.359 8
  19895695.283    19895695.627   106316579.937 8
  21122982.690    21122982.1324  111002028.534 8
  23317271.908    23317271.3814  122533058.972 6
  21738138.132    21738136.7154  114234712.664 7
  22678437.729    22678437.801   121229243.648 7
  22453393.756    22453393.194   119815622.668 6
  19826349.190    19826348.939   106094823.756 8
  21838384.471    21838384.203   116410880.655 7
  21435525.968    21435525.452   114625446.669 6
 20  4  9 20  2  3.0000000  0 16G17G15G01R16R18G28G30R15G13G07G19R05
                                R06R17R14R24
  20600541.747    20600541.2744  108256599.033 8
  22682868.444    22682868.0874  119199283.169 7
  23545218.392    23545218.1334  123730972.242 6
  22119082.546    22119082.073   118156183.425 6
  21827682.382    21827682.711   116517675.841 7
  20929114.567    20929113.5974  109983247.557 8
  21084407.561    21084406.7924  110799305.459 8
  19895629.804    19895630.198   106316230.134 8
  21123085.370    21123084.8124  111002568.297 8
  23317823.919    23317823.3924  122535959.793 6
  21737556.023    21737554.6104  114231654.066 7
  22679078.362    22679078.867   121232669.962 7
  22453451.981    22453451.518   119815933.545 6
  19826141.918    19826141.675   106093714.544 8
  21838784.887    21838784.606   116413014.402 7
  21435989.175    21435988.838   114627925.898 6
 20  4  9 20  2  4.0000000  0 16G17G15G01R16R18G28G30R15G13G07G19R05
                                R06R17R14R24
  20600335.758    20600335.2854  108255516.527 8
  22682769.372    22682769.0154  119198761.955 7
  23545189.287    23545189.0244  123730818.830 6
  22118581.538    22118581.267   118153507.542 6
  21826894.770    21826894.996   116513470.657 7
  20929290.414    20929289.4404  109984171.806 8
  21084734.170    21084733.4014  110801022.022 8
  19895564.332    19895564.807   106315880.657 8
  21123188.223    21123187.6654  111003108.762 8
  23318376.025    23318375.4984  122538860.925 6
  21736974.087    21736972.6744  114228595.915 7
  22679719.198    22679719.800   121236096.601 7
  22453509.897    22453509.991   119816245.250 6
  19825934.480    19825934.530   106092606.290 8
  21839185.276    21839184.916   116415148.420 7
  21436452.651    21436452.449   114630405.891 6
 20  4  9 20  2  5.0000000  0 16G17G15G01R16R18G28G30R15G13G07G19R05
                                R06R17R14R24
  20600129.949    20600129.4764  108254435.035 8
  22682670.316    22682669.9594  119198241.796 7
  23545160.348    23545160.0854  123730666.490 6
  22118080.282    22118080.444   118150832.141 6
  21826107.078    21826107.395   116509266.243 7
  20929466.338    20929465.3644  109985096.655 8
  21085060.985    21085060.2164  110802739.440 8
  19895498.952    19895499.597   106315531.888 8
  21123291.299    21123290.7414  111003650.330 8
  23318928.145    23318927.6184  122541762.760 6
  21736392.296    21736390.8834  114225538.602 7
  22680359.935    22680361.106   121239524.001 7
  22453568.260    22453568.466   119816558.214 6
  19825727.469    19825727.730   106091499.379 8
  21839585.687    21839585.430   116417283.116 7
  21436916.131    21436916.290   114632887.067 6
 20  4  9 20  2  6.0000000  0 16G17G15G01R16R18G28G30R15G13G07G19R05
                                R06R17R14R24
  20599924.255    20599923.7824  108253354.313 8
  22682571.546    22682571.1894  119197722.467 7
  23545131.591    23545131.3324  123730514.977 6
  22117579.305    22117579.754   118148156.974 6
  21825319.673    21825319.868   116505062.357 7
  20929642.397    20929641.4274  109986021.867 8
  21085387.927    21085387.1634  110804457.484 8
  19895433.739    19895434.416   106315183.598 8
  21123394.543    21123393.9854  111004192.761 8
  23319480.397    23319479.8654  122544665.080 6
  21735810.670    21735809.2534  114222481.898 7
  22681001.315    22681002.473   121242951.895 7
  22453627.172    22453627.336   119816872.194 6
  19825520.914    19825521.057   106090393.548 8
  21839986.213    21839986.031   116419418.254 7
  21437380.299    21437380.106   114635369.211 6
 20  4  9 20  2  7.0000000  0 16G17G15G01R16R18G28G30R15G13G07G19R05
                                R06R17R14R24
  20599718.742    20599718.2694  108252274.489 8
  22682473.068    22682472.7114  119197204.090 7
  23545102.923    23545102.6604  123730364.488 6
  22117078.364    22117079.031   118145482.182 6
  21824532.343    21824532.389   116500859.124 7
  20929818.525    20929817.5514  109986947.570 8
  21085715.010    21085714.2464  110806176.276 8
  19895368.827    19895369.399   106314835.933 8
  21123497.981    21123497.4234  111004736.188 8
  23320032.798    23320032.2714  122547568.026 6
  21735229.164    21735227.7514  114219425.933 7
  22681642.988    22681643.869   121246380.444 7
  22453686.383    22453686.241   119817187.299 6
  19825314.557    19825314.652   106089288.933 8
  21840386.889    21840386.845   116421553.935 7
  21437844.461    21437844.578   114637852.441 6
 20  4  9 20  2  8.0000000  0 16G17G15G01R16R18G28G30R15G13G07G19R05
                                R06R17R14R24
  20599513.351    20599512.8784  108251195.087 8
  22682374.557    22682374.2004  119196686.183 7
  23545074.324    23545074.0614  123730214.463 6
  22116578.103    22116578.483   118142807.277 6
  21823745.116    21823745.049   116496656.037 7
  20929994.674    20929993.7004  109987873.288 8
  21086042.125    21086041.3614  110807895.345 8
  19895303.885    19895304.436   106314488.379 8
  21123601.476    21123600.9184  111005280.129 8
  23320585.323    23320584.7964  122550471.075 6
  21734647.692    21734646.2794  114216370.222 7
  22682284.721    22682285.297   121249809.122 7
  22453745.799    22453745.379   119817503.081 6
  19825108.354    19825108.404   106088185.065 8
  21840787.646    21840787.762   116423689.655 7
  21438309.101    21438309.332   114640336.245 6
 20  4  9 20  2  9.0000000  0 16G17G15G01R16R18G28G30R15G13G07G19R05
                                R06R17R14R24
  20599308.110    20599307.6374  108250115.940 8
  22682276.016    22682275.6594  119196168.596 7
  23545045.889    23545045.6304  123730064.762 6
  22116077.006    22116077.565   118140132.106 6
  21822957.566    21822957.648   116492452.950 7
  20930170.795    20930169.8214  109988798.855 8
  21086369.304    21086368.5404  110809614.521 8
  19895238.819    19895239.296   106314140.767 8
  21123705.026    21123704.4634  111005824.420 8
  23321137.820    23321137.2974  122553374.108 6
  21734066.285    21734064.8724  114213314.604 7
  22682926.148    22682926.875   121253237.783 7
  22453804.961    22453804.551   119817819.300 6
  19824902.249    19824902.162   106087081.806 8
  21841188.487    21841188.557   116425825.292 7
  21438774.090    21438774.250   114642820.441 6
 20  4  9 20  2 10.0000000  0 16G17G15G01R16R18G28G30R15G13G07G19R05
                                R06R17R14R24
  20599102.882    20599102.4094  108249037.216 8
  22682177.469    22682177.1124  119195651.470 7
  23545017.664    23545017.4014  123729915.569 6
  22115576.581    22115576.876   118137456.810 6
  21822170.255    21822170.367   116488250.035 7
  20930346.934    20930345.9604  109989724.423 8
  21086696.562    21086695.7984  110811333.956 8
  19895173.940    19895174.348   106313793.250 8
  21123808.704    21123808.1414  111006369.219 8
  23321690.096    23321689.5694  122556277.263 6
  21733484.908    21733483.4914  114210259.230 7
  22683568.010    22683568.349   121256666.598 7
  22453865.061    22453863.927   119818136.167 6
  19824696.269    19824696.291   106085979.281 8
  21841589.282    21841589.364   116427961.008 7
  21439238.724    21439239.565   114645305.232 6
 20  4  9 20  2 11.0000000  0 16G17G15G01R16R18G28G30R15G13G07G19R05
                                R06R17R14R24
  20598897.853    20598897.3844  108247959.752 8
  22682079.293    22682078.9404  119195135.685 7
  23544989.487    23544989.2244  123729767.724 6
  22115076.400    22115076.203   118134782.286 6
  21821383.334    21821383.126   116484048.169 7
  20930523.196    20930522.2224  109990650.878 8
  21087023.978    21087023.2094  110813054.525 8
  19895108.949    19895109.479   106313446.739 8
  21123912.622    21123912.0594  111006915.390 8
  23322242.559    23322242.0324  122559181.379 6
  21732903.699    21732902.2824  114207204.975 7
  22684209.567    22684209.993   121260096.421 7
  22453924.550    22453923.817   119818454.591 6
  19824490.617    19824490.503   106084878.359 8
  21841990.234    21841990.362   116430097.666 7
  21439703.963    21439704.977   114647791.479 6
 20  4  9 20  2 12.0000000  0 16G17G15G01R16R18G28G30R15G13G07G19R05
                                R06R17R14R24
  20598692.808    20598692.3354  108246882.271 8
  22681981.263    22681980.9064  119194619.912 7
  23544961.478    23544961.2194  123729619.919 6
  22114575.520    22114575.371   118132107.199 6
  21820595.799    21820595.919   116479846.028 7
  20930699.503    20930698.5334  109991576.862 8
  21087351.343    21087350.5744  110814774.902 8
  19895044.081    19895044.555   106313099.892 8
  21124016.594    21124016.0364  111007461.611 8
  23322795.180    23322794.6484  122562085.192 6
  21732322.446    21732321.0294  114204150.509 7
  22684851.005    22684851.523   121263525.937 7
  22453984.007    22453983.347   119818773.183 6
  19824284.992    19824284.714   106083777.712 8
  21842390.938    21842391.171   116432233.919 7
  21440168.809    21440170.061   114650277.828 6
 20  4  9 20  2 13.0000000  0 16G17G15G01R16R18G28G30R15G13G07G19R05
                                R06R17R14R24
  20598487.801    20598487.3284  108245804.748 8
  22681883.053    22681882.7004  119194104.165 7
  23544933.171    23544932.9084  123729472.155 6
  22114074.362    22114074.428   118129431.529 6
  21819808.585    21819808.733   116475643.604 7
  20930875.685    20930874.7114  109992502.433 8
  21087678.611    21087677.8424  110816495.113 8
  19894979.188    19894979.586   106312752.721 8
  21124120.576    21124120.0184  111008007.907 8
  23323347.726    23323347.1994  122564988.684 6
  21731741.219    21731739.8064  114201095.861 7
  22685492.360    22685493.074   121266955.166 7
  22454043.924    22454042.979   119819092.008 6
  19824079.611    19824079.072   106082677.364 8
  21842791.592    21842791.881   116434369.794 7
  21440633.372    21440634.961   114652764.332 6
 20  4  9 20  2 14.0000000  0 16G17G15G01R16R18G28G30R15G13G07G19R05
                                R06R17R14R24
  20598282.878    20598282.4094  108244728.018 8
  22681784.994    22681784.6414  119193589.258 7
  23544905.201    23544904.9384  123729325.244 6
  22113573.350    22113573.468   118126756.071 6
  21819021.600    21819021.549   116471441.696 7
  20931051.844    20931050.8704  109993428.371 8
  21088006.057    21088005.2884  110818215.953 8
  19894914.328    19894914.668   106312406.042 8
  21124224.675    21124224.1124  111008555.076 8
  23323900.357    23323899.8304  122567892.653 6
  21731160.082    21731158.6614  114198041.824 7
  22686133.728    22686134.708   121270384.920 7
  22454104.152    22454103.119   119819411.850 6
  19823874.088    19823873.638   106081578.084 8
  21843192.376    21843192.660   116436506.107 7
  21441097.559    21441099.666   114655251.774 6
 20  4  9 20  2 15.0000000  0 16G17G15G01R16R18G28G30R15G13G07G19R05
                                R06R17R14R24
  20598078.178    20598077.7094  108243652.009 8
  22681687.110    22681686.7574  119193075.123 7
  23544877.650    23544877.3914  123729179.138 6
  22113073.032    22113072.606   118124080.803 6
  21818234.502    21818234.490   116467240.233 7
  20931228.158    20931227.1844  109994354.623 8
  21088333.590    21088332.8264  110819937.365 8
  19894849.581    19894849.882   106312059.802 8
  21124328.960    21124328.4024  111009103.061 8
  23324453.117    23324452.5854  122570797.066 6
  21730578.993    21730577.5764  114194988.346 7
  22686775.218    22686776.546   121273815.110 7
  22454164.608    22454163.396   119819732.655 6
  19823668.824    19823668.524   106080479.862 8
  21843593.368    21843593.437   116438642.821 7
  21441562.995    21441564.441   114657740.119 6
 20  4  9 20  2 16.0000000  0 16G17G15G01R16R18G28G30R15G13G07G19R05
                                R06R17R14R24
  20597873.547    20597873.0744  108242576.669 8
  22681589.388    22681589.0354  119192561.722 7
  23544849.980    23544849.7174  123729033.789 6
  22112572.292    22112571.739   118121405.697 6
  21817447.548    21817447.475   116463039.200 7
  20931404.454    20931403.4804  109995281.151 8
  21088661.218    21088660.4544  110821659.300 8
  19894784.852    19894785.182   106311713.922 8
  21124433.408    21124432.8504  111009651.812 8
  23325005.805    23325005.2734  122573701.835 6
  21729998.010    21729996.5934  114191935.384 7
  22687417.025    22687418.354   121277245.714 7
  22454224.623    22454223.723   119820054.343 6
  19823464.003    19823463.554   106079382.654 8
  21843994.177    21843994.167   116440779.877 7
  21442029.033    21442029.580   114660229.322 6
 20  4  9 20  2 17.0000000  0 16G17G15G01R16R18G28G30R15G13G07G19R05
                                R06R17R14R24
  20597669.026    20597668.5534  108241502.086 8
  22681491.838    22681491.4854  119192049.136 7
  23544822.396    23544822.1334  123728889.255 6
  22112071.539    22112071.063   118118730.842 6
  21816660.537    21816660.503   116458838.693 7
  20931580.798    20931579.8244  109996208.024 8
  21088989.060    21088988.2964  110823381.843 8
  19894720.101    19894720.462   106311368.486 8
  21124538.018    21124537.4604  111010201.417 8
  23325558.699    23325558.1674  122576607.111 6
  21729417.055    21729415.6384  114188883.017 7
  22688059.018    22688060.079   121280676.825 7
  22454284.764    22454284.002   119820377.061 6
  19823259.179    19823258.639   106078286.550 8
  21844395.129    21844395.104   116442917.358 7
  21442495.045    21442494.984   114662719.497 6
 20  4  9 20  2 18.0000000  0 16G17G15G01R16R18G28G30R15G13G07G19R05
                                R06R17R14R24
  20597464.684    20597464.2154  108240428.544 8
  22681394.506    22681394.1534  119191537.636 7
  23544795.263    23544795.0004  123728745.838 6
  22111570.368    22111570.298   118116056.468 6
  21815873.827    21815873.787   116454638.980 7
  20931757.279    20931756.3094  109997135.509 8
  21089317.036    21089316.2724  110825105.262 8
  19894655.510    19894655.886   106311023.793 8
  21124642.823    21124642.2654  111010752.143 8
  23326111.668    23326111.1364  122579513.102 6
  21728836.290    21728834.8734  114185831.508 7
  22688701.394    22688701.951   121284108.699 7
  22454345.301    22454344.591   119820701.023 6
  19823054.511    19823053.976   106077191.809 8
  21844796.261    21844796.148   116445055.512 7
  21442960.683    21442960.608   114665210.852 6
 20  4  9 20  2 19.0000000  0 16G17G15G01R16R18G28G30R15G13G07G19R05
                                R06R17R14R24
  20597260.467    20597259.9944  108239355.184 8
  22681297.221    22681296.8684  119191026.385 7
  23544768.173    23544767.9104  123728602.700 6
  22111068.635    22111069.744   118113381.747 6
  21815086.811    21815087.067   116450439.245 7
  20931933.797    20931932.8234  109998062.786 8
  21089645.098    21089644.3344  110826828.738 8
  19894590.991    19894591.374   106310679.026 8
  21124747.625    21124747.0674  111011303.151 8
  23326664.580    23326664.0484  122582418.985 6
  21728255.608    21728254.1914  114182780.036 7
  22689343.616    22689343.942   121287540.499 7
  22454405.499    22454405.168   119821025.410 6
  19822850.035    19822849.573   106076097.574 8
  21845197.285    21845197.275   116447193.501 7
  21443427.007    21443427.047   114667702.569 6
 20  4  9 20  2 20.0000000  0 16G17G15G01R16R18G28G30R15G13G07G19R05
                                R06R17R14R24
  20597056.370    20597055.8974  108238282.385 8
  22681200.049    22681199.6964  119190515.734 7
  23544740.853    23544740.5904  123728460.178 6
  22110568.011    22110569.148   118110706.996 6
  21814300.209    21814300.381   116446239.818 7
  20932110.175    20932109.2014  109998990.206 8
  21089973.176    21089972.4124  110828552.612 8
  19894526.486    19894526.904   106310334.526 8
  21124852.583    21124852.0254  111011854.814 8
  23327217.646    23327217.1144  122585325.155 6
  21727675.099    21727673.6824  114179728.954 7
  22689985.707    22689986.011   121290972.552 7
  22454466.117    22454466.011   119821350.588 6
  19822645.706    19822645.285   106075004.184 8
  21845598.461    21845598.507   116449331.685 7
  21443893.283    21443893.426   114670195.000 6
 20  4  9 20  2 21.0000000  0 16G17G15G01R16R18G28G30R15G13G07G19R05
                                R06R17R14R24
  20596852.249    20596851.7764  108237209.961 8
  22681102.994    22681102.6414  119190005.527 7
  23544713.597    23544713.3384  123728318.119 6
  22110067.454    22110068.479   118108032.099 6
  21813513.439    21813513.752   116442040.517 7
  20932286.583    20932285.6134  109999917.597 8
  21090301.259    21090300.4954  110830276.718 8
  19894462.120    19894462.441   106309990.095 8
  21124957.601    21124957.0434  111012406.945 8
  23327770.722    23327770.1904  122588231.402 6
  21727094.574    21727093.1574  114176678.089 7
  22690627.878    22690628.123   121294404.701 7
  22454527.196    22454527.192   119821676.399 6
  19822441.718    19822441.111   106073911.492 8
  21845999.728    21845999.786   116451469.896 7
  21444359.815    21444359.736   114672687.968 6
 20  4  9 20  2 22.0000000  0 16G17G15G01R16R18G28G30R15G13G07G19R05
                                R06R17R14R24
  20596648.248    20596647.7754  108236137.893 8
  22681006.069    22681005.7164  119189495.735 7
  23544686.560    23544686.2974  123728176.490 6
  22109567.045    22109567.699   118105357.051 6
  21812726.795    21812727.087   116437841.303 7
  20932463.075    20932462.1054  110000844.927 8
  21090629.370    21090628.6064  110832001.017 8
  19894397.702    19894397.980   106309645.696 8
  21125062.804    21125062.2464  111012959.525 8
  23328323.783    23328323.2564  122591137.706 6
  21726514.048    21726512.6314  114173627.412 7
  22691269.730    22691270.138   121297836.937 7
  22454588.969    22454588.442   119822002.777 6
  19822237.492    19822237.001   106072819.502 8
  21846400.923    21846400.897   116453608.105 7
  21444826.325    21444826.490   114675181.444 6
 20  4  9 20  2 23.0000000  0 16G17G15G01R16R18G28G30R15G13G07G19R05
                                R06R17R14R24
  20596444.234    20596443.7654  108235066.124 8
  22680909.143    22680908.7864  119188986.274 7
  23544659.774    23544659.5114  123728035.226 6
  22109066.860    22109066.878   118102681.758 6
  21811940.171    21811940.414   116433642.106 7
  20932639.565    20932638.5954  110001772.143 8
  21090957.542    21090956.7784  110833725.472 8
  19894333.136    19894333.496   106309301.293 8
  21125167.980    21125167.4224  111013512.493 8
  23328876.921    23328876.3944  122594044.016 6
  21725933.612    21725932.1954  114170576.857 7
  22691911.812    22691912.291   121301269.192 7
  22454650.028    22454649.682   119822329.698 6
  19822033.717    19822032.971   106071728.150 8
  21846801.912    21846801.967   116455746.254 7
  21445292.982    21445293.025   114677675.366 6
 20  4  9 20  2 24.0000000  0 16G17G15G01R16R18G28G30R15G13G07G19R05
                                R06R17R14R24
  20596240.381    20596239.9124  108233994.936 8
  22680812.374    22680812.0174  119188477.444 7
  23544632.937    23544632.6744  123727894.629 6
  22108566.178    22108566.082   118100006.516 6
  21811153.777    21811153.917   116429443.269 7
  20932816.113    20932815.1434  110002699.529 8
  21091285.790    21091285.0264  110835450.362 8
  19894268.761    19894269.130   106308957.196 8
  21125273.364    21125272.8014  111014066.139 8
  23329430.169    23329429.6374  122596950.613 6
  21725353.226    21725351.8134  114167526.737 7
  22692554.089    22692554.670   121304701.767 7
  22454711.299    22454711.152   119822657.429 6
  19821829.932    19821829.301   106070637.695 8
  21847203.041    21847203.124   116457884.624 7
  21445759.438    21445759.714   114680170.027 6
 20  4  9 20  2 25.0000000  0 16G17G15G01R16R18G28G30R15G13G07G19R05
                                R06R17R14R24
  20596036.726    20596036.2534  108232924.746 8
  22680715.615    22680715.2584  119187969.690 7
  23544606.372    23544606.1094  123727755.088 6
  22108065.201    22108065.220   118097331.755 6
  21810367.433    21810367.555   116425245.199 7
  20932992.780    20932991.8104  110003627.505 8
  21091614.146    21091613.3824  110837176.099 8
  19894204.403    19894204.868   106308613.825 8
  21125378.892    21125378.3294  111014620.870 8
  23329983.377    23329982.8454  122599857.921 6
  21724772.938    21724771.5214  114164477.454 7
  22693196.546    22693196.852   121308135.092 7
  22454772.846    22454772.802   119822986.387 6
  19821626.397    19821625.775   106069548.542 8
  21847604.134    21847604.429   116460023.676 7
  21446225.983    21446226.604   114682665.880 6
 20  4  9 20  2 26.0000000  0 16G17G15G01R16R18G28G30R15G13G07G19R05
                                R06R17R14R24
  20595833.174    20595832.7014  108231855.277 8
  22680619.098    22680618.7414  119187462.693 7
  23544579.881    23544579.6184  123727616.352 6
  22107564.533    22107564.396   118094657.168 6
  21809581.244    21809581.205   116421047.629 7
  20933169.457    20933168.4874  110004555.802 8
  21091942.647    21091941.8834  110838902.407 8
  19894140.097    19894140.605   106308270.872 8
  21125484.640    21125484.0824  111015176.422 8
  23330536.755    23330536.2234  122602765.641 6
  21724192.794    21724191.3774  114161428.736 7
  22693838.931    22693839.083   121311568.859 7
  22454835.184    22454834.710   119823316.286 6
  19821422.890    19821422.399   106068460.418 8
  21848005.491    21848005.778   116462163.114 7
  21446692.736    21446693.104   114685162.634 6
 20  4  9 20  2 27.0000000  0 16G17G15G01R16R18G28G30R15G13G07G19R05
                                R06R17R14R24
  20595629.825    20595629.3524  108230787.053 8
  22680522.838    22680522.4814  119186956.993 7
  23544553.638    23544553.3754  123727478.931 6
  22107064.064    22107064.067   118091983.284 6
  21808795.055    21808795.130   116416851.078 7
  20933346.284    20933345.3144  110005484.930 8
  21092271.453    21092270.6894  110840629.812 8
  19894076.014    19894076.572   106307928.869 8
  21125590.702    21125590.1444  111015733.309 8
  23331090.278    23331089.7464  122605674.332 6
  21723612.819    21723611.4064  114158381.093 7
  22694481.381    22694481.625   121315003.616 7
  22454897.675    22454897.233   119823647.658 6
  19821219.708    19821219.447   106067373.887 8
  21848407.218    21848407.416   116464303.443 7
  21447159.273    21447159.947   114687660.827 6
 20  4  9 20  2 28.0000000  0 16G17G15G01R16R18G28G30R15G13G07G19R05
                                R06R17R14R24
  20595426.705    20595426.2364  108229719.663 8
  22680426.711    22680426.3544  119186452.197 7
  23544527.839    23544527.5714  123727342.439 6
  22106563.186    22106563.433   118089309.690 6
  21808009.060    21808009.045   116412655.116 7
  20933523.203    20933522.2334  110006414.488 8
  21092600.318    21092599.5544  110842357.902 8
  19894012.027    19894012.650   106307587.420 8
  21125696.800    21125696.2424  111016291.122 8
  23331643.808    23331643.2764  122608583.552 6
  21723032.933    21723031.5164  114155334.126 7
  22695123.901    22695124.151   121318438.940 7
  22454960.186    22454959.687   119823980.132 6
  19821016.970    19821016.626   106066288.570 8
  21848808.866    21848809.065   116466444.277 7
  21447626.722    21447626.909   114690160.028 6
 20  4  9 20  2 29.0000000  0 16G17G15G01R16R18G28G30R15G13G07G19R05
                                R06R17R14R24
  20595223.657    20595223.1844  108228652.357 8
  22680330.747    22680330.3904  119185947.529 7
  23544501.968    23544501.7054  123727206.099 6
  22106062.581    22106062.809   118086635.662 6
  21807223.156    21807223.042   116408458.961 7
  20933700.017    20933699.0474  110007343.731 8
  21092929.172    21092928.4124  110844085.920 8
  19893948.102    19893948.733   106307245.751 8
  21125802.938    21125802.3804  111016849.114 8
  23332197.251    23332196.7194  122611492.563 6
  21722453.170    21722451.7534  114152287.080 7
  22695766.857    22695766.832   121321874.054 7
  22455022.740    22455022.032   119824312.921 6
  19820814.257    19820813.942   106065203.642 8
  21849210.452    21849210.703   116468584.836 7
  21448093.801    21448094.012   114692659.465 6
 20  4  9 20  2 30.0000000  0 16G17G15G01R16R18G28G30R15G13G07G19R05
                                R06R17R14R24
  20595020.696    20595020.2234  108227585.590 8
  22680234.807    22680234.4504  119185443.454 7
  23544476.043    23544475.7754  123727070.366 6
  22105561.912    22105562.380   118083961.636 6
  21806436.973    21806437.061   116404263.079 7
  20933876.853    20933875.8834  110008273.091 8
  21093258.154    21093257.3904  110845814.334 8
  19893884.241    19893884.856   106306904.323 8
  21125909.211    21125908.6534  111017407.731 8
  23332750.723    23332750.1874  122614401.819 6
  21721873.369    21721871.9524  114149240.397 7
  22696409.664    22696409.529   121325309.437 7
  22455084.971    22455084.549   119824646.432 6
  19820611.671    19820611.400   106064119.546 8
  21849611.940    21849612.402   116470725.596 7
  21448561.710    21448561.636   114695159.575 6
 20  4  9 20  2 31.0000000  0 16G17G15G01R16R18G28G30R15G13G07G19R05
                                R06R17R14R24
  20594817.825    20594817.3524  108226519.374 8
  22680139.188    22680138.8314  119184939.985 7
  23544450.353    23544450.0854  123726935.260 6
  22105061.205    22105061.618   118081287.617 6
  21805650.902    21805651.049   116400067.504 7
  20934053.797    20934052.8274  110009202.602 8
  21093587.062    21093586.2984  110847543.143 8
  19893820.441    19893820.949   106306563.176 8
  21126015.597    21126015.0394  111017966.982 8
  23333304.467    23333303.9314  122617311.334 6
  21721293.670    21721292.2534  114146194.114 7
  22697052.402    22697052.129   121328745.088 7
  22455147.099    22455147.006   119824980.766 6
  19820409.247    19820408.944   106063036.320 8
  21850013.503    21850014.004   116472866.577 7
  21449029.132    21449029.489   114697660.420 6
 20  4  9 20  2 32.0000000  0 16G17G15G01R16R18G28G30R15G13G07G19R05
                                R06R17R14R24
  20594614.957    20594614.4884  108225453.459 8
  22680043.465    22680043.1084  119184436.852 7
  23544424.611    23544424.3434  123726800.534 6
  22104560.922    22104560.987   118078613.361 6
  21804864.848    21804865.133   116395871.983 7
  20934230.648    20934229.6784  110010131.992 8
  21093916.053    21093915.2894  110849272.104 8
  19893756.782    19893757.160   106306222.022 8
  21126122.088    21126121.5304  111018526.636 8
  23333858.036    23333857.5004  122620220.856 6
  21720713.989    21720712.5724  114143147.953 7
  22697695.053    22697694.754   121332180.757 7
  22455209.586    22455209.790   119825315.634 6
  19820206.912    19820206.588   106061953.710 8
  21850415.166    21850415.532   116475007.497 7
  21449497.429    21449497.698   114700161.707 6
 20  4  9 20  2 33.0000000  0 16G17G15G01R16R18G28G30R15G13G07G19R05
                                R06R17R14R24
  20594412.130    20594411.6574  108224387.851 8
  22679947.696    22679947.3344  119183934.093 7
  23544398.905    23544398.6374  123726666.185 6
  22104060.288    22104060.399   118075938.891 6
  21804079.020    21804079.148   116391676.521 7
  20934407.496    20934406.5264  110011061.282 8
  21094245.056    21094244.2964  110851001.219 8
  19893693.221    19893693.391   106305880.839 8
  21126228.715    21126228.1574  111019086.691 8
  23334411.721    23334411.1854  122623130.390 6
  21720134.315    21720132.8984  114140101.943 7
  22698337.557    22698337.492   121335616.450 7
  22455272.224    22455272.814   119825651.056 6
  19820004.712    19820004.463   106060871.740 8
  21850816.677    21850816.995   116477148.365 7
  21449964.898    21449965.712   114702663.496 6
 20  4  9 20  2 34.0000000  0 16G17G15G01R16R18G28G30R15G13G07G19R05
                                R06R17R14R24
  20594209.380    20594208.9074  108223322.457 8
  22679852.044    22679851.6874  119183431.597 7
  23544373.385    23544373.1174  123726532.132 6
  22103559.456    22103559.587   118073264.106 6
  21803292.972    21803293.252   116387481.008 7
  20934584.314    20934583.3444  110011990.369 8
  21094574.040    21094573.2764  110852730.392 8
  19893629.345    19893629.537   106305539.557 8
  21126335.319    21126334.7614  111019647.049 8
  23334965.438    23334964.9064  122626039.847 6
  21719554.689    21719553.2724  114137055.984 7
  22698979.559    22698980.191   121339052.084 7
  22455335.220    22455335.762   119825986.914 6
  19819802.612    19819802.378   106059790.292 8
  21851218.065    21851218.342   116479289.056 7
  21450432.792    21450433.758   114705165.645 6
 20  4  9 20  2 35.0000000  0 16G17G15G01R16R18G28G30R15G13G07G19R05
                                R06R17R14R24
  20594006.887    20594006.4144  108222258.147 8
  22679756.513    22679756.1564  119182930.242 7
  23544348.149    23544347.8814  123726399.232 6
  22103058.972    22103058.647   118070589.864 6
  21802507.303    21802507.497   116383286.351 7
  20934761.274    20934760.3044  110012920.141 8
  21094903.256    21094902.4964  110854460.508 8
  19893565.578    19893565.742   106305199.096 8
  21126442.184    21126441.6214  111020208.580 8
  23335519.399    23335518.8674  122628950.091 6
  21718975.202    21718973.7894  114134010.945 7
  22699622.594    22699622.863   121342488.548 7
  22455398.385    22455399.065   119826324.135 6
  19819600.676    19819600.518   106058710.255 8
  21851619.650    21851619.802   116481430.485 7
  21450901.260    21450901.617   114707669.049 6
 20  4  9 20  2 36.0000000  0 16G17G15G01R16R18G28G30R15G13G07G19R05
                                R06R17R14R24
  20593804.483    20593804.0104  108221194.355 8
  22679661.183    22679660.8264  119182429.459 7
  23544322.886    23544322.6234  123726266.921 6
  22102558.168    22102558.045   118067915.618 6
  21801721.606    21801721.798   116379091.971 7
  20934938.212    20934937.2384  110013850.024 8
  21095232.623    21095231.8594  110856190.983 8
  19893501.984    19893502.103   106304858.879 8
  21126549.196    21126548.6384  111020770.725 8
  23336073.151    23336072.6194  122631860.571 6
  21718395.833    21718394.4164  114130966.275 7
  22700265.636    22700265.723   121345925.282 7
  22455461.778    22455462.599   119826662.111 6
  19819399.115    19819398.974   106057631.072 8
  21852021.340    21852021.341   116483572.122 7
  21451369.910    21451369.829   114710173.122 6
 20  4  9 20  2 37.0000000  0 16G17G15G01R16R18G28G30R15G13G07G19R05
                                R06R17R14R24
  20593602.075    20593601.6024  108220130.832 8
  22679565.825    22679565.4634  119181929.005 7
  23544297.628    23544297.3604  123726134.953 6
  22102057.785    22102057.164   118065241.063 6
  21800935.874    21800936.087   116374897.612 7
  20935115.083    20935114.1134  110014779.748 8
  21095561.996    21095561.2324  110857921.578 8
  19893438.357    19893438.395   106304518.614 8
  21126656.266    21126655.7084  111021333.226 8
  23336626.998    23336626.4664  122634771.020 6
  21717816.508    21717815.0914  114127921.694 7
  22700908.280    22700908.521   121349361.987 7
  22455525.450    22455526.179   119827000.532 6
  19819197.693    19819197.338   106056552.489 8
  21852423.017    21852422.936   116485713.695 7
  21451836.895    21451837.800   114712677.626 6
 20  4  9 20  2 38.0000000  0 16G17G15G01R16R18G28G30R15G13G07G19R05
                                R06R17R14R24
  20593399.800    20593399.3274  108219067.885 8
  22679470.689    22679470.3274  119181429.176 7
  23544272.583    23544272.3204  123726003.646 6
  22101556.440    22101556.487   118062566.515 6
  21800150.422    21800150.457   116370703.594 7
  20935292.036    20935291.0664  110015709.662 8
  21095891.438    21095890.6694  110859652.616 8
  19893374.851    19893374.792   106304178.614 8
  21126763.456    21126762.8984  111021896.408 8
  23337180.940    23337180.4044  122637681.751 6
  21717237.206    21717235.7894  114124877.544 7
  22701550.971    22701551.190   121352798.992 7
  22455589.437    22455590.000   119827339.782 6
  19818996.147    19818996.010   106055474.804 8
  21852824.628    21852824.646   116487855.517 7
  21452305.143    21452305.972   114715182.866 6
 20  4  9 20  2 39.0000000  0 16G17G15G01R16R18G28G30R15G13G07G19R05
                                R06R17R14R24
  20593197.727    20593197.2544  108218006.060 8
  22679375.744    22679375.3824  119180930.519 7
  23544247.915    23544247.6524  123725873.529 6
  22101056.450    22101055.943   118059892.542 6
  21799364.983    21799364.927   116366510.458 7
  20935469.078    20935468.1084  110016640.265 8
  21096220.956    21096220.1924  110861384.606 8
  19893311.240    19893311.229   106303839.437 8
  21126870.797    21126870.2394  111022460.791 8
  23337734.998    23337734.4664  122640593.305 6
  21716658.181    21716656.7644  114121834.329 7
  22702193.984    22702194.227   121356236.843 7
  22455653.602    22455653.721   119827680.353 6
  19818794.826    19818794.751   106054398.550 8
  21853226.634    21853226.498   116489998.087 7
  21452774.223    21452774.496   114717689.406 6
 20  4  9 20  2 40.0000000  0 16G17G15G01R16R18G28G30R15G13G07G19R05
                                R06R17R14R24
  20592995.792    20592995.3234  108216944.835 8
  22679281.095    22679280.7384  119180432.524 7
  23544223.269    23544223.0104  123725744.112 6
  22100556.725    22100555.522   118057218.678 6
  21798579.396    21798579.543   116362317.680 7
  20935646.217    20935645.2434  110017571.077 8
  21096550.610    21096549.8464  110863117.065 8
  19893247.763    19893247.837   106303500.598 8
  21126978.288    21126977.7304  111023025.876 8
  23338289.153    23338288.6214  122643505.200 6
  21716079.222    21716077.8054  114118791.580 7
  22702837.199    22702837.311   121359675.040 7
  22455717.798    22455718.008   119828021.750 6
  19818594.070    19818593.816   106053323.259 8
  21853628.921    21853628.589   116492140.905 7
  21453243.066    21453243.008   114720196.744 6
 20  4  9 20  2 41.0000000  0 16G17G15G01R16R18G28G30R15G13G07G19R05
                                R06R17R14R24
  20592793.973    20592793.5004  108215884.139 8
  22679186.422    22679186.0654  119179935.103 7
  23544198.764    23544198.5014  123725615.291 6
  22100056.079    22100054.984   118054544.834 6
  21797794.190    21797794.189   116358125.176 7
  20935823.386    20935822.4164  110018501.997 8
  21096880.303    21096879.5344  110864849.893 8
  19893184.344    19893184.525   106303161.995 8
  21127085.958    21127085.4004  111023591.582 8
  23338843.273    23338842.7414  122646417.282 6
  21715500.230    21715498.8134  114115749.191 7
  22703480.445    22703480.641   121363113.509 7
  22455782.529    22455782.177   119828363.925 6
  19818393.316    19818393.163   106052248.815 8
  21854031.133    21854030.813   116494283.909 7
  21453712.799    21453711.949   114722704.752 6
 20  4  9 20  2 42.0000000  0 16G17G15G01R16R18G28G30R15G13G07G19R05
                                R06R17R14R24
  20592592.208    20592591.7354  108214823.459 8
  22679091.840    22679091.4834  119179437.757 7
  23544174.231    23544173.9724  123725486.543 6
  22099555.844    22099554.416   118051870.476 6
  21797008.261    21797008.775   116353932.439 7
  20936000.422    20935999.4524  110019432.527 8
  21097210.034    21097209.2704  110866582.583 8
  19893120.791    19893121.045   106302823.099 8
  21127193.608    21127193.0504  111024157.396 8
  23339397.475    23339396.9434  122649329.106 6
  21714921.272    21714919.8554  114112706.660 7
  22704123.437    22704123.812   121366551.703 7
  22455847.091    22455846.506   119828706.333 6
  19818192.350    19818192.365   106051174.686 8
  21854433.329    21854432.995   116496426.584 7
  21454181.640    21454181.209   114725212.907 6
 20  4  9 20  2 43.0000000  0 16G17G15G01R16R18G28G30R15G13G07G19R05
                                R06R17R14R24
  20592390.513    20592390.0404  108213763.908 8
  22678997.415    22678997.0534  119178941.598 7
  23544150.002    23544149.7434  123725359.020 6
  22099055.617    22099054.076   118049196.711 6
  21796223.161    21796223.459   116349740.608 7
  20936177.634    20936176.6604  110020363.777 8
  21097539.924    21097539.1554  110868316.269 8
  19893057.518    19893057.798   106302485.060 8
  21127301.506    21127300.9484  111024724.428 8
  23339951.598    23339951.0664  122652241.775 6
  21714342.396    21714340.9794  114109665.106 7
  22704766.864    22704767.215   121369990.731 7
  22455911.559    22455911.084   119829050.132 6
  19817991.861    19817991.874   106050102.021 8
  21854835.578    21854835.391   116498570.074 7
  21454650.914    21454650.769   114727722.393 6
 20  4  9 20  2 44.0000000  0 16G17G15G01R16R18G28G30R15G13G07G19R05
                                R06R17R14R24
  20592188.990    20592188.5174  108212705.054 8
  22678903.083    22678902.7214  119178446.169 7
  23544125.989    23544125.7304  123725232.251 6
  22098554.458    22098553.542   118046523.095 6
  21795437.901    21795438.314   116345549.223 7
  20936354.922    20936353.9524  110021295.312 8
  21097869.938    21097869.1744  110870050.487 8
  19892994.300    19892994.575   106302147.400 8
  21127409.529    21127408.9714  111025292.245 8
  23340505.839    23340505.3074  122655154.827 6
  21713763.687    21713762.2704  114106624.074 7
  22705410.091    22705410.544   121373430.195 7
  22455976.190    22455975.602   119829394.877 6
  19817791.458    19817791.582   106049030.384 8
  21855237.882    21855237.833   116500713.892 7
  21455120.919    21455120.371   114730232.720 6
 20  4  9 20  2 45.0000000  0 16G17G15G01R16R18G28G30R15G13G07G19R05
                                R06R17R14R24
  20591987.634    20591987.1614  108211646.785 8
  22678808.864    22678808.5024  119177951.395 7
  23544101.960    23544101.6974  123725106.160 6
  22098053.453    22098053.222   118043849.501 6
  21794652.707    21794653.228   116341358.180 7
  20936532.207    20936531.2374  110022227.018 8
  21098200.006    21098199.2374  110871785.140 8
  19892931.169    19892931.472   106301810.015 8
  21127517.736    21127517.1784  111025860.741 8
  23341060.116    23341059.5894  122658068.173 6
  21713185.076    21713183.6594  114103583.473 7
  22706054.019    22706054.212   121376869.990 7
  22456040.572    22456040.423   119829740.455 6
  19817591.495    19817591.558   106047959.679 8
  21855640.283    21855640.387   116502857.931 7
  21455590.220    21455590.178   114732743.796 6
 20  4  9 20  2 46.0000000  0 16G17G15G01R16R18G28G30R15G13G07G19R05
                                R06R17R14R24
  20591786.403    20591785.9344  108210589.227 8
  22678714.845    22678714.4834  119177457.372 7
  23544077.949    23544077.6864  123724980.836 6
  22097552.872    22097552.588   118041176.081 6
  21793867.694    21793868.225   116337167.601 7
  20936709.544    20936708.5744  110023159.020 8
  21098530.230    21098529.4664  110873520.347 8
  19892868.240    19892868.368   106301473.038 8
  21127626.181    21127625.6234  111026430.035 8
  23341614.652    23341614.1254  122660981.940 6
  21712606.529    21712605.1164  114100543.408 7
  22706697.791    22706697.661   121380310.215 7
  22456105.636    22456105.601   119830086.980 6
  19817391.524    19817391.610   106046890.014 8
  21856042.807    21856042.824   116505002.323 7
  21456060.187    21456060.021   114735255.748 6
 20  4  9 20  2 47.0000000  0 16G17G15G01R16R18G28G30R15G13G07G19R05
                                R06R17R14R24
  20591585.331    20591584.8584  108209532.321 8
  22678621.001    22678620.6394  119176964.066 7
  23544054.354    23544054.0954  123724856.258 6
  22097052.329    22097051.958   118038502.775 6
  21793082.844    21793083.120   116332977.431 7
  20936887.015    20936886.0454  110024091.270 8
  21098860.473    21098859.7044  110875256.063 8
  19892805.328    19892805.385   106301136.447 8
  21127734.661    21127734.0984  111027000.073 8
  23342169.209    23342168.6824  122663896.056 6
  21712028.195    21712026.7784  114097503.835 7
  22707341.384    22707341.216   121383750.813 7
  22456170.589    22456170.712   119830434.387 6
  19817191.744    19817191.902   106045821.313 8
  21856445.185    21856445.149   116507147.038 7
  21456529.856    21456529.862   114737768.513 6
 20  4  9 20  2 48.0000000  0 16G17G15G01R16R18G28G30R15G13G07G19R05
                                R06R17R14R24
  20591384.316    20591383.8434  108208476.031 8
  22678527.159    22678526.7974  119176471.416 7
  23544031.077    23544030.8184  123724732.368 6
  22096551.421    22096551.219   118035829.575 6
  21792297.886    21792298.227   116328787.601 7
  20937064.463    20937063.4894  110025023.717 8
  21099190.811    21099190.0424  110876992.233 8
  19892742.532    19892742.512   106300800.181 8
  21127843.260    21127842.7024  111027570.814 8
  23342723.979    23342723.4474  122666810.496 6
  21711449.892    21711448.4754  114094464.693 7
  22707984.871    22707985.047   121387191.715 7
  22456235.680    22456235.714   119830782.633 6
  19816992.340    19816992.425   106044753.522 8
  21856847.539    21856847.521   116509292.032 7
  21457000.276    21456999.819   114740282.045 6
 20  4  9 20  2 49.0000000  0 16G17G15G01R16R18G28G30R15G13G07G19R05
                                R06R17R14R24
  20591183.336    20591182.8634  108207420.161 8
  22678433.546    22678433.1844  119175979.245 7
  23544007.667    23544007.4044  123724608.949 6
  22096050.733    22096050.814   118033156.290 6
  21791512.873    21791513.472   116324597.968 7
  20937241.866    20937240.8964  110025956.180 8
  21099521.254    21099520.4854  110878728.683 8
  19892679.688    19892679.597   106300464.055 8
  21127951.947    21127951.3844  111028142.070 8
  23343278.602    23343278.0754  122669725.065 6
  21710871.674    21710870.2574  114091425.830 7
  22708628.396    22708628.739   121390632.784 7
  22456301.188    22456301.153   119831131.533 6
  19816792.867    19816793.068   106043686.506 8
  21857249.985    21857249.750   116511437.129 7
  21457470.479    21457469.680   114742796.182 6
 20  4  9 20  2 50.0000000  0 16G17G15G01R16R18G28G30R15G13G07G19R05
                                R06R17R14R24
  20590982.596    20590982.1234  108206365.111 8
  22678340.172    22678339.8104  119175487.956 7
  23543984.481    23543984.2224  123724486.455 6
  22095550.466    22095550.357   118030483.258 6
  21790727.972    21790728.763   116320408.914 7
  20937419.262    20937418.2884  110026889.062 8
  21099851.884    21099851.1154  110880465.800 8
  19892616.791    19892616.791   106300128.429 8
  21128060.809    21128060.2514  111028714.236 8
  23343833.301    23343832.7694  122672640.166 6
  21710293.487    21710292.0704  114088387.619 7
  22709272.631    22709272.574   121394074.418 7
  22456366.193    22456366.897   119831481.473 6
  19816593.603    19816593.918   106042620.642 8
  21857652.364    21857652.109   116513582.674 7
  21457940.506    21457939.811   114745311.358 6
 20  4  9 20  2 51.0000000  0 16G17G15G01R16R18G28G30R15G13G07G19R05
                                R06R17R14R24
  20590781.916    20590781.4434  108205310.517 8
  22678246.643    22678246.2774  119174997.179 7
  23543961.268    23543961.0054  123724364.469 6
  22095050.303    22095050.140   118027810.154 6
  21789943.117    21789944.128   116316220.072 7
  20937596.771    20937595.8014  110027821.973 8
  21100182.476    21100181.7124  110882203.217 8
  19892553.879    19892553.988   106299792.967 8
  21128169.763    21128169.2054  111029286.947 8
  23344388.109    23344387.5734  122675555.423 6
  21709715.368    21709713.9514  114085349.702 7
  22709916.651    22709916.355   121397516.236 7
  22456431.740    22456432.582   119831832.091 6
  19816394.478    19816394.793   106041555.536 8
  21858054.627    21858054.484   116515728.315 7
  21458411.277    21458410.097   114747827.111 6
 20  4  9 20  2 52.0000000  0 16G17G15G01R16R18G28G30R15G13G07G19R05
                                R06R17R14R24
  20590581.277    20590580.8044  108204255.839 8
  22678153.251    22678152.8854  119174506.367 7
  23543937.957    23543937.6894  123724242.495 6
  22094549.375    22094549.685   118025136.411 6
  21789158.514    21789159.313   116312030.910 7
  20937774.171    20937773.1974  110028754.401 8
  21100513.095    21100512.3264  110883940.399 8
  19892491.109    19892491.202   106299457.126 8
  21128278.671    21128278.1134  111029859.671 8
  23344942.751    23344942.2194  122678470.304 6
  21709137.264    21709135.8474  114082311.546 7
  22710560.641    22710560.290   121400957.683 7
  22456497.465    22456498.265   119832182.852 6
  19816195.466    19816195.828   106040490.640 8
  21858456.693    21858456.764   116517873.494 7
  21458881.511    21458880.883   114750342.951 6
 20  4  9 20  2 53.0000000  0 16G17G15G01R16R18G28G30R15G13G07G19R05
                                R06R17R14R24
  20590380.746    20590380.2734  108203201.887 8
  22678060.002    22678059.6364  119174016.324 7
  23543914.875    23543914.6124  123724121.303 6
  22094048.979    22094049.095   118022462.884 6
  21788373.888    21788374.503   116307842.213 7
  20937951.713    20937950.7434  110029687.144 8
  21100843.789    21100843.0204  110885678.165 8
  19892428.180    19892428.348   106299121.722 8
  21128387.751    21128387.1934  111030433.213 8
  23345497.516    23345496.9804  122681385.606 6
  21708559.087    21708557.6704  114079273.955 7
  22711204.541    22711204.141   121404399.586 7
  22456562.939    22456564.109   119832534.550 6
  19815996.487    19815996.943   106039426.818 8
  21858858.867    21858859.040   116520019.061 7
  21459352.793    21459351.766   114752859.664 6
 20  4  9 20  2 54.0000000  0 16G17G15G01R16R18G28G30R15G13G07G19R05
                                R06R17R14R24
  20590180.269    20590179.7964  108202148.703 8
  22677966.808    22677966.4424  119173527.105 7
  23543891.965    23543891.6974  123724000.956 6
  22093548.863    22093548.789   118019789.589 6
  21787589.278    21787589.842   116303654.044 7
  20938129.332    20938128.3624  110030620.226 8
  21101174.656    21101173.8874  110887416.534 8
  19892365.499    19892365.684   106298786.768 8
  21128497.074    21128496.5114  111031007.607 8
  23346052.359    23346051.8234  122684301.396 6
  21707981.236    21707979.8234  114076236.966 7
  22711848.605    22711848.118   121407841.985 7
  22456629.276    22456630.148   119832887.256 6
  19815798.039    19815798.337   106038364.105 8
  21859261.250    21859261.429   116522165.061 7
  21459823.763    21459823.041   114755377.301 6
 20  4  9 20  2 55.0000000  0 16G17G15G01R16R18G28G30R15G13G07G19R05
                                R06R17R14R24
  20589979.967    20589979.4944  108201096.038 8
  22677873.788    22677873.4224  119173038.456 7
  23543869.105    23543868.8334  123723881.206 6
  22093048.967    22093048.445   118017116.247 6
  21786804.796    21786805.272   116299466.164 7
  20938306.924    20938305.9544  110031553.420 8
  21101505.520    21101504.7514  110889155.280 8
  19892302.865    19892303.080   106298452.036 8
  21128606.502    21128605.9444  111031582.604 8
  23346607.149    23346606.6134  122687217.382 6
  21707403.458    21707402.0454  114073200.329 7
  22712492.649    22712492.295   121411284.602 7
  22456695.277    22456696.501   119833240.733 6
  19815599.538    19815600.020   106037302.246 8
  21859663.829    21859663.825   116524311.243 7
  21460294.570    21460294.381   114757895.615 6
 20  4  9 20  2 56.0000000  0 16G17G15G01R16R18G28G30R15G13G07G19R05
                                R06R17R14R24
  20589779.751    20589779.2784  108200043.848 8
  22677780.952    22677780.5904  119172550.337 7
  23543846.340    23543846.0724  123723762.029 6
  22092548.380    22092548.075   118014442.804 6
  21786020.315    21786020.659   116295278.512 7
  20938484.494    20938483.5204  110032486.694 8
  21101836.416    21101835.6474  110890894.357 8
  19892240.248    19892240.415   106298117.538 8
  21128716.032    21128715.4744  111032158.182 8
  23347162.021    23347161.4804  122690133.580 6
  21706825.696    21706824.2794  114070164.020 7
  22713136.740    22713136.182   121414727.402 7
  22456762.128    22456762.891   119833594.936 6
  19815401.250    19815401.645   106036241.163 8
  21860066.624    21860066.352   116526457.574 7
  21460765.038    21460765.140   114760414.530 6
 20  4  9 20  2 57.0000000  0 16G17G15G01R16R18G28G30R15G13G07G19R05
                                R06R17R14R24
  20589579.743    20589579.2704  108198992.589 8
  22677688.292    22677687.9264  119172063.195 7
  23543823.724    23543823.4524  123723643.832 6
  22092047.603    22092047.686   118011769.776 6
  21785236.059    21785236.313   116291091.554 7
  20938662.139    20938661.1694  110033420.478 8
  21102167.547    21102166.7784  110892634.206 8
  19892177.772    19892177.932   106297783.690 8
  21128825.777    21128825.2144  111032734.774 8
  23347717.100    23347716.5594  122693050.389 6
  21706248.136    21706246.7194  114067128.471 7
  22713780.833    22713780.519   121418170.831 7
  22456828.658    22456829.575   119833950.311 6
  19815203.256    19815203.681   106035181.309 8
  21860469.559    21860469.132   116528604.491 7
  21461236.164    21461236.291   114762934.561 6
 20  4  9 20  2 58.0000000  0 16G17G15G01R16R18G28G30R15G13G07G19R05
                                R06R17R14R24
  20589379.774    20589379.3014  108197941.470 8
  22677595.728    22677595.3624  119171576.264 7
  23543801.211    23543800.9434  123723525.865 6
  22091547.455    22091547.232   118009096.369 6
  21784451.577    21784451.899   116286904.493 7
  20938839.742    20938838.7684  110034353.997 8
  21102498.650    21102497.8814  110894374.050 8
  19892115.428    19892115.376   106297449.669 8
  21128935.507    21128934.9494  111033311.611 8
  23348272.068    23348271.5234  122695967.071 6
  21705670.500    21705669.0874  114064092.916 7
  22714424.787    22714424.708   121421614.148 7
  22456895.685    22456896.164   119834306.096 6
  19815005.321    19815005.724   106034121.937 8
  21860872.179    21860872.000   116530751.186 7
  21461707.322    21461707.276   114765454.902 6
 20  4  9 20  2 59.0000000  0 16G17G15G01R16R18G28G30R15G13G07G19R05
                                R06R17R14R24
  20589179.977    20589179.5044  108196891.392 8
  22677503.272    22677502.9064  119171090.416 7
  23543779.034    23543778.7624  123723409.010 6
  22091046.927    22091046.801   118006423.497 6
  21783667.245    21783667.680   116282718.236 7
  20939017.451    20939016.4814  110035288.144 8
  21102829.934    21102829.1654  110896114.784 8
  19892052.951    19892052.922   106297116.360 8
  21129045.438    21129044.8804  111033889.568 8
  23348827.380    23348826.8394  122698884.470 6
  21705093.110    21705091.6934  114061058.224 7
  22715068.687    22715068.796   121425058.246 7
  22456962.795    22456963.070   119834663.123 6
  19814807.586    19814807.968   106033063.960 8
  21861274.976    21861274.975   116532898.539 7
  21462178.341    21462178.577   114767976.471 6
 20  4  9 20  3  0.0000000  0 16G17G15G01R16R18G28G30R15G13G07G19R05
                                R06R17R14R24
  20588980.162    20588979.6894  108195841.598 8
  22677410.861    22677410.4954  119170604.918 7
  23543756.846    23543756.5784  123723292.524 6
  22090546.498    22090546.666   118003750.391 6
  21782882.901    21782883.588   116278532.011 7
  20939195.159    20939194.1894  110036222.162 8
  21103161.264    21103160.4954  110897855.652 8
  19891990.627    19891990.581   106296783.024 8
  21129155.534    21129154.9764  111034467.899 8
  23349382.635    23349382.0904  122701801.884 6
  21704515.716    21704514.3034  114058023.663 7
  22715712.822    22715713.138   121428502.386 7
  22457030.420    22457030.299   119835020.643 6
  19814609.837    19814610.468   106032006.601 8
  21861677.945    21861678.023   116535045.839 7
  21462650.183    21462650.018   114770498.496 6
 20  4  9 20  3  1.0000000  0 16G17G15G01R16R18G28G30R15G13G07G19R05
                                R06R17R14R24
  20588780.354    20588779.8814  108194791.716 8
  22677318.450    22677318.0884  119170119.362 7
  23543734.512    23543734.2404  123723176.011 6
  22090045.466    22090046.137   118001076.639 6
  21782098.610    21782099.289   116274345.442 7
  20939372.763    20939371.7934  110037155.678 8
  21103492.495    21103491.7264  110899596.277 8
  19891928.171    19891928.137   106296449.312 8
  21129265.593    21129265.0394  111035046.224 8
  23349937.744    23349937.2034  122704718.903 6
  21703938.112    21703936.6954  114054988.842 7
  22716357.009    22716357.415   121431946.138 7
  22457097.141    22457097.129   119835378.297 6
  19814412.072    19814412.896   106030949.447 8
  21862080.787    21862080.837   116537192.723 7
  21463121.588    21463121.231   114773020.577 6
 20  4  9 20  3  2.0000000  0 16G17G15G01R16R18G28G30R15G13G07G19R05
                                R06R17R14R24
  20588580.796    20588580.3234  108193742.794 8
  22677226.247    22677225.8854  119169634.832 7
  23543712.579    23543712.3114  123723060.528 6
  22089545.200    22089545.665   117998403.315 6
  21781314.375    21781315.178   116270159.624 7
  20939550.502    20939549.5284  110038089.743 8
  21103823.843    21103823.0744  110901337.712 8
  19891865.934    19891865.844   106296116.295 8
  21129375.868    21129375.3104  111035625.618 8
  23350492.848    23350492.3074  122707636.578 6
  21703360.685    21703359.2724  114051954.826 7
  22717001.293    22717001.876   121435390.565 7
  22457164.569    22457164.518   119835737.143 6
  19814214.555    19814215.452   106029893.590 8
  21862483.672    21862483.727   116539340.224 7
  21463593.718    21463592.907   114775543.796 6
 20  4  9 20  3  3.0000000  0 16G17G15G01R16R18G28G30R15G13G07G19R05
                                R06R17R14R24
  20588381.295    20588380.8224  108192694.481 8
  22677134.251    22677133.8854  119169150.960 7
  23543690.662    23543690.3944  123722945.752 6
  22089045.281    22089045.201   117995730.038 6
  21780530.430    21780531.133   116265974.177 7
  20939728.380    20939727.4064  110039024.008 8
  21104155.287    21104154.5184  110903079.612 8
  19891803.609    19891803.585   106295783.586 8
  21129486.264    21129485.7064  111036205.708 8
  23351048.035    23351047.4944  122710554.575 6
  21702783.375    21702781.9624  114048921.261 7
  22717645.238    22717646.398   121438835.282 7
  22457231.916    22457231.905   119836096.811 6
  19814017.550    19814018.267   106028838.662 8
  21862886.760    21862886.585   116541487.979 7
  21464065.380    21464065.258   114778067.755 6
 20  4  9 20  3  4.0000000  0 16G17G15G01R16R18G28G30R15G13G07G19R05
                                R06R17R14R24
  20588181.952    20588181.4834  108191647.108 8
  22677042.397    22677042.0354  119168668.089 7
  23543669.054    23543668.7864  123722831.994 6
  22088544.369    22088544.573   117993057.153 6
  21779746.406    21779747.174   116261789.445 7
  20939906.301    20939905.3314  110039958.801 8
  21104486.860    21104486.0914  110904822.293 8
  19891741.382    19891741.436   106295451.518 8
  21129596.775    21129596.2174  111036786.830 8
  23351603.453    23351602.9124  122713473.230 6
  21702206.232    21702204.8194  114045888.474 7
  22718290.127    22718290.930   121442280.664 7
  22457299.577    22457299.706   119836457.689 6
  19813820.800    19813821.303   106027784.992 8
  21863289.794    21863289.538   116543636.342 7
  21464537.927    21464538.076   114780592.819 6
 20  4  9 20  3  5.0000000  0 16G17G15G01R16R18G28G30R15G13G07G19R05
                                R06R17R14R24
  20587982.731    20587982.2624  108190600.431 8
  22676950.680    22676950.3184  119168185.949 7
  23543647.588    23543647.3164  123722718.998 6
  22088044.339    22088044.121   117990384.424 6
  21778962.595    21778963.252   116257605.152 7
  20940084.181    20940083.2074  110040893.873 8
  21104818.581    21104817.8124  110906565.525 8
  19891679.237    19891679.417   106295119.836 8
  21129707.529    21129706.9754  111037368.736 8
  23352158.887    23352158.3464  122716392.271 6
  21701629.166    21701627.7534  114042856.220 7
  22718934.258    22718935.539   121445726.474 7
  22457367.649    22457367.475   119836819.459 6
  19813623.986    19813624.670   106026732.377 8
  21863692.964    21863692.545   116545785.056 7
  21465010.387    21465010.948   114783118.733 6
 20  4  9 20  3  6.0000000  0 16G17G15G01R16R18G28G30R15G13G07G19R05
                                R06R17R14R24
  20587783.751    20587783.2784  108189554.830 8
  22676859.100    22676858.7384  119167704.959 7
  23543626.292    23543626.0244  123722607.160 6
  22087544.052    22087543.878   117987712.281 6
  21778179.146    21778179.571   116253421.680 7
  20940262.197    20940261.2234  110041829.611 8
  21105150.526    21105149.7574  110908309.677 8
  19891617.285    19891617.479   106294788.948 8
  21129818.526    21129817.9724  111037951.808 8
  23352714.622    23352714.0814  122719312.106 6
  21701052.353    21701050.9404  114039824.896 7
  22719579.256    22719580.292   121449173.117 7
  22457436.386    22457435.285   119837182.569 6
  19813427.580    19813428.284   106025681.189 8
  21864096.135    21864095.736   116547934.486 7
  21465483.181    21465483.324   114785645.890 6
 20  4  9 20  3  7.0000000  0 16G17G15G01R16R18G28G30R15G13G07G19R05
                                R06R17R14R24
  20587584.899    20587584.4264  108188509.919 8
  22676767.763    22676767.4014  119167224.704 7
  23543605.249    23543604.9774  123722496.089 6
  22087043.648    22087043.667   117985040.286 6
  21777395.470    21777396.007   116249238.647 7
  20940440.286    20940439.3124  110042765.618 8
  21105482.559    21105481.7904  110910054.367 8
  19891555.402    19891555.661   106294458.465 8
  21129929.631    21129929.0734  111038535.648 8
  23353270.337    23353269.7964  122722232.324 6
  21700475.660    21700474.2474  114036794.079 7
  22720223.773    22720225.272   121452620.206 7
  22457504.914    22457503.431   119837546.611 6
  19813231.381    19813232.045   106024630.988 8
  21864499.354    21864499.057   116550084.247 7
  21465955.737    21465955.995   114788173.875 6
 20  4  9 20  3  8.0000000  0 16G17G15G01R16R18G28G30R15G13G07G19R05
                                R06R17R14R24
  20587386.185    20587385.7124  108187465.558 8
  22676676.505    22676676.1394  119166745.041 7
  23543584.255    23543583.9834  123722385.622 6
  22086543.028    22086543.425   117982368.279 6
  21776611.960    21776612.439   116245055.909 7
  20940618.452    20940617.4784  110043701.777 8
  21105814.684    21105813.9154  110911799.467 8
  19891493.527    19891493.943   106294128.248 8
  21130040.825    21130040.2714  111039120.136 8
  23353826.134    23353825.5934  122725152.804 6
  21699899.056    21699897.6434  114033763.672 7
  22720869.137    22720870.124   121456067.576 7
  22457573.686    22457571.685   119837911.425 6
  19813035.137    19813035.931   106023581.642 8
  21864902.538    21864902.405   116552234.231 7
  21466428.601    21466428.823   114790702.642 6
 20  4  9 20  3  9.0000000  0 16G17G15G01R16R18G28G30R15G13G07G19R05
                                R06R17R14R24
  20587187.355    20587186.8824  108186420.661 8
  22676585.100    22676584.7384  119166264.909 7
  23543562.949    23543562.6774  123722274.703 6
  22086041.997    22086043.064   117979695.176 6
  21775828.290    21775828.823   116240872.416 7
  20940796.446    20940795.4724  110044636.995 8
  21106146.646    21106145.8774  110913543.868 8
  19891431.679    19891432.019   106293797.168 8
  21130152.016    21130151.4584  111039704.187 8
  23354381.589    23354381.0484  122728072.444 6
  21699322.214    21699320.8014  114030732.562 7
  22721514.059    22721514.833   121459514.090 7
  22457641.675    22457639.922   119838275.935 6
  19812839.138    19812839.770   106022532.052 8
  21865305.641    21865305.678   116554383.341 7
  21466901.190    21466901.151   114793230.987 6
 20  4  9 20  3 10.0000000  0 16G17G15G01R16R18G28G30R15G13G07G19R05
                                R06R17R14R24
  20586988.630    20586988.1574  108185376.332 8
  22676493.815    22676493.4534  119165785.395 7
  23543541.933    23543541.6614  123722164.422 6
  22085541.217    22085542.934   117977022.114 6
  21775044.617    21775045.094   116236689.276 7
  20940974.452    20940973.4824  110045572.356 8
  21106478.635    21106477.8664  110915288.688 8
  19891369.733    19891370.068   106293466.354 8
  21130263.284    21130262.7264  111040288.889 8
  23354937.312    23354936.7714  122730992.374 6
  21698745.443    21698744.0304  114027701.857 7
  22722158.792    22722159.488   121462960.855 7
  22457709.740    22457708.350   119838641.221 6
  19812643.127    19812643.782   106021483.381 8
  21865708.844    21865708.927   116556532.660 7
  21467373.057    21467373.877   114795760.072 6
 20  4  9 20  3 11.0000000  0 16G17G15G01R16R18G28G30R15G13G07G19R05
                                R06R17R14R24
  20586790.044    20586789.5714  108184332.832 8
  22676402.643    22676402.2814  119165306.760 7
  23543521.188    23543520.9164  123722055.051 6
  22085041.102    22085042.780   117974349.382 6
  21774261.163    21774261.518   116232506.751 7
  20941152.574    20941151.6044  110046508.140 8
  21106810.740    21106809.9714  110917034.178 8
  19891307.875    19891308.280   106293136.099 8
  21130374.749    21130374.1914  111040874.512 8
  23355493.293    23355492.7574  122733912.817 6
  21698168.823    21698167.4104  114024671.819 7
  22722803.519    22722804.435   121466408.144 7
  22457777.711    22457776.874   119839007.587 6
  19812447.370    19812447.984   106020435.899 8
  21866112.249    21866112.340   116558682.440 7
  21467845.899    21467846.913   114798290.143 6
 20  4  9 20  3 12.0000000  0 16G17G15G01R16R18G28G30R15G13G07G19R05
                                R06R17R14R24
  20586591.671    20586591.1984  108183290.169 8
  22676311.689    22676311.3274  119164829.021 7
  23543500.729    23543500.4614  123721946.611 6
  22084541.320    22084542.428   117971676.957 6
  21773477.552    21773478.109   116228324.816 7
  20941330.784    20941329.8144  110047444.355 8
  21107142.929    21107142.1604  110918780.360 8
  19891246.028    19891246.613   106292806.389 8
  21130486.347    21130485.7934  111041461.067 8
  23356049.077    23356048.5364  122736833.801 6
  21697592.275    21697590.8624  114021642.455 7
  22723449.037    22723449.508   121469856.001 7
  22457846.245    22457845.675   119839374.996 6
  19812251.915    19812252.445   106019389.577 8
  21866515.568    21866515.753   116560832.710 7
  21468319.443    21468320.360   114800821.211 6
 20  4  9 20  3 13.0000000  0 16G17G15G01R16R18G28G30R15G13G07G19R05
                                R06R17R14R24
  20586393.364    20586392.8914  108182247.928 8
  22676221.004    22676220.6474  119164351.758 7
  23543480.223    23543479.9514  123721838.665 6
  22084041.098    22084042.366   117969004.446 6
  21772694.283    21772694.667   116224143.027 7
  20941509.060    20941508.0864  110048380.574 8
  21107475.257    21107474.4884  110920526.812 8
  19891184.493    19891184.900   106292476.810 8
  21130598.045    21130597.4914  111042048.132 8
  23356604.907    23356604.3664  122739754.926 6
  21697015.773    21697014.3654  114018613.359 7
  22724093.942    22724094.517   121473304.019 7
  22457914.529    22457914.529   119839743.073 6
  19812056.392    19812056.990   106018344.005 8
  21866918.952    21866919.102   116562983.073 7
  21468793.095    21468793.770   114803352.874 6
 20  4  9 20  3 14.0000000  0 16G17G15G01R16R18G28G30R15G13G07G19R05
                                R06R17R14R24
  20586195.190    20586194.7174  108181206.365 8
  22676130.480    22676130.1234  119163875.221 7
  23543460.122    23543459.8504  123721731.482 6
  22083541.354    22083542.139   117966332.072 6
  21771910.940    21771911.372   116219961.678 7
  20941687.336    20941686.3664  110049317.079 8
  21107807.693    21107806.9244  110922273.807 8
  19891122.953    19891123.365   106292147.640 8
  21130709.951    21130709.3974  111042635.982 8
  23357160.933    23357160.3924  122742676.437 6
  21696439.437    21696438.0294  114015584.785 7
  22724738.991    22724739.704   121476752.478 7
  22457983.880    22457983.597   119840112.062 6
  19811861.205    19811861.848   106017299.433 8
  21867322.474    21867322.576   116565133.786 7
  21469267.055    21469267.404   114805885.347 6
 20  4  9 20  3 15.0000000  0 16G17G15G01R16R18G28G30R15G13G07G19R05
                                R06R17R14R24
  20585997.039    20585996.5664  108180165.274 8
  22676039.962    22676039.6054  119163399.206 7
  23543439.831    23543439.5594  123721624.822 6
  22083041.356    22083041.686   117963659.584 6
  21771127.611    21771128.094   116215780.561 7
  20941865.566    20941864.5964  110050253.627 8
  21108140.259    21108139.4904  110924021.116 8
  19891061.391    19891061.798   106291818.617 8
  21130821.930    21130821.3724  111043224.390 8
  23357717.022    23357716.4814  122745598.087 6
  21695863.223    21695861.8104  114012556.522 7
  22725384.195    22725384.913   121480201.106 7
  22458052.563    22458052.789   119840481.739 6
  19811666.125    19811666.736   106016255.635 8
  21867726.087    21867726.008   116567284.617 7
  21469740.842    21469741.555   114808418.467 6
 20  4  9 20  3 16.0000000  0 16G17G15G01R16R18G28G30R15G13G07G19R05
                                R06R17R14R24
  20585799.009    20585798.5364  108179124.926 8
  22675949.635    22675949.2784  119162923.994 7
  23543419.628    23543419.3514  123721518.988 6
  22082541.751    22082541.298   117960987.323 6
  21770344.554    21770344.894   116211599.954 7
  20942043.840    20942042.8704  110051190.506 8
  21108472.820    21108472.0514  110925769.005 8
  19890999.908    19891000.246   106291490.023 8
  21130934.055    21130933.4974  111043813.624 8
  23358273.094    23358272.5494  122748520.220 6
  21695287.056    21695285.6484  114009528.826 7
  22726028.958    22726030.042   121483650.173 7
  22458122.482    22458121.991   119840852.409 6
  19811471.405    19811471.751   106015212.916 8
  21868129.583    21868129.585   116569435.848 7
  21470215.032    21470215.726   114810952.479 6
 20  4  9 20  3 17.0000000  0 16G17G15G01R16R18G28G30R15G13G07G19R05
                                R06R17R14R24
  20585601.179    20585600.7064  108178085.438 8
  22675859.404    22675859.0474  119162449.685 7
  23543399.583    23543399.3064  123721414.104 6
  22082041.618    22082040.965   117958315.393 6
  21769561.646    21769561.878   116207419.998 7
  20942222.203    20942221.2334  110052127.841 8
  21108805.579    21108804.8104  110927517.615 8
  19890938.686    19890938.896   106291161.998 8
  21131046.359    21131045.8014  111044403.815 8
  23358829.253    23358828.7084  122751442.891 6
  21694711.073    21694709.6604  114006501.848 7
  22726674.318    22726675.562   121487099.798 7
  22458191.493    22458191.812   119841224.170 6
  19811276.892    19811277.241   106014171.409 8
  21868533.178    21868533.334   116571587.602 7
  21470688.823    21470689.768   114813487.537 6
 20  4  9 20  3 18.0000000  0 16G17G15G01R16R18G28G30R15G13G07G19R05
                                R06R17R14R24
  20585403.367    20585402.8894  108177046.174 8
  22675769.165    22675768.8084  119161975.663 7
  23543379.711    23543379.4344  123721309.517 6
  22081540.773    22081540.711   117955643.177 6
  21768778.703    21768778.780   116203240.036 7
  20942400.520    20942399.5504  110053064.995 8
  21109138.287    21109137.5184  110929266.300 8
  19890877.259    19890877.425   106290833.916 8
  21131158.710    21131158.1524  111044994.322 8
  23359385.377    23359384.8324  122754365.515 6
  21694135.134    21694133.7264  114003474.937 7
  22727319.431    22727320.849   121490549.374 7
  22458261.303    22458261.395   119841596.372 6
  19811082.300    19811082.644   106013130.450 8
  21868936.801    21868936.938   116573739.231 7
  21471163.204    21471163.997   114816022.971 6
 20  4  9 20  3 19.0000000  0 16G17G15G01R16R18G28G30R15G13G07G19R05
                                R06R17R14R24
  20585205.811    20585205.3384  108176007.819 8
  22675679.111    22675678.7544  119161502.598 7
  23543359.966    23543359.6894  123721205.904 6
  22081040.670    22081040.602   117952971.328 6
  21767995.986    21767995.918   116199060.739 7
  20942578.923    20942577.9534  110054002.627 8
  21109471.166    21109470.3974  110931015.745 8
  19890816.035    19890816.184   106290506.482 8
  21131271.300    21131270.7424  111045585.823 8
  23359941.622    23359941.0724  122757288.748 6
  21693559.298    21693557.8904  114000448.768 7
  22727964.976    22727966.477   121493999.616 7
  22458331.640    22458331.427   119841969.742 6
  19810887.866    19810888.462   106012090.717 8
  21869340.293    21869340.678   116575891.407 7
  21471637.599    21471638.604   114818559.467 6
 20  4  9 20  3 20.0000000  0 16G17G15G01R16R18G28G30R15G13G07G19R05
                                R06R17R14R24
  20585008.259    20585007.7814  108174969.667 8
  22675589.195    22675588.8384  119161029.801 7
  23543340.280    23543340.0034  123721102.577 6
  22080540.262    22080540.474   117950299.118 6
  21767212.978    21767212.915   116194881.382 7
  20942757.315    20942756.3454  110054940.068 8
  21109804.096    21109803.3274  110932765.236 8
  19890754.741    19890754.825   106290178.968 8
  21131383.929    21131383.3754  111046177.623 8
  23360497.869    23360497.3194  122760211.884 6
  21692983.459    21692982.0514  113997422.657 7
  22728610.656    22728611.912   121497449.794 7
  22458401.965    22458401.239   119842343.547 6
  19810693.863    19810694.224   106011051.501 8
  21869743.846    21869744.439   116578043.443 7
  21472112.378    21472113.146   114821096.345 6
 20  4  9 20  3 21.0000000  0 16G17G15G01R16R18G28G30R15G13G07G19R05
                                R06R17R14R24
  20584810.927    20584810.4494  108173932.764 8
  22675499.405    22675499.0484  119160558.298 7
  23543320.843    23543320.5664  123721000.587 6
  22080040.075    22080040.359   117947627.632 6
  21766430.408    21766430.144   116190703.038 7
  20942935.818    20942934.8484  110055878.327 8
  21110137.187    21110136.4184  110934515.829 8
  19890693.637    19890693.729   106289852.405 8
  21131496.798    21131496.2404  111046770.755 8
  23361054.360    23361053.8064  122763135.979 6
  21692407.866    21692406.4584  113994397.617 7
  22729256.475    22729257.542   121500900.915 7
  22458472.564    22458471.747   119842718.847 6
  19810499.976    19810500.379   106010013.894 8
  21870147.696    21870148.419   116580196.396 7
  21472586.739    21472587.567   114823634.617 6
 20  4  9 20  3 22.0000000  0 16G17G15G01R16R18G28G30R15G13G07G19R05
                                R06R17R14R24
  20584613.675    20584613.2024  108172896.255 8
  22675409.790    22675409.4374  119160087.234 7
  23543301.523    23543301.2424  123720899.027 6
  22079539.825    22079540.268   117944956.010 6
  21765647.609    21765647.362   116186524.835 7
  20943114.378    20943113.4084  110056816.564 8
  21110470.352    21110469.5834  110936266.657 8
  19890632.528    19890632.568   106289525.910 8
  21131609.714    21131609.1564  111047364.369 8
  23361610.728    23361610.1744  122766060.156 6
  21691832.263    21691830.8554  113991372.810 7
  22729902.041    22729902.996   121504352.160 7
  22458542.683    22458542.151   119843094.755 6
  19810306.031    19810306.496   106008976.990 8
  21870551.770    21870552.379   116582349.385 7
  21473060.941    21473061.968   114826173.449 6
 20  4  9 20  3 23.0000000  0 16G17G15G01R16R18G28G30R15G13G07G19R05
                                R06R17R14R24
  20584416.523    20584416.0504  108171860.085 8
  22675320.275    22675319.9224  119159616.577 7
  23543282.308    23543282.0274  123720797.912 6
  22079039.138    22079040.080   117942284.199 6
  21764864.763    21764864.598   116182346.746 7
  20943292.855    20943291.8854  110057754.743 8
  21110803.627    21110802.8634  110938017.677 8
  19890571.393    19890571.475   106289199.462 8
  21131722.777    21131722.2234  111047958.417 8
  23362167.191    23362166.6334  122768984.401 6
  21691256.743    21691255.3354  113988348.196 7
  22730547.694    22730548.715   121507803.470 7
  22458613.336    22458612.747   119843471.267 6
  19810112.346    19810112.837   106007940.740 8
  21870955.573    21870956.406   116584502.357 7
  21473536.016    21473536.665   114828712.780 6
 20  4  9 20  3 24.0000000  0 16G17G15G01R16R18G28G30R15G13G07G19R05
                                R06R17R14R24
  20584219.417    20584218.9394  108170824.353 8
  22675230.744    22675230.3914  119159146.393 7
  23543262.976    23543262.6994  123720697.317 6
  22078538.650    22078539.925   117939612.285 6
  21764081.861    21764081.885   116178168.823 7
  20943471.408    20943470.4344  110058692.938 8
  21111136.915    21111136.1464  110939768.976 8
  19890510.301    19890510.286   106288873.145 8
  21131835.853    21131835.2954  111048552.989 8
  23362723.373    23362722.8194  122771908.779 6
  21690681.250    21690679.8424  113985323.858 7
  22731193.524    22731194.288   121511254.935 7
  22458684.040    22458683.636   119843848.426 6
  19809918.804    19809919.248   106006905.225 8
  21871359.415    21871360.368   116586655.412 7
  21474010.964    21474011.418   114831252.690 6
 20  4  9 20  3 25.0000000  0 16G17G15G01R16R18G28G30R15G13G07G19R05
                                R06R17R14R24
  20584022.482    20584022.0094  108169789.442 8
  22675141.356    22675141.0034  119158677.089 7
  23543244.026    23543243.7454  123720597.626 6
  22078038.740    22078039.798   117936940.683 6
  21763299.122    21763299.304   116173991.496 7
  20943650.025    20943649.0554  110059631.541 8
  21111470.316    21111469.5474  110941520.950 8
  19890449.299    19890449.348   106288547.379 8
  21131949.213    21131948.6554  111049148.474 8
  23363280.018    23363279.4604  122774833.686 6
  21690105.859    21690104.4514  113982300.185 7
  22731838.984    22731840.050   121514706.944 7
  22458754.931    22458754.316   119844226.672 6
  19809725.540    19809726.058   106005870.887 8
  21871763.540    21871764.430   116588808.954 7
  21474485.933    21474486.467   114833793.597 6
 20  4  9 20  3 26.0000000  0 16G17G15G01R16R18G28G30R15G13G07G19R05
                                R06R17R14R24
  20583825.506    20583825.0334  108168754.227 8
  22675052.051    22675051.6984  119158207.537 7
  23543224.786    23543224.5054  123720497.693 6
  22077538.745    22077539.546   117934268.205 6
  21762516.405    21762516.549   116169813.628 7
  20943828.475    20943827.5014  110060569.446 8
  21111803.635    21111802.8664  110943272.477 8
  19890388.309    19890388.277   106288221.005 8
  21132062.497    21132061.9434  111049743.756 8
  23363836.382    23363835.8244  122777757.980 6
  21689530.323    21689528.9154  113979276.063 7
  22732484.826    22732485.755   121518158.347 7
  22458825.840    22458825.091   119844604.799 6
  19809532.186    19809532.765   106004836.587 8
  21872167.429    21872168.350   116590961.844 7
  21474960.176    21474961.449   114836334.332 6
 20  4  9 20  3 27.0000000  0 16G17G15G01R16R18G28G30R15G13G07G19R05
                                R06R17R14R24
  20583628.564    20583628.0864  108167719.437 8
  22674962.805    22674962.4574  119157738.457 7
  23543205.618    23543205.3374  123720398.271 6
  22077038.828    22077039.282   117931595.611 6
  21761733.721    21761733.875   116165635.950 7
  20944006.928    20944005.9584  110061507.338 8
  21112136.985    21112136.2164  110945024.262 8
  19890327.225    19890327.144   106287894.756 8
  21132175.932    21132175.3784  111050339.539 8
  23364392.869    23364392.3154  122780682.415 6
  21688954.935    21688953.5314  113976252.177 7
  22733130.512    22733131.352   121521609.851 7
  22458897.018    22458896.058   119844983.552 6
  19809339.079    19809339.576   106003803.040 8
  21872571.414    21872572.234   116593114.812 7
  21475435.922    21475436.826   114838875.666 6
 20  4  9 20  3 28.0000000  0 16G17G15G01R16R18G28G30R15G13G07G19R05
                                R06R17R14R24
  20583431.860    20583431.3824  108166685.778 8
  22674873.839    22674873.4914  119157270.557 7
  23543186.988    23543186.7114  123720300.043 6
  22076538.908    22076539.146   117928923.625 6
  21760951.178    21760951.414   116161459.169 7
  20944185.497    20944184.5274  110062445.958 8
  21112470.536    21112469.7674  110946777.032 8
  19890266.376    19890266.157   106287569.348 8
  21132289.530    21132288.9724  111050936.548 8
  23364949.614    23364949.0564  122783607.670 6
  21688379.734    21688378.3304  113973229.277 7
  22733776.246    22733777.124   121525062.232 7
  22458968.035    22458967.495   119845363.670 6
  19809146.368    19809146.690   106002770.949 8
  21872975.485    21872976.283   116595268.570 7
  21475911.478    21475912.542   114841418.285 6
 20  4  9 20  3 29.0000000  0 16G17G15G01R16R18G28G30R15G13G07G19R05
                                R06R17R14R24
  20583235.328    20583234.8554  108165652.988 8
  22674785.091    22674784.7434  119156803.586 7
  23543168.589    23543168.3124  123720202.764 6
  22076039.026    22076039.061   117926251.970 6
  21760168.971    21760169.147   116157283.028 7
  20944364.263    20944363.2894  110063385.035 8
  21112804.228    21112803.4594  110948530.522 8
  19890205.560    19890205.386   106287244.506 8
  21132403.281    21132402.7234  111051534.519 8
  23365506.465    23365505.9074  122786533.504 6
  21687804.554    21687803.1464  113970207.092 7
  22734422.151    22734423.169   121528515.218 7
  22459039.616    22459038.874   119845744.879 6
  19808953.721    19808954.105   106001740.030 8
  21873379.645    21873380.440   116597422.832 7
  21476388.859    21476388.589   114843961.943 6
 20  4  9 20  3 30.0000000  0 16G17G15G01R16R18G28G30R15G13G07G19R05
                                R06R17R14R24
  20583038.871    20583038.3984  108164620.759 8
  22674696.393    22674696.0404  119156337.220 7
  23543150.276    23543149.9994  123720106.104 6
  22075539.016    22075538.800   117923580.336 6
  21759386.893    21759386.875   116153107.214 7
  20944543.067    20944542.0974  110064324.259 8
  21113137.933    21113137.1694  110950284.405 8
  19890144.759    19890144.633   106286919.916 8
  21132517.092    21132516.5344  111052133.133 8
  23366063.430    23366062.8674  122789459.587 6
  21687229.437    21687228.0294  113967185.283 7
  22735068.034    22735069.187   121531968.485 7
  22459110.706    22459110.364   119846126.885 6
  19808761.254    19808761.618   106000710.002 8
  21873783.841    21873784.641   116599577.287 7
  21476865.097    21476864.605   114846506.310 6
 20  4  9 20  3 31.0000000  0 16G17G15G01R16R18G28G30R15G13G07G19R05
                                R06R17R14R24
  20582842.556    20582842.0784  108163589.163 8
  22674607.850    22674607.5024  119155871.553 7
  23543132.259    23543131.9874  123720010.169 6
  22075038.527    22075038.720   117920908.838 6
  21758604.643    21758604.747   116148931.796 7
  20944721.884    20944720.9104  110065263.701 8
  21113471.786    21113471.0174  110952038.788 8
  19890083.991    19890083.907   106286595.661 8
  21132631.099    21132630.5454  111052732.458 8
  23366620.404    23366619.8414  122792386.028 6
  21686654.522    21686653.1184  113964163.965 7
  22735714.061    22735715.183   121535422.104 7
  22459182.218    22459182.070   119846509.728 6
  19808568.897    19808569.252   105999680.943 8
  21874188.233    21874188.942   116601732.039 7
  21477341.020    21477340.688   114849051.491 6
 20  4  9 20  3 32.0000000  0 16G17G15G01R16R18G28G30R15G13G07G19R05
                                R06R17R14R24
  20582646.321    20582645.8484  108162557.996 8
  22674519.422    22674519.0694  119155406.353 7
  23543114.150    23543113.8784  123719914.719 6
  22074538.596    22074538.541   117918237.192 6
  21757822.427    21757822.637   116144756.556 7
  20944900.714    20944899.7444  110066203.162 8
  21113805.670    21113804.9064  110953793.445 8
  19890023.312    19890023.321   106286271.550 8
  21132745.251    21132744.6974  111053332.317 8
  23367177.451    23367176.8884  122795312.590 6
  21686079.721    21686078.3174  113961142.912 7
  22736360.256    22736361.336   121538875.841 7
  22459254.363    22459253.959   119846893.255 6
  19808376.785    19808377.195   105998652.643 8
  21874592.623    21874593.413   116603886.892 7
  21477816.883    21477816.705   114851597.248 6
 20  4  9 20  3 33.0000000  0 16G17G15G01R16R18G28G30R15G13G07G19R05
                                R06R17R14R24
  20582450.121    20582449.6484  108161526.971 8
  22674430.878    22674430.5254  119154941.359 7
  23543096.209    23543095.9324  123719819.532 6
  22074038.426    22074038.244   117915565.128 6
  21757040.202    21757040.480   116140581.193 7
  20945079.333    20945078.3594  110067142.352 8
  21114139.475    21114138.7064  110955548.083 8
  19889962.590    19889962.642   106285947.284 8
  21132859.517    21132858.9594  111053932.401 8
  23367734.467    23367733.9004  122798239.004 6
  21685504.899    21685503.4914  113958121.848 7
  22737006.072    22737007.250   121542329.409 7
  22459326.190    22459325.560   119847277.129 6
  19808184.829    19808185.126   105997624.793 8
  21874996.957    21874997.721   116606041.530 7
  21478292.269    21478292.675   114854143.297 6
 20  4  9 20  3 34.0000000  0 16G17G15G01R16R18G28G30R15G13G07G19R05
                                R06R17R14R24
  20582254.039    20582253.5664  108160496.783 8
  22674342.519    22674342.1664  119154477.250 7
  23543078.299    23543078.0274  123719725.221 6
  22073538.090    22073538.096   117912893.349 6
  21756258.114    21756258.400   116136406.460 7
  20945258.031    20945257.0614  110068081.969 8
  21114473.459    21114472.6904  110957303.410 8
  19889901.970    19889902.045   106285623.581 8
  21132974.011    21132973.4574  111054533.419 8
  23368291.476    23368290.9044  122801165.932 6
  21684930.036    21684928.6324  113955101.458 7
  22737652.717    22737653.433   121545783.542 7
  22459398.552    22459397.650   119847662.117 6
  19807992.982    19807993.238   105996598.085 8
  21875401.390    21875402.137   116608196.659 7
  21478768.339    21478768.816   114856690.300 6
 20  4  9 20  3 35.0000000  0 16G17G15G01R16R18G28G30R15G13G07G19R05
                                R06R17R14R24
  20582058.175    20582057.7024  108159467.369 8
  22674254.375    22674254.0274  119154013.975 7
  23543060.789    23543060.5124  123719631.777 6
  22073037.796    22073037.928   117910221.792 6
  21755476.138    21755476.547   116132232.276 7
  20945436.835    20945435.8654  110069021.953 8
  21114807.565    21114806.8014  110959059.356 8
  19889841.678    19889841.639   106285300.365 8
  21133088.584    21133088.0304  111055135.304 8
  23368848.458    23368847.8864  122804093.365 6
  21684355.392    21684353.9844  113952081.686 7
  22738298.945    22738299.754   121549238.199 7
  22459471.004    22459470.136   119848048.113 6
  19807801.342    19807801.532   105995572.486 8
  21875805.880    21875806.533   116610352.216 7
  21479244.792    21479245.040   114859238.246 6
 20  4  9 20  3 36.0000000  0 16G17G15G01R16R18G28G30R15G13G07G19R05
                                R06R17R14R24
  20581862.480    20581862.0074  108158438.456 8
  22674166.266    22674165.9134  119153551.236 7
  23543042.866    23543042.5894  123719538.891 6
  22072537.824    22072537.655   117907550.234 6
  21754694.344    21754694.687   116128058.343 7
  20945615.702    20945614.7324  110069962.022 8
  21115141.805    21115141.0364  110960815.650 8
  19889781.255    19889781.132   106284977.352 8
  21133203.212    21133202.6584  111055737.773 8
  23369405.475    23369404.9034  122807020.975 6
  21683780.706    21683779.2984  113949062.255 7
  22738945.621    22738946.023   121552693.091 7
  22459543.494    22459542.647   119848434.848 6
  19807609.900    19807610.043   105994547.742 8
  21876210.238    21876210.776   116612507.935 7
  21479721.206    21479721.267   114861786.827 6
 20  4  9 20  3 37.0000000  0 16G17G15G01R16R18G28G30R15G13G07G19R05
                                R06R17R14R24
  20581666.899    20581666.4264  108157410.134 8
  22674078.287    22674077.9344  119153089.155 7
  23543025.511    23543025.2394  123719446.708 6
  22072037.657    22072037.707   117904878.761 6
  21753912.669    21753912.888   116123884.761 7
  20945794.638    20945793.6644  110070902.265 8
  21115476.158    21115475.3894  110962572.397 8
  19889720.735    19889720.776   106284654.644 8
  21133317.995    21133317.4414  111056340.923 8
  23369962.702    23369962.1214  122809948.912 6
  21683206.235    21683204.8274  113946043.257 7
  22739591.937    22739592.433   121556148.309 7
  22459616.186    22459615.326   119848822.401 6
  19807418.566    19807418.735   105993523.929 8
  21876614.591    21876615.066   116614663.902 7
  21480198.030    21480197.823   114864336.187 6
 20  4  9 20  3 38.0000000  0 16G17G15G01R16R18G28G30R15G13G07G19R05
                                R06R17R14R24
  20581471.383    20581470.9104  108156382.642 8
  22673990.445    22673990.0974  119152627.956 7
  23543008.282    23543008.0144  123719355.427 6
  22071537.973    22071537.766   117902207.650 6
  21753130.976    21753131.124   116119711.789 7
  20945973.611    20945972.6414  110071842.943 8
  21115810.675    21115809.9064  110964329.827 8
  19889660.557    19889660.512   106284332.460 8
  21133432.945    21133432.3914  111056945.005 8
  23370519.863    23370519.2824  122812877.370 6
  21682631.879    21682630.4714  113943024.944 7
  22740238.172    22740238.762   121559604.054 7
  22459688.739    22459688.173   119849211.042 6
  19807227.522    19807227.690   105992501.260 8
  21877018.972    21877019.439   116616820.356 7
  21480676.369    21480674.762   114866886.552 6
 20  4  9 20  3 39.0000000  0 16G17G15G01R16R18G28G30R15G13G07G19R05
                                R06R17R14R24
  20581275.953    20581275.4754  108155355.782 8
  22673902.750    22673902.4024  119152167.439 7
  23542991.085    23542990.8174  123719264.832 6
  22071037.485    22071037.609   117899536.623 6
  21752349.287    21752349.576   116115539.220 7
  20946152.620    20946151.6464  110072783.819 8
  21116145.242    21116144.4734  110966087.713 8
  19889600.266    19889600.340   106284010.606 8
  21133548.050    21133547.4964  111057549.794 8
  23371077.041    23371076.4604  122815806.155 6
  21682057.670    21682056.2664  113940007.100 7
  22740884.998    22740885.249   121563060.088 7
  22459762.082    22459761.090   119849600.501 6
  19807036.573    19807036.776   105991479.539 8
  21877423.715    21877423.922   116618977.058 7
  21481153.015    21481152.101   114869437.708 6
 20  4  9 20  3 40.0000000  0 16G17G15G01R16R18G28G30R15G13G07G19R05
                                R06R17R14R24
  20581080.756    20581080.2834  108154329.848 8
  22673815.227    22673814.8744  119151707.909 7
  23542974.042    23542973.7704  123719175.244 6
  22070537.969    22070537.929   117896865.985 6
  21751567.784    21751568.148   116111367.366 7
  20946331.749    20946330.7754  110073725.216 8
  21116479.897    21116479.1284  110967846.399 8
  19889540.146    19889540.324   106283689.411 8
  21133663.357    21133662.8034  111058155.605 8
  23371634.252    23371633.6674  122818735.604 6
  21681483.558    21681482.1544  113936990.030 7
  22741531.716    22741531.933   121566516.783 7
  22459835.650    22459834.350   119849991.137 6
  19806845.811    19806846.139   105990459.112 8
  21877828.356    21877828.512   116621134.367 7
  21481630.105    21481629.896   114871989.944 6
 20  4  9 20  3 41.0000000  0 16G17G15G01R16R18G28G30R15G13G07G19R05
                                R06R17R14R24
  20580885.585    20580885.1074  108153304.124 8
  22673727.794    22673727.4464  119151248.632 7
  23542956.875    23542956.6074  123719085.951 6
  22070037.994    22070038.001   117894194.986 6
  21750786.215    21750786.686   116107195.481 7
  20946510.870    20946509.8964  110074666.412 8
  21116814.545    21116813.7764  110969605.136 8
  19889480.060    19889480.264   106283368.132 8
  21133778.767    21133778.2134  111058761.712 8
  23372191.598    23372191.0134  122821664.951 6
  21680909.434    21680908.0304  113933973.004 7
  22742178.249    22742178.510   121569973.395 7
  22459908.291    22459907.603   119850382.180 6
  19806655.242    19806655.535   105989439.198 8
  21878232.941    21878233.117   116623291.546 7
  21482107.661    21482107.567   114874542.548 6
 20  4  9 20  3 42.0000000  0 16G17G15G01R16R18G28G30R15G13G07G19R05
                                R06R17R14R24
  20580690.511    20580690.0384  108152279.045 8
  22673640.549    22673640.2014  119150790.064 7
  23542940.042    23542939.7794  123718997.366 6
  22069537.915    22069537.996   117891524.082 6
  21750004.612    21750005.260   116103023.997 7
  20946690.061    20946689.0914  110075607.836 8
  21117149.278    21117148.5094  110971364.358 8
  19889419.918    19889420.182   106283047.194 8
  21133894.207    21133893.6534  111059368.558 8
  23372749.040    23372748.4554  122824594.651 6
  21680335.418    21680334.0144  113930956.469 7
  22742824.889    22742825.065   121573430.392 7
  22459980.974    22459981.205   119850774.091 6
  19806464.716    19806465.119   105988420.254 8
  21878637.369    21878637.704   116625449.035 7
  21482584.820    21482585.215   114877095.956 6
 20  4  9 20  3 43.0000000  0 16G17G15G01R16R18G28G30R15G13G07G19R05
                                R06R17R14R24
  20580495.571    20580495.0934  108151254.949 8
  22673553.479    22673553.1314  119150332.532 7
  23542923.340    23542923.0774  123718909.856 6
  22069038.058    22069037.992   117888853.609 6
  21749223.469    21749223.987   116098853.244 7
  20946869.306    20946868.3324  110076549.828 8
  21117484.246    21117483.4774  110973124.416 8
  19889360.020    19889360.289   106282726.942 8
  21134009.895    21134009.3414  111059976.469 8
  23373306.747    23373306.1574  122827525.021 6
  21679761.585    21679760.1814  113927940.745 7
  22743471.374    22743471.948   121576888.088 7
  22460054.833    22460055.004   119851167.236 6
  19806274.701    19806274.923   105987402.611 8
  21879042.117    21879042.501   116627607.164 7
  21483062.049    21483062.923   114879650.512 6
 20  4  9 20  3 44.0000000  0 16G17G15G01R16R18G28G30R15G13G07G19R05
                                R06R17R14R24
  20580300.740    20580300.2624  108150231.116 8
  22673466.491    22673466.1474  119149875.312 7
  23542906.701    23542906.4384  123718822.695 6
  22068538.428    22068538.045   117886182.885 6
  21748442.175    21748442.672   116094682.511 7
  20947048.595    20947047.6214  110077491.685 8
  21117819.167    21117818.3984  110974884.592 8
  19889299.955    19889300.376   106282406.658 8
  21134125.645    21134125.0914  111060584.739 8
  23373864.612    23373864.0274  122830455.362 6
  21679187.736    21679186.3324  113924925.134 7
  22744117.958    22744118.686   121580345.767 7
  22460128.546    22460129.075   119851560.851 6
  19806084.734    19806084.926   105986385.563 8
  21879446.929    21879447.333   116629765.198 7
  21483540.047    21483540.790   114882205.483 6
 20  4  9 20  3 45.0000000  0 16G17G15G01R16R18G28G30R15G13G07G19R05
                                R06R17R14R24
  20580105.903    20580105.4304  108149207.536 8
  22673379.498    22673379.1544  119149418.402 7
  23542890.159    23542889.8964  123718735.840 6
  22068038.493    22068037.962   117883511.888 6
  21747661.000    21747661.364   116090511.785 7
  20947227.771    20947226.8014  110078433.381 8
  21118154.106    21118153.3374  110976644.864 8
  19889239.921    19889240.485   106282086.359 8
  21134241.454    21134240.9004  111061193.354 8
  23374422.264    23374421.6744  122833385.664 6
  21678613.855    21678612.4514  113921909.626 7
  22744764.775    22744765.471   121583803.417 7
  22460202.111    22460203.055   119851954.934 6
  19805894.727    19805894.982   105985369.112 8
  21879851.896    21879852.133   116631923.138 7
  21484018.050    21484018.674   114884760.838 6
 20  4  9 20  3 46.0000000  0 16G17G15G01R16R18G28G30R15G13G07G19R05
                                R06R17R14R24
  20579911.278    20579910.8004  108148184.780 8
  22673292.714    22673292.3704  119148962.361 7
  23542873.637    23542873.3744  123718649.900 6
  22067538.265    22067538.075   117880841.199 6
  21746879.752    21746880.122   116086341.669 7
  20947407.141    20947406.1674  110079375.483 8
  21118489.212    21118488.4434  110978405.811 8
  19889180.210    19889180.677   106281766.582 8
  21134357.457    21134356.9034  111061802.879 8
  23374980.100    23374979.5104  122836316.489 6
  21678040.131    21678038.7274  113918894.770 7
  22745411.822    22745412.381   121587261.606 7
  22460276.271    22460276.961   119852350.069 6
  19805704.939    19805705.304   105984353.816 8
  21880256.578    21880257.002   116634081.547 7
  21484495.534    21484496.377   114887317.185 6
 20  4  9 20  3 47.0000000  0 16G17G15G01R16R18G28G30R15G13G07G19R05
                                R06R17R14R24
  20579716.791    20579716.3184  108147162.424 8
  22673206.102    22673205.7584  119148506.783 7
  23542857.350    23542857.0914  123718564.438 6
  22067037.992    22067038.190   117878170.398 6
  21746098.703    21746098.941   116082171.750 7
  20947586.414    20947585.4404  110080317.578 8
  21118824.351    21118823.5824  110980167.014 8
  19889120.383    19889120.929   106281446.894 8
  21134473.584    21134473.0304  111062412.900 8
  23375537.704    23375537.1054  122839247.400 6
  21677466.464    21677465.0564  113915880.170 7
  22746058.752    22746059.355   121590719.874 7
  22460350.732    22460351.050   119852745.839 6
  19805515.329    19805515.790   105983339.234 8
  21880661.593    21880661.901   116636240.028 7
  21484973.859    21484974.226   114889874.089 6
 20  4  9 20  3 48.0000000  0 16G17G15G01R16R18G28G30R15G13G07G19R05
                                R06R17R14R24
  20579522.373    20579521.9004  108146140.593 8
  22673119.658    22673119.3144  119148051.784 7
  23542841.316    23542841.0574  123718479.565 6
  22066538.216    22066538.139   117875499.560 6
  21745317.508    21745317.701   116078002.116 7
  20947765.677    20947764.7034  110081259.773 8
  21119159.586    21119158.8174  110981928.578 8
  19889060.702    19889061.176   106281127.445 8
  21134589.807    21134589.2534  111063023.526 8
  23376095.375    23376094.7764  122842178.562 6
  21676892.837    21676891.4294  113912865.932 7
  22746706.008    22746706.279   121594178.362 7
  22460424.839    22460425.123   119853142.338 6
  19805325.940    19805326.311   105982325.471 8
  21881066.591    21881066.781   116638398.684 7
  21485452.079    21485452.422   114892431.688 6
 20  4  9 20  3 49.0000000  0 16G17G15G01R16R18G28G30R15G13G07G19R05
                                R06R17R14R24
  20579328.064    20579327.5864  108145119.447 8
  22673033.242    22673032.8984  119147597.513 7
  23542825.330    23542825.0714  123718395.447 6
  22066038.297    22066038.074   117872828.846 6
  21744536.530    21744536.608   116073832.948 7
  20947945.041    20947944.0674  110082202.239 8
  21119494.896    21119494.1274  110983690.678 8
  19889001.026    19889001.517   106280808.414 8
  21134706.159    21134705.6054  111063634.924 8
  23376653.113    23376652.5144  122845110.108 6
  21676319.318    21676317.9104  113909852.218 7
  22747353.622    22747353.410   121597637.276 7
  22460499.646    22460499.206   119853539.751 6
  19805136.548    19805137.024   105981312.760 8
  21881471.655    21881471.670   116640557.670 7
  21485930.652    21485930.914   114894990.113 6
 20  4  9 20  3 50.0000000  0 16G17G15G01R16R18G28G30R15G13G07G19R05
                                R06R17R14R24
  20579133.847    20579133.3744  108144098.731 8
  22672946.898    22672946.5544  119147143.747 7
  23542809.479    23542809.2254  123718311.865 6
  22065537.855    22065538.150   117870158.036 6
  21743755.444    21743755.620   116069663.954 7
  20948124.372    20948123.3984  110083144.738 8
  21119830.243    21119829.4744  110985453.069 8
  19888941.440    19888941.882   106280489.523 8
  21134822.572    21134822.0184  111064246.852 8
  23377210.992    23377210.3934  122848041.780 6
  21675745.876    21675744.4724  113906838.790 7
  22748000.477    22748000.622   121601096.354 7
  22460573.366    22460573.411   119853937.848 6
  19804947.414    19804947.971   105980300.833 8
  21881876.723    21881876.712   116642716.729 7
  21486409.641    21486409.501   114897549.134 6
 20  4  9 20  3 51.0000000  0 16G17G15G01R16R18G28G30R15G13G07G19R05
                                R06R17R14R24
  20578939.802    20578939.3244  108143078.926 8
  22672860.709    22672860.3654  119146690.928 7
  23542793.742    23542793.4834  123718229.252 6
  22065038.494    22065038.173   117867487.617 6
  21742974.646    21742974.691   116065495.614 7
  20948303.771    20948302.7974  110084087.718 8
  21120165.807    21120165.0384  110987216.203 8
  19888881.843    19888882.391   106280171.217 8
  21134939.217    21134938.6634  111064859.771 8
  23377769.180    23377768.5864  122850974.070 6
  21675172.549    21675171.1414  113903826.108 7
  22748647.616    22748647.867   121604556.069 7
  22460648.261    22460648.315   119854337.104 6
  19804758.573    19804759.081   105979290.111 8
  21882281.777    21882281.864   116644876.352 7
  21486887.586    21486888.171   114900109.199 6
 20  4  9 20  3 52.0000000  0 16G17G15G01R16R18G28G30R15G13G07G19R05
                                R06R17R14R24
  20578745.821    20578745.3484  108142059.718 8
  22672774.668    22672774.3244  119146238.765 7
  23542778.241    23542777.9874  123718147.318 6
  22064539.142    22064538.375   117864817.254 6
  21742193.831    21742193.811   116061327.602 7
  20948483.229    20948482.2554  110085030.889 8
  21120501.419    21120500.6504  110988979.782 8
  19888822.404    19888822.891   106279853.201 8
  21135055.888    21135055.3344  111065473.374 8
  23378327.344    23378326.7454  122853906.659 6
  21674599.336    21674597.9284  113900813.865 7
  22749295.045    22749295.272   121608016.114 7
  22460722.888    22460723.447   119854737.185 6
  19804569.859    19804570.329   105978280.272 8
  21882686.841    21882687.037   116647036.225 7
  21487366.644    21487367.367   114902670.036 6
 20  4  9 20  3 53.0000000  0 16G17G15G01R16R18G28G30R15G13G07G19R05
                                R06R17R14R24
  20578551.977    20578551.4994  108141041.172 8
  22672688.645    22672688.3014  119145787.310 7
  23542762.837    23542762.5834  123718066.113 6
  22064038.737    22064038.461   117862147.037 6
  21741413.110    21741412.932   116057160.013 7
  20948662.766    20948661.7924  110085974.308 8
  21120837.112    21120836.3394  110990743.873 8
  19888762.976    19888763.472   106279535.558 8
  21135172.714    21135172.1604  111066087.729 8
  23378885.612    23378885.0184  122856839.625 6
  21674026.083    21674024.6754  113897802.124 7
  22749942.469    22749942.549   121611476.536 7
  22460797.703    22460798.588   119855138.151 6
  19804381.345    19804381.787   105977271.462 8
  21883092.140    21883092.340   116649196.402 7
  21487846.118    21487846.492   114905231.687 6
 20  4  9 20  3 54.0000000  0 16G17G15G01R16R18G28G30R15G13G07G19R05
                                R06R17R14R24
  20578358.143    20578357.6654  108140022.707 8
  22672602.722    22672602.3784  119145335.993 7
  23542747.362    23542747.1084  123717985.075 6
  22063539.252    22063538.604   117859476.338 6
  21740632.217    21740632.020   116052992.292 7
  20948842.246    20948841.2724  110086917.403 8
  21121172.715    21121171.9464  110992507.900 8
  19888703.463    19888703.936   106279217.717 8
  21135289.679    21135289.1254  111066702.252 8
  23379443.702    23379443.1084  122859772.356 6
  21673452.878    21673451.4704  113894790.317 7
  22750589.739    22750589.735   121614936.708 7
  22460873.002    22460873.693   119855539.436 6
  19804192.933    19804193.348   105976263.087 8
  21883497.497    21883497.598   116651356.328 7
  21488325.643    21488325.550   114907793.567 6
 20  4  9 20  3 55.0000000  0 16G17G15G01R16R18G28G30R15G13G07G19R05
                                R06R17R14R24
  20578164.403    20578163.9254  108139004.434 8
  22672516.824    22672516.4804  119144884.926 7
  23542732.049    23542731.7954  123717904.317 6
  22063038.997    22063038.464   117856805.266 6
  21739851.273    21739851.331   116048824.566 7
  20949021.703    20949020.7294  110087860.275 8
  21121508.422    21121507.6494  110994271.963 8
  19888644.127    19888644.448   106278899.806 8
  21135406.725    21135406.1714  111067317.054 8
  23380001.626    23380001.0274  122862704.999 6
  21672879.730    21672878.3224  113891778.547 7
  22751236.695    22751236.870   121618396.779 7
  22460949.056    22460949.069   119855941.157 6
  19804004.613    19804004.992   105975255.225 8
  21883902.696    21883902.850   116653516.100 7
  21488805.027    21488804.848   114910355.782 6
 20  4  9 20  3 56.0000000  0 16G17G15G01R16R18G28G30R15G13G07G19R05
                                R06R17R14R24
  20577970.679    20577970.2064  108137986.759 8
  22672430.977    22672430.6334  119144434.487 7
  23542716.727    23542716.4734  123717824.226 6
  22062538.544    22062538.587   117854134.276 6
  21739070.556    21739070.636   116044657.220 7
  20949201.200    20949200.2214  110088803.335 8
  21121844.179    21121843.4104  110996036.473 8
  19888584.567    19888585.004   106278582.184 8
  21135523.877    21135523.3234  111067932.541 8
  23380559.755    23380559.1524  122865637.928 6
  21672306.790    21672305.3864  113888767.208 7
  22751884.003    22751884.080   121621857.156 7
  22461024.431    22461024.564   119856343.678 6
  19803816.475    19803816.841   105974248.257 8
  21884307.855    21884308.222   116655676.126 7
  21489283.712    21489283.675   114912918.730 6
 20  4  9 20  3 57.0000000  0 16G17G15G01R16R18G28G30R15G13G07G19R05
                                R06R17R14R24
  20577777.171    20577776.6984  108136969.926 8
  22672345.449    22672345.1054  119143984.972 7
  23542701.538    23542701.2844  123717745.055 6
  22062038.402    22062038.793   117851463.593 6
  21738289.793    21738290.122   116040490.495 7
  20949380.741    20949379.7674  110089746.832 8
  21122180.090    21122179.3214  110997801.675 8
  19888525.248    19888525.637   106278265.099 8
  21135641.251    21135640.6974  111068548.967 8
  23381117.913    23381117.3104  122868571.417 6
  21671733.954    21671732.5464  113885756.579 7
  22752531.273    22752531.490   121625318.086 7
  22461100.220    22461100.209   119856747.318 6
  19803628.379    19803628.866   105973242.465 8
  21884713.050    21884713.685   116657836.652 7
  21489763.397    21489763.268   114915482.699 6
 20  4  9 20  3 58.0000000  0 16G17G15G01R16R18G28G30R15G13G07G19R05
                                R06R17R14R24
  20577583.812    20577583.3394  108135954.078 8
  22672260.091    22672259.7474  119143536.475 7
  23542686.668    23542686.4144  123717666.943 6
  22061537.950    22061539.024   117848793.379 6
  21737509.315    21737509.764   116036324.483 7
  20949560.370    20949559.3964  110090690.894 8
  21122516.163    21122515.3944  110999567.706 8
  19888466.081    19888466.440   106277948.684 8
  21135758.710    21135758.1604  111069166.454 8
  23381676.289    23381675.6864  122871505.565 6
  21671161.295    21671159.8914  113882746.746 7
  22753178.487    22753179.095   121628779.728 7
  22461175.915    22461176.364   119857152.166 6
  19803440.631    19803441.266   105972237.993 8
  21885118.559    21885119.187   116659997.800 7
  21490242.592    21490243.080   114918047.803 6
 20  4  9 20  3 59.0000000  0 16G17G15G01R16R18G28G30R15G13G07G19R05
                                R06R17R14R24
  20577390.522    20577390.0444  108134938.414 8
  22672174.910    22672174.5664  119143088.229 7
  23542671.640    23542671.3864  123717589.092 6
  22061037.741    22061039.101   117846122.853 6
  21736729.047    21736729.241   116032158.396 7
  20949739.944    20949738.9704  110091634.737 8
  21122852.268    21122851.4994  111001333.779 8
  19888406.846    19888407.145   106277632.192 8
  21135876.274    21135875.7204  111069784.226 8
  23382234.491    23382233.8924  122874439.642 6
  21670588.621    21670587.2174  113879736.971 7
  22753826.122    22753826.688   121632241.282 7
  22461252.419    22461252.193   119857557.426 6
  19803253.031    19803253.587   105971234.044 8
  21885524.139    21885524.499   116662158.780 7
  21490722.812    21490722.675   114920613.256 6
 20  4  9 20  4  0.0000000  0 16G17G15G01R16R18G28G30R15G13G07G19R05
                                R06R17R14R24
  20577197.380    20577196.9074  108133923.320 8
  22672089.719    22672089.3754  119142640.604 7
  23542656.958    23542656.7044  123717511.884 6
  22060537.923    22060539.311   117843452.384 6
  21735948.680    21735948.986   116027992.637 7
  20949919.562    20949918.5834  110092578.724 8
  21123188.422    21123187.6534  111003100.261 8
  19888347.798    19888348.011   106277315.998 8
  21135993.914    21135993.3604  111070402.650 8
  23382792.860    23382792.2614  122877373.954 6
  21670016.014    21670014.6064  113876727.599 7
  22754473.654    22754474.356   121635703.089 7
  22461328.057    22461328.200   119857963.447 6
  19803065.618    19803066.189   105970230.982 8
  21885929.514    21885929.998   116664320.007 7
  21491202.897    21491202.595   114923179.423 6
 20  4  9 20  4  1.0000000  0 16G17G15G01R16R18G28G30R15G13G07G19R05
                                R06R17R14R24
  20577004.394    20577003.9164  108132909.317 8
  22672004.651    22672004.3074  119142194.134 7
  23542642.432    23542642.1784  123717435.861 6
  22060038.429    22060039.453   117840782.465 6
  21735168.479    21735168.785   116023827.780 7
  20950099.362    20950098.3884  110093523.399 8
  21123524.823    21123524.0504  111004867.691 8
  19888288.712    19888288.953   106277000.599 8
  21136111.789    21136111.2354  111071022.251 8
  23383351.488    23383350.8894  122880309.094 6
  21669443.445    21669442.0374  113873719.161 7
  22755121.240    22755122.087   121639165.709 7
  22461404.514    22461404.453   119858370.791 6
  19802878.554    19802878.960   105969229.344 8
  21886335.047    21886335.590   116666482.003 7
  21491682.882    21491682.760   114925746.847 6
 20  4  9 20  4  2.0000000  0 16G17G15G01R16R18G28G30R15G13G07G19R05
                                R06R17R14R24
  20576811.488    20576811.0154  108131895.498 8
  22671919.744    22671919.4054  119141747.892 7
  23542628.153    23542627.8994  123717360.077 6
  22059538.738    22059539.413   117838112.143 6
  21734388.217    21734388.558   116019662.889 7
  20950279.069    20950278.0954  110094467.843 8
  21123861.151    21123860.3824  111006635.147 8
  19888229.635    19888229.882   106276685.059 8
  21136229.732    21136229.1784  111071642.139 8
  23383909.947    23383909.3484  122883244.093 6
  21668871.012    21668869.6044  113870710.758 7
  22755769.162    22755769.765   121642628.220 7
  22461480.530    22461480.649   119858778.576 6
  19802691.330    19802691.880   105968228.243 8
  21886740.664    21886741.094   116668643.804 7
  21492162.929    21492162.735   114928314.585 6
 20  4  9 20  4  3.0000000  0 16G17G15G01R16R18G28G30R15G13G07G19R05
                                R06R17R14R24
  20576618.710    20576618.2324  108130882.470 8
  22671835.026    22671834.6874  119141302.496 7
  23542613.909    23542613.6554  123717285.195 6
  22059039.463    22059039.482   117835442.056 6
  21733608.204    21733608.439   116015498.577 7
  20950458.825    20950457.8514  110095412.662 8
  21124197.578    21124196.8054  111008403.250 8
  19888170.667    19888170.906   106276370.020 8
  21136347.888    21136347.3344  111072262.900 8
  23384468.518    23384467.9194  122886179.600 6
  21668298.639    21668297.2354  113867702.989 7
  22756417.383    22756417.569   121646091.252 7
  22461557.369    22461557.266   119859187.376 6
  19802504.223    19802505.047   105967228.264 8
  21887146.469    21887146.751   116670806.042 7
  21492642.962    21492643.090   114930883.282 6
 20  4  9 20  4  4.0000000  0 16G17G15G01R16R18G28G30R15G13G07G19R05
                                R06R17R14R24
  20576426.039    20576425.5614  108129869.995 8
  22671750.394    22671750.0554  119140857.699 7
  23542599.756    23542599.5024  123717210.921 6
  22058539.747    22058539.512   117832771.963 6
  21732828.221    21732828.407   116011334.572 7
  20950638.641    20950637.6674  110096357.619 8
  21124534.178    21124533.4054  111010171.748 8
  19888111.796    19888111.933   106276055.264 8
  21136466.123    21136465.5694  111072884.300 8
  23385027.140    23385026.5414  122889115.357 6
  21667726.404    21667724.9964  113864695.601 7
  22757065.421    22757065.591   121649554.553 7
  22461634.659    22461634.239   119859596.950 6
  19802317.492    19802318.266   105966229.127 8
  21887551.954    21887552.411   116672968.480 7
  21493123.689    21493123.958   114933452.700 6
 20  4  9 20  4  5.0000000  0 16G17G15G01R16R18G28G30R15G13G07G19R05
                                R06R17R14R24
  20576233.498    20576233.0204  108128858.311 8
  22671666.028    22671665.6844  119140413.753 7
  23542585.789    23542585.5304  123717137.528 6
  22058040.247    22058039.517   117830102.191 6
  21732048.480    21732048.417   116007171.115 7
  20950818.589    20950817.6154  110097302.961 8
  21124870.828    21124870.0554  111011940.897 8
  19888052.883    19888053.121   106275741.028 8
  21136584.550    21136584.0004  111073506.593 8
  23385586.031    23385585.4324  122892051.628 6
  21667154.237    21667152.8334  113861688.876 7
  22757713.294    22757713.587   121653018.374 7
  22461710.984    22461711.481   119860007.551 6
  19802131.192    19802131.767   105965231.112 8
  21887957.687    21887958.062   116675131.391 7
  21493604.608    21493604.777   114936023.075 6
 20  4  9 20  4  6.0000000  0 16G17G15G01R16R18G28G30R15G13G07G19R05
                                R06R17R14R24
  20576040.999    20576040.5264  108127846.660 8
  22671581.616    22671581.2724  119139969.887 7
  23542572.020    23542571.7664  123717064.237 6
  22057540.775    22057539.732   117827431.916 6
  21731268.387    21731268.395   116003007.425 7
  20950998.434    20950997.4604  110098247.910 8
  21125207.509    21125206.7364  111013709.917 8
  19887994.020    19887994.296   106275426.492 8
  21136702.983    21136702.4294  111074128.997 8
  23386144.751    23386144.1524  122894987.618 6
  21666582.065    21666580.6614  113858682.009 7
  22758361.299    22758361.573   121656481.916 7
  22461788.001    22461788.432   119860418.401 6
  19801944.799    19801945.358   105964233.473 8
  21888363.293    21888363.620   116677293.993 7
  21494084.811    21494085.369   114938593.618 6
 20  4  9 20  4  7.0000000  0 16G17G15G01R16R18G28G30R15G13G07G19R05
                                R06R17R14R24
  20575848.628    20575848.1504  108126836.003 8
  22671497.349    22671497.0104  119139527.070 7
  23542558.122    23542557.8684  123716992.009 6
  22057040.509    22057040.108   117824762.110 6
  21730488.490    21730488.521   115998844.520 7
  20951178.418    20951177.4444  110099193.424 8
  21125544.271    21125543.4984  111015479.782 8
  19887935.340    19887935.588   106275112.650 8
  21136821.645    21136821.0914  111074752.483 8
  23386703.704    23386703.1014  122897924.313 6
  21666009.998    21666008.5904  113855675.981 7
  22759009.439    22759009.788   121659946.157 7
  22461864.917    22461865.791   119860830.477 6
  19801758.777    19801759.226   105963237.191 8
  21888769.090    21888769.338   116679457.246 7
  21494565.576    21494566.148   114941165.289 6
 20  4  9 20  4  8.0000000  0 16G17G15G01R16R18G28G30R15G13G07G19R05
                                R06R17R14R24
  20575656.393    20575655.9154  108125825.888 8
  22671413.173    22671412.8344  119139084.845 7
  23542544.599    23542544.3454  123716920.437 6
  22056540.604    22056540.145   117822092.307 6
  21729708.755    21729708.751   115994681.926 7
  20951358.421    20951357.4424  110100139.081 8
  21125881.035    21125880.2624  111017250.035 8
  19887876.604    19887876.866   106274799.065 8
  21136940.393    21136939.8394  111075376.602 8
  23387262.690    23387262.0914  122900861.223 6
  21665437.969    21665436.5614  113852670.362 7
  22759657.189    22759657.958   121663410.650 7
  22461941.707    22461943.208   119861243.337 6
  19801572.728    19801573.162   105962241.770 8
  21889175.012    21889175.151   116681620.699 7
  21495046.878    21495047.040   114943737.679 6
 20  4  9 20  4  9.0000000  0 16G17G15G01R16R18G28G30R15G13G07G19R05
                                R06R17R14R24
  20575464.266    20575463.7884  108124816.230 8
  22671329.110    22671328.7714  119138643.130 7
  23542531.087    23542530.8334  123716849.348 6
  22056040.823    22056040.411   117819422.407 6
  21728928.817    21728928.991   115990519.571 7
  20951538.433    20951537.4594  110101084.776 8
  21126217.823    21126217.0504  111019020.591 8
  19887818.026    19887818.169   106274485.655 8
  21137059.293    21137058.7394  111076001.264 8
  23387821.710    23387821.1114  122903798.346 6
  21664866.052    21664864.6444  113849665.029 7
  22760304.739    22760306.028   121666875.311 7
  22462018.786    22462020.640   119861656.869 6
  19801386.879    19801387.224   105961247.117 8
  21889580.883    21889580.975   116683784.244 7
  21495527.323    21495528.295   114946310.654 6
 20  4  9 20  4 10.0000000  0 16G17G15G01R16R18G28G30R15G13G07G19R05
                                R06R17R14R24
  20575272.243    20575271.7704  108123807.291 8
  22671245.195    22671244.8564  119138202.179 7
  23542517.375    23542517.1164  123716779.061 6
  22055540.803    22055540.628   117816752.688 6
  21728149.159    21728149.306   115986357.671 7
  20951718.391    20951717.4174  110102030.768 8
  21126554.933    21126554.1604  111020791.704 8
  19887759.404    19887759.547   106274172.663 8
  21137178.355    21137177.8014  111076626.728 8
  23388380.599    23388380.0004  122906735.829 6
  21664294.223    21664292.8194  113846660.252 7
  22760952.757    22760954.307   121670340.373 7
  22462096.740    22462098.273   119862071.353 6
  19801201.059    19801201.447   105960253.511 8
  21889986.845    21889986.870   116685948.149 7
  21496008.198    21496009.407   114948884.473 6
 20  4  9 20  4 11.0000000  0 16G17G15G01R16R18G28G30R15G13G07G19R05
                                R06R17R14R24
  20575080.397    20575079.9194  108122799.062 8
  22671161.392    22671161.0534  119137761.992 7
  23542504.107    23542503.8534  123716709.564 6
  22055041.041    22055040.977   117814083.172 6
  21727369.804    21727369.714   115982196.254 7
  20951898.529    20951897.5554  110102977.058 8
  21126892.080    21126891.3074  111022563.377 8
  19887700.916    19887701.062   106273860.073 8
  21137297.531    21137296.9774  111077252.989 8
  23388939.536    23388938.9374  122909673.768 6
  21663722.595    21663721.1874  113843656.019 7
  22761600.915    22761602.678   121673805.896 7
  22462174.840    22462176.239   119862486.753 6
  19801015.559    19801016.089   105959260.943 8
  21890393.001    21890392.906   116688112.422 7
  21496489.952    21496490.928   114951459.191 6
 20  4  9 20  4 12.0000000  0 16G17G15G01R16R18G28G30R15G13G07G19R05
                                R06R17R14R24
  20574888.664    20574888.1914  108121791.128 8
  22671077.698    22671077.3594  119137322.156 7
  23542490.816    23542490.5624  123716640.441 6
  22054541.195    22054541.083   117811413.444 6
  21726590.213    21726590.147   115978034.899 7
  20952078.559    20952077.5854  110103923.242 8
  21127229.271    21127228.4984  111024335.210 8
  19887642.483    19887642.629   106273547.489 8
  21137416.756    21137416.2024  111077879.647 8
  23389498.437    23389497.8434  122912611.690 6
  21663150.888    21663149.4844  113840651.960 7
  22762249.123    22762250.962   121677271.434 7
  22462253.614    22462254.191   119862902.722 6
  19800830.332    19800830.720   105958268.977 8
  21890798.965    21890798.904   116690276.657 7
  21496971.378    21496972.488   114954034.350 6
 20  4  9 20  4 13.0000000  0 16G17G15G01R16R18G28G30R15G13G07G19R05
                                R06R17R14R24
  20574696.869    20574696.3914  108120783.533 8
  22670994.020    22670993.6814  119136882.698 7
  23542477.745    23542477.4914  123716571.745 6
  22054041.239    22054041.296   117808743.459 6
  21725810.881    21725810.566   115973873.646 7
  20952258.614    20952257.6404  110104869.321 8
  21127566.473    21127565.7004  111026107.215 8
  19887584.067    19887584.146   106273234.950 8
  21137536.132    21137535.5784  111078506.707 8
  23390057.426    23390056.8324  122915549.653 6
  21662579.333    21662577.9254  113837648.044 7
  22762897.523    22762899.269   121680736.982 7
  22462332.343    22462332.365   119863319.223 6
  19800645.023    19800645.400   105957277.674 8
  21891204.739    21891204.871   116692440.868 7
  21497452.919    21497454.066   114956609.988 6
 20  4  9 20  4 14.0000000  0 16G17G15G01R16R18G28G30R15G13G07G19R05
                                R06R17R14R24
  20574505.245    20574504.7674  108119776.338 8
  22670910.454    22670910.1154  119136443.696 7
  23542464.729    23542464.4794  123716503.500 6
  22053541.099    22053541.319   117806073.337 6
  21725031.351    21725030.987   115969712.588 7
  20952438.652    20952437.6734  110105815.399 8
  21127903.756    21127902.9834  111027879.460 8
  19887525.614    19887525.742   106272922.537 8
  21137655.561    21137655.0074  111079134.261 8
  23390616.490    23390615.9004  122918487.700 6
  21662007.758    21662006.3504  113834644.382 7
  22763546.148    22763547.698   121684202.643 7
  22462410.947    22462410.444   119863736.347 6
  19800459.887    19800460.314   105956287.100 8
  21891610.555    21891610.871   116694605.142 7
  21497935.173    21497935.999   114959186.198 6
 20  4  9 20  4 15.0000000  0 16G17G15G01R16R18G28G30R15G13G07G19R05
                                R06R17R14R24
  20574313.792    20574313.3194  108118770.031 8
  22670827.107    22670826.7684  119136005.641 7
  23542452.209    23542451.9594  123716436.252 6
  22053041.432    22053041.646   117803403.552 6
  21724251.975    21724251.605   115965552.204 7
  20952618.760    20952617.7864  110106761.949 8
  21128241.203    21128240.4304  111029652.442 8
  19887467.221    19887467.427   106272610.729 8
  21137775.179    21137774.6254  111079762.797 8
  23391175.887    23391175.2974  122921426.341 6
  21661436.270    21661434.8664  113831641.453 7
  22764194.625    22764196.106   121687668.896 7
  22462489.842    22462488.666   119864154.574 6
  19800275.117    19800275.480   105955297.736 8
  21892016.557    21892017.002   116696769.981 7
  21498417.932    21498417.959   114961763.444 6
 20  4  9 20  4 16.0000000  0 16G17G15G01R16R18G28G30R15G13G07G19R05
                                R06R17R14R24
  20574122.570    20574122.0974  108117764.972 8
  22670744.036    22670743.7014  119135568.878 7
  23542439.728    23542439.4784  123716370.317 6
  22052541.671    22052541.978   117800734.506 6
  21723472.750    21723472.327   115961392.853 7
  20952799.022    20952798.0484  110107709.342 8
  21128578.844    21128578.0754  111031426.527 8
  19887409.061    19887409.180   106272299.865 8
  21137895.006    21137894.4564  111080392.668 8
  23391735.302    23391734.7174  122924365.920 6
  21660865.053    21660863.6454  113828639.623 7
  22764843.357    22764844.616   121691136.118 7
  22462568.406    22462567.165   119864574.279 6
  19800090.569    19800090.878   105954309.954 8
  21892422.762    21892423.263   116698935.738 7
  21498900.273    21498900.367   114964342.110 6
 20  4  9 20  4 17.0000000  0 16G17G15G01R16R18G28G30R15G13G07G19R05
                                R06R17R14R24
  20573931.411    20573930.9384  108116760.460 8
  22670661.139    22670660.8044  119135132.723 7
  23542427.255    23542427.0054  123716305.011 6
  22052042.090    22052042.250   117798065.475 6
  21722693.649    21722693.208   115957233.807 7
  20952979.316    20952978.3424  110108656.862 8
  21128916.564    21128915.7954  111033200.996 8
  19887350.957    19887351.132   106271989.257 8
  21138014.912    21138014.3584  111081023.175 8
  23392294.808    23392294.2234  122927305.765 6
  21660293.719    21660292.3114  113825638.180 7
  22765492.001    22765493.371   121694603.601 7
  22462647.264    22462646.106   119864994.754 6
  19799906.128    19799906.493   105953323.043 8
  21892829.230    21892829.602   116701101.660 7
  21499382.175    21499382.845   114966921.471 6
 20  4  9 20  4 18.0000000  0 16G17G15G01R16R18G28G30R15G13G07G19R05
                                R06R17R14R24
  20573740.297    20573739.8244  108115756.257 8
  22670578.191    22670577.8564  119134696.926 7
  23542414.902    23542414.6524  123716240.085 6
  22051541.841    22051542.686   117795396.223 6
  21721914.365    21721914.135   115953074.818 7
  20953159.577    20953158.6034  110109604.273 8
  21129254.279    21129253.5104  111034975.622 8
  19887292.701    19887292.979   106271678.660 8
  21138134.889    21138134.3354  111081654.070 8
  23392854.225    23392853.6404  122930245.610 6
  21659722.504    21659721.0964  113822636.869 7
  22766140.927    22766141.954   121698071.092 7
  22462725.135    22462724.977   119865415.742 6
  19799721.751    19799722.187   105952336.777 8
  21893235.700    21893235.921   116703267.488 7
  21499864.375    21499864.984   114969501.271 6
 20  4  9 20  4 19.0000000  0 16G17G15G01R16R18G28G30R15G13G07G19R05
                                R06R17R14R24
  20573549.344    20573548.8714  108114752.822 8
  22670495.363    22670495.0284  119134261.948 7
  23542402.751    23542402.5014  123716175.993 6
  22051042.093    22051043.007   117792727.223 6
  21721135.293    21721134.989   115948916.371 7
  20953339.893    20953338.9194  110110552.041 8
  21129592.060    21129591.2874  111036750.869 8
  19887234.629    19887234.895   106271368.547 8
  21138255.122    21138254.5684  111082285.824 8
  23393413.765    23393413.1804  122933185.929 6
  21659151.510    21659150.1024  113819636.191 7
  22766789.335    22766790.668   121701539.068 7
  22462804.129    22462803.899   119865837.740 6
  19799537.618    19799538.034   105951351.651 8
  21893642.168    21893642.313   116705433.731 7
  21500347.176    21500347.640   114972081.980 6
 20  4  9 20  4 20.0000000  0 16G17G15G01R16R18G28G30R15G13G07G19R05
                                R06R17R14R24
  20573358.459    20573357.9814  108113749.732 8
  22670412.644    22670412.3094  119133827.361 7
  23542390.598    23542390.3484  123716112.334 6
  22050542.623    22050543.471   117790058.059 6
  21720356.127    21720356.003   115944758.033 7
  20953520.185    20953519.2064  110111499.741 8
  21129929.862    21129929.0894  111038526.304 8
  19887176.708    19887176.820   106271058.473 8
  21138375.455    21138374.9014  111082918.016 8
  23393973.522    23393972.9414  122936126.302 6
  21658580.535    21658579.1314  113816635.706 7
  22767437.834    22767439.485   121705007.081 7
  22462883.474    22462883.156   119866260.319 6
  19799353.669    19799354.057   105950367.181 8
  21894048.803    21894048.656   116707599.973 7
  21500830.244    21500830.310   114974663.173 6
 20  4  9 20  4 21.0000000  0 16G17G15G01R16R18G28G30R15G13G07G19R05
                                R06R17R14R24
  20573167.678    20573167.2054  108112747.141 8
  22670330.078    22670329.7434  119133393.351 7
  23542378.461    23542378.2074  123716049.253 6
  22050043.025    22050043.673   117787388.863 6
  21719577.206    21719577.087   115940599.968 7
  20953700.530    20953699.5564  110112447.535 8
  21130267.817    21130267.0444  111040302.097 8
  19887118.849    19887118.873   106270748.641 8
  21138495.847    21138495.2934  111083550.798 8
  23394533.192    23394532.6074  122939066.889 6
  21658009.708    21658008.3004  113813635.590 7
  22768086.560    22768088.250   121708475.315 7
  22462962.062    22462962.384   119866683.628 6
  19799170.096    19799170.291   105949383.532 8
  21894455.181    21894455.104   116709766.430 7
  21501313.116    21501313.138   114977245.031 6
 20  4  9 20  4 22.0000000  0 16G17G15G01R16R18G28G30R15G13G07G19R05
                                R06R17R14R24
  20572976.900    20572976.4224  108111745.077 8
  22670247.676    22670247.3414  119132959.903 7
  23542366.685    23542366.4354  123715986.768 6
  22049543.366    22049543.866   117784719.615 6
  21718798.253    21718798.193   115936442.196 7
  20953880.957    20953879.9834  110113395.423 8
  21130605.748    21130604.9794  111042078.252 8
  19887060.972    19887060.871   106270439.011 8
  21138616.322    21138615.7684  111084184.190 8
  23395092.707    23395092.1224  122942007.678 6
  21657438.986    21657437.5784  113810635.796 7
  22768735.598    22768737.167   121711943.778 7
  22463041.494    22463041.984   119867107.683 6
  19798986.239    19798986.534   105948400.721 8
  21894861.381    21894861.481   116711933.064 7
  21501795.724    21501796.109   114979827.551 6
 20  4  9 20  4 23.0000000  0 16G17G15G01R16R18G28G30R15G13G07G19R05
                                R06R17R14R24
  20572786.265    20572785.7924  108110743.412 8
  22670165.446    22670165.1114  119132526.905 7
  23542354.864    23542354.6104  123715924.772 6
  22049043.779    22049044.113   117782050.247 6
  21718019.394    21718019.281   115932284.611 7
  20954061.364    20954060.3854  110114343.295 8
  21130943.812    21130943.0394  111043854.657 8
  19887002.891    19887002.959   106270129.474 8
  21138736.884    21138736.3344  111084818.069 8
  23395652.201    23395651.6254  122944948.575 6
  21656868.290    21656866.8824  113807636.261 7
  22769384.791    22769386.241   121715412.328 7
  22463120.793    22463121.811   119867532.390 6
  19798802.761    19798803.036   105947418.634 8
  21895267.814    21895267.956   116714099.745 7
  21502278.055    21502279.182   114982410.650 6
 20  4  9 20  4 24.0000000  0 16G17G15G01R16R18G28G30R15G13G07G19R05
                                R06R17R14R24
  20572595.666    20572595.1934  108109742.112 8
  22670083.273    22670082.9384  119132094.326 7
  23542343.131    23542342.8814  123715863.193 6
  22048544.161    22048544.089   117779380.673 6
  21717240.379    21717240.348   115928127.161 7
  20954241.791    20954240.8174  110115291.122 8
  21131281.883    21131281.1144  111045631.267 8
  19886945.056    19886945.017   106269820.010 8
  21138857.505    21138856.9514  111085452.402 8
  23396211.831    23396211.2554  122947889.539 6
  21656297.546    21656296.1424  113804636.937 7
  22770034.013    22770035.030   121718880.935 7
  22463201.115    22463201.541   119867957.706 6
  19798619.392    19798619.598   105946437.231 8
  21895674.189    21895674.454   116716266.424 7
  21502761.164    21502762.052   114984994.281 6
 20  4  9 20  4 25.0000000  0 16G17G15G01R16R18G28G30R15G13G07G19R05
                                R06R17R14R24
  20572405.329    20572404.8514  108108741.913 8
  22670001.248    22670000.9094  119131662.919 7
  23542331.755    23542331.5014  123715802.838 6
  22048044.876    22048044.567   117776711.687 6
  21716461.553    21716461.658   115923970.597 7
  20954422.278    20954421.3044  110116239.642 8
  21131620.111    21131619.3384  111047408.844 8
  19886887.358    19886887.274   106269511.405 8
  21138978.462    21138977.9124  111086087.928 8
  23396771.579    23396771.0074  122950831.322 6
  21655726.997    21655725.5934  113801638.593 7
  22770683.166    22770684.121   121722350.376 7
  22463281.066    22463281.314   119868384.374 6
  19798436.336    19798436.448   105945457.311 8
  21896080.768    21896081.161   116718433.871 7
  21503245.135    21503245.473   114987579.185 6
 20  4  9 20  4 26.0000000  0 16G17G15G01R16R18G28G30R15G13G07G19R05
                                R06R17R14R24
  20572215.119    20572214.6464  108107742.008 8
  22669919.157    22669918.8184  119131231.833 7
  23542320.272    23542320.0224  123715742.819 6
  22047544.997    22047544.815   117774042.448 6
  21715683.018    21715682.957   115919814.068 7
  20954602.744    20954601.7704  110117188.045 8
  21131958.395    21131957.6264  111049186.558 8
  19886829.579    19886829.496   106269202.775 8
  21139099.421    21139098.8714  111086723.832 8
  23397331.539    23397330.9674  122953773.080 6
  21655156.444    21655155.0364  113798640.367 7
  22771332.482    22771333.258   121725819.834 7
  22463361.680    22463361.258   119868811.547 6
  19798253.250    19798253.488   105944478.000 8
  21896487.400    21896487.829   116720601.253 7
  21503729.146    21503728.919   114990164.499 6
 20  4  9 20  4 27.0000000  0 16G17G15G01R16R18G28G30R15G13G07G19R05
                                R06R17R14R24
  20572025.095    20572024.6174  108106742.606 8
  22669837.045    22669836.7064  119130801.300 7
  23542308.993    23542308.7434  123715683.390 6
  22047045.116    22047045.146   117771373.178 6
  21714904.351    21714904.348   115915657.792 7
  20954783.215    20954782.2414  110118136.520 8
  21132296.752    21132295.9834  111050964.607 8
  19886771.928    19886771.785   106268894.331 8
  21139220.607    21139220.0574  111087360.325 8
  23397891.461    23397890.8944  122956715.051 6
  21654585.868    21654584.4604  113795642.466 7
  22771981.631    22771982.295   121729289.478 7
  22463441.977    22463441.143   119869239.412 6
  19798070.375    19798070.652   105943499.500 8
  21896894.095    21896894.491   116722768.808 7
  21504213.132    21504212.743   114992750.427 6
 20  4  9 20  4 28.0000000  0 16G17G15G01R16R18G28G30R15G13G07G19R05
                                R06R17R14R24
  20571834.965    20571834.4874  108105743.748 8
  22669755.018    22669754.6794  119130371.362 7
  23542297.831    23542297.5814  123715624.573 6
  22046545.756    22046545.462   117768703.930 6
  21714125.702    21714125.716   115911501.847 7
  20954963.693    20954962.7194  110119085.138 8
  21132635.162    21132634.3894  111052743.058 8
  19886714.063    19886714.050   106268586.158 8
  21139341.838    21139341.2884  111087997.451 8
  23398451.659    23398451.0874  122959657.248 6
  21654015.402    21654013.9944  113792644.971 7
  22772630.771    22772631.398   121732759.397 7
  22463522.692    22463521.438   119869668.065 6
  19797887.508    19797887.952   105942521.859 8
  21897300.918    21897301.303   116724936.564 7
  21504697.087    21504696.642   114995337.021 6
 20  4  9 20  4 29.0000000  0 16G17G15G01R16R18G28G30R15G13G07G19R05
                                R06R17R14R24
  20571645.172    20571644.6994  108104746.615 8
  22669673.527    22669673.1884  119129943.191 7
  23542287.030    23542286.7804  123715567.557 6
  22046045.995    22046045.855   117766035.892 6
  21713347.414    21713347.491   115907347.423 7
  20955144.442    20955143.4634  110120035.044 8
  21132973.895    21132973.1264  111054523.069 8
  19886656.595    19886656.655   106268279.430 8
  21139463.413    21139462.8634  111088636.373 8
  23399011.898    23399011.3314  122962600.888 6
  21653445.156    21653443.7484  113789649.026 7
  22773280.339    22773280.735   121736230.733 7
  22463603.645    22463602.239   119870098.642 6
  19797705.275    19797705.679   105941546.295 8
  21897707.903    21897708.394   116727105.675 7
  21505180.785    21505180.927   114997925.532 6
 20  4  9 20  4 30.0000000  0 16G17G15G01R16R18G28G30R15G13G07G19R05
                                R06R17R14R24
  20571455.515    20571455.0374  108103749.804 8
  22669592.143    22669591.8084  119129515.401 7
  23542276.313    23542276.0634  123715510.945 6
  22045547.533    22045546.321   117763367.644 6
  21712569.171    21712569.304   115903193.106 7
  20955325.131    20955324.1574  110120984.872 8
  21133312.663    21133311.8904  111056303.257 8
  19886599.227    19886599.275   106267972.729 8
  21139585.085    21139584.5354  111089275.714 8
  23399572.033    23399571.4614  122965544.527 6
  21652875.052    21652873.6484  113786653.278 7
  22773929.267    22773930.251   121739702.088 7
  22463684.142    22463683.063   119870529.744 6
  19797523.206    19797523.567   105940571.416 8
  21898114.865    21898115.481   116729274.737 7
  21505664.634    21505665.127   115000514.500 6
 20  4  9 20  4 31.0000000  0 16G17G15G01R16R18G28G30R15G13G07G19R05
                                R06R17R14R24
  20571265.929    20571265.4564  108102753.327 8
  22669510.818    22669510.4794  119129088.002 7
  23542265.579    23542265.3294  123715454.731 6
  22045047.856    22045046.731   117760699.174 6
  21711790.975    21711791.082   115899038.881 7
  20955505.895    20955504.9214  110121934.605 8
  21133651.532    21133650.7594  111058083.610 8
  19886541.746    19886541.852   106267666.051 8
  21139706.871    21139706.3264  111089915.456 8
  23400132.027    23400131.4554  122968488.195 6
  21652305.037    21652303.6294  113783657.682 7
  22774577.901    22774579.653   121743173.457 7
  22463764.293    22463763.957   119870961.428 6
  19797341.172    19797341.413   105939597.187 8
  21898521.843    21898522.365   116731443.782 7
  21506149.291    21506149.151   115003103.973 6
 20  4  9 20  4 32.0000000  0 16G17G15G01R16R18G28G30R15G13G07G19R05
                                R06R17R14R24
  20571076.365    20571075.8924  108101757.195 8
  22669429.566    22669429.2314  119128660.999 7
  23542254.957    23542254.7074  123715398.929 6
  22044548.114    22044547.081   117758030.497 6
  21711012.787    21711012.859   115894884.779 7
  20955686.638    20955685.6594  110122884.276 8
  21133990.314    21133989.5454  111059864.181 8
  19886484.404    19886484.500   106267359.449 8
  21139828.768    21139828.2234  111090555.651 8
  23400692.122    23400691.5504  122971431.922 6
  21651735.149    21651733.7454  113780662.300 7
  22775227.265    22775228.942   121746644.891 7
  22463844.500    22463844.840   119871393.692 6
  19797159.206    19797159.436   105938623.608 8
  21898928.995    21898929.301   116733612.869 7
  21506632.991    21506633.410   115005693.940 6
 20  4  9 20  4 33.0000000  0 16G17G15G01R16R18G28G30R15G13G07G19R05
                                R06R17R14R24
  20570887.024    20570886.5464  108100762.287 8
  22669348.555    22669348.2204  119128235.276 7
  23542244.726    23542244.4764  123715344.465 6
  22044047.945    22044047.558   117755362.519 6
  21710234.849    21710234.924   115890731.655 7
  20955867.525    20955866.5514  110123834.754 8
  21134329.427    21134328.6584  111061645.808 8
  19886427.319    19886427.367   106267053.799 8
  21139950.866    21139950.3214  111091197.157 8
  23401252.247    23401251.6754  122974376.576 6
  21651165.424    21651164.0164  113777667.972 7
  22775876.736    22775878.657   121750117.283 7
  22463925.537    22463926.265   119871827.410 6
  19796977.538    19796977.818   105937651.585 8
  21899336.357    21899336.368   116735782.864 7
  21507117.790    21507118.059   115008285.300 6
 20  4  9 20  4 34.0000000  0 16G17G15G01R16R18G28G30R15G13G07G19R05
                                R06R17R14R24
  20570697.696    20570697.2184  108099767.316 8
  22669267.554    22669267.2194  119127809.539 7
  23542234.131    23542233.8814  123715289.995 6
  22043548.000    22043548.065   117752693.940 6
  21709456.756    21709456.862   115886578.246 7
  20956048.303    20956047.3294  110124784.769 8
  21134668.360    21134667.5914  111063427.228 8
  19886370.248    19886370.082   106266747.776 8
  21140072.971    21140072.4264  111091838.689 8
  23401812.415    23401811.8484  122977320.872 6
  21650595.692    21650594.2844  113774673.446 7
  22776526.609    22776528.201   121753589.339 7
  22464006.552    22464007.671   119872261.290 6
  19796795.971    19796796.168   105936679.846 8
  21899743.359    21899743.415   116737952.445 7
  21507602.257    21507602.569   115010876.762 6
 20  4  9 20  4 35.0000000  0 16G17G15G01R16R18G28G30R15G13G07G19R05
                                R06R17R14R24
  20570508.390    20570507.9124  108098772.576 8
  22669186.704    22669186.3654  119127384.077 7
  23542223.859    23542223.6094  123715235.818 6
  22043047.625    22043048.625   117750025.029 6
  21708678.692    21708678.871   115882424.820 7
  20956229.049    20956228.0754  110125734.583 8
  21135007.286    21135006.5134  111065208.716 8
  19886313.046    19886312.836   106266441.668 8
  21140195.133    21140194.5834  111092480.531 8
  23402372.697    23402372.1304  122980265.095 6
  21650025.896    21650024.4924  113771678.977 7
  22777176.762    22777177.767   121757061.323 7
  22464087.927    22464088.943   119872695.636 6
  19796614.515    19796614.696   105935708.656 8
  21900150.233    21900150.436   116740121.867 7
  21508087.055    21508087.146   115013468.543 6
 20  4  9 20  4 36.0000000  0 16G17G15G01R16R18G28G30R15G13G07G19R05
                                R06R17R14R24
  20570319.158    20570318.6804  108097778.110 8
  22669105.739    22669105.4044  119126958.957 7
  23542213.512    23542213.2624  123715182.029 6
  22042547.656    22042549.188   117747355.893 6
  21707900.465    21707900.825   115878271.452 7
  20956409.775    20956408.8014  110126684.264 8
  21135346.273    21135345.5004  111066990.332 8
  19886255.768    19886255.602   106266135.554 8
  21140317.358    21140316.8134  111093122.748 8
  23402932.948    23402932.3854  122983209.295 6
  21649456.120    21649454.7124  113768684.640 7
  22777826.506    22777827.394   121760533.260 7
  22464169.682    22464170.406   119873130.481 6
  19796433.122    19796433.263   105934738.033 8
  21900557.036    21900557.451   116742291.200 7
  21508571.313    21508572.092   115016060.773 6
 20  4  9 20  4 37.0000000  0 16G17G15G01R16R18G28G30R15G13G07G19R05
                                R06R17R14R24
  20570129.985    20570129.5124  108096784.533 8
  22669025.078    22669024.7394  119126534.761 7
  23542203.622    23542203.3724  123715129.203 6
  22042048.438    22042049.787   117744687.112 6
  21707122.392    21707122.905   115874118.746 7
  20956590.531    20956589.5574  110127634.403 8
  21135685.422    21135684.6494  111068772.674 8
  19886198.429    19886198.422   106265830.053 8
  21140439.718    21140439.1734  111093765.923 8
  23403493.205    23403492.6424  122986154.090 6
  21648886.350    21648884.9464  113765691.027 7
  22778476.255    22778477.097   121764005.761 7
  22464252.313    22464251.940   119873566.440 6
  19796252.086    19796252.036   105933768.621 8
  21900963.911    21900964.443   116744461.063 7
  21509056.360    21509056.868   115018654.039 6
 20  4  9 20  4 38.0000000  0 16G17G15G01R16R18G28G30R15G13G07G19R05
                                R06R17R14R24
  20569941.054    20569940.5764  108095791.604 8
  22668944.486    22668944.1514  119126111.281 7
  23542193.595    23542193.3454  123715077.097 6
  22041549.473    22041550.299   117742018.480 6
  21706344.566    21706345.063   115869966.476 7
  20956771.332    20956770.3584  110128584.798 8
  21136024.682    21136023.9094  111070555.528 8
  19886141.225    19886141.344   106265524.915 8
  21140562.197    21140561.6474  111094409.856 8
  23404053.601    23404053.0434  122989099.237 6
  21648316.699    21648315.2914  113762697.919 7
  22779126.103    22779126.816   121767478.620 7
  22464334.153    22464334.027   119874003.280 6
  19796071.001    19796071.125   105932800.227 8
  21901370.977    21901371.568   116746631.278 7
  21509541.487    21509541.996   115021248.104 6
 20  4  9 20  4 39.0000000  0 16G17G15G01R16R18G28G30R15G13G07G19R05
                                R06R17R14R24
  20569752.189    20569751.7164  108094799.140 8
  22668864.040    22668863.7054  119125688.318 7
  23542183.697    23542183.4434  123715025.527 6
  22041049.757    22041050.626   117739349.777 6
  21705566.655    21705567.251   115865814.451 7
  20956952.190    20956951.2164  110129535.234 8
  21136364.042    21136363.2694  111072338.686 8
  19886083.995    19886084.281   106265219.937 8
  21140684.753    21140684.2084  111095054.334 8
  23404614.024    23404613.4614  122992044.524 6
  21647747.033    21647745.6294  113759705.124 7
  22779775.784    22779776.538   121770951.659 7
  22464415.941    22464416.018   119874440.774 6
  19795890.223    19795890.252   105931832.623 8
  21901777.809    21901778.588   116748801.617 7
  21510026.845    21510027.090   115023842.806 6
 20  4  9 20  4 40.0000000  0 16G17G15G01R16R18G28G30R15G13G07G19R05
                                R06R17R14R24
  20569563.456    20569562.9834  108093807.196 8
  22668783.685    22668783.3504  119125265.919 7
  23542174.036    23542173.7864  123714974.543 6
  22040550.309    22040551.167   117736681.059 6
  21704788.964    21704789.586   115861662.712 7
  20957133.060    20957132.0864  110130485.767 8
  21136703.519    21136702.7464  111074122.212 8
  19886026.841    19886027.334   106264915.175 8
  21140807.441    21140806.8964  111095699.421 8
  23405174.616    23405174.0584  122994990.044 6
  21647177.538    21647176.1344  113756712.692 7
  22780425.407    22780426.483   121774424.933 7
  22464498.566    22464498.264   119874879.016 6
  19795709.693    19795709.602   105930865.853 8
  21902184.923    21902185.711   116750972.108 7
  21510512.950    21510512.681   115026438.138 6
 20  4  9 20  4 41.0000000  0 16G17G15G01R16R18G28G30R15G13G07G19R05
                                R06R17R14R24
  20569374.845    20569374.3674  108092816.059 8
  22668703.558    22668703.2234  119124844.371 7
  23542164.445    23542164.1914  123714924.444 6
  22040051.344    22040051.708   117734012.600 6
  21704011.322    21704011.978   115857511.545 7
  20957314.061    20957313.0874  110131436.686 8
  21137043.100    21137042.3274  111075906.386 8
  19885969.983    19885970.440   106264610.917 8
  21140930.343    21140929.7984  111096345.396 8
  23405735.268    23405734.7144  122997936.064 6
  21646608.151    21646606.7474  113753720.902 7
  22781075.455    22781076.271   121777898.722 7
  22464581.170    22464580.335   119875318.298 6
  19795529.096    19795529.215   105929900.200 8
  21902592.191    21902592.855   116753143.034 7
  21510998.371    21510998.628   115029034.422 6
 20  4  9 20  4 42.0000000  0 16G17G15G01R16R18G28G30R15G13G07G19R05
                                R06R17R14R24
  20569186.376    20569185.9034  108091825.777 8
  22668623.445    22668623.1104  119124423.746 7
  23542155.191    23542154.9374  123714875.293 6
  22039551.794    22039552.384   117731344.440 6
  21703233.848    21703234.389   115853361.012 7
  20957495.097    20957494.1184  110132388.056 8
  21137382.744    21137381.9714  111077691.270 8
  19885913.250    19885913.654   106264307.230 8
  21141053.449    21141052.9044  111096992.320 8
  23406296.073    23406295.5194  123000882.657 6
  21646039.012    21646037.6134  113750729.842 7
  22781725.484    22781726.252   121781373.072 7
  22464663.704    22464662.890   119875758.687 6
  19795348.828    19795348.959   105928935.755 8
  21902999.597    21903000.080   116755314.471 7
  21511484.304    21511484.394   115031631.717 6
 20  4  9 20  4 43.0000000  0 16G17G15G01R16R18G28G30R15G13G07G19R05
                                R06R17R14R24
  20568998.124    20568997.6464  108090835.982 8
  22668543.474    22668543.1394  119124003.658 7
  23542145.978    23542145.7244  123714826.692 6
  22039052.344    22039052.922   117728676.223 6
  21702456.242    21702456.854   115849210.728 7
  20957676.125    20957675.1514  110133339.485 8
  21137722.409    21137721.6364  111079476.481 8
  19885856.647    19885856.887   106264003.741 8
  21141176.733    21141176.1924  111097639.804 8
  23406856.846    23406856.2924  123003829.399 6
  21645469.938    21645468.5394  113747739.101 7
  22782375.213    22782376.153   121784847.612 7
  22464745.959    22464745.673   119876199.775 6
  19795168.750    19795168.873   105927972.161 8
  21903407.128    21903407.329   116757486.067 7
  21511969.737    21511970.486   115034229.624 6
 20  4  9 20  4 44.0000000  0 16G17G15G01R16R18G28G30R15G13G07G19R05
                                R06R17R14R24
  20568809.945    20568809.4674  108089846.892 8
  22668463.719    22668463.3894  119123584.328 7
  23542137.052    23542136.7984  123714778.886 6
  22038552.850    22038553.438   117726008.177 6
  21701678.855    21701679.348   115845060.924 7
  20957857.248    20957856.2744  110134291.219 8
  21138062.165    21138061.3874  111081262.252 8
  19885799.947    19885800.202   106263700.690 8
  21141300.157    21141299.6164  111098288.093 8
  23407417.659    23407417.1014  123006776.598 6
  21644901.039    21644899.6404  113744748.920 7
  22783025.237    22783026.123   121788322.560 7
  22464829.208    22464828.663   119876641.822 6
  19794988.872    19794989.062   105927009.609 8
  21903814.583    21903814.717   116759658.035 7
  21512455.775    21512456.740   115036828.399 6
 20  4  9 20  4 45.0000000  0 16G17G15G01R16R18G28G30R15G13G07G19R05
                                R06R17R14R24
  20568621.833    20568621.3604  108088858.462 8
  22668384.078    22668383.7434  119123165.711 7
  23542128.092    23542127.8334  123714731.826 6
  22038053.969    22038053.997   117723340.305 6
  21700901.562    21700901.942   115840911.555 7
  20958038.435    20958037.4614  110135243.190 8
  21138402.092    21138401.3194  111083048.531 8
  19885743.319    19885743.572   106263397.989 8
  21141423.704    21141423.1634  111098937.129 8
  23407978.568    23407978.0144  123009724.114 6
  21644332.204    21644330.8054  113741759.241 7
  22783675.221    22783676.180   121791797.882 7
  22464912.190    22464911.718   119877084.743 6
  19794809.225    19794809.369   105926048.007 8
  21904222.048    21904222.171   116761830.321 7
  21512942.153    21512942.787   115039427.984 6
 20  4  9 20  4 46.0000000  0 16G17G15G01R16R18G28G30R15G13G07G19R05
                                R06R17R14R24
  20568433.839    20568433.3664  108087870.702 8
  22668304.460    22668304.1254  119122747.818 7
  23542119.259    23542119.0004  123714685.506 6
  22037554.480    22037554.366   117720672.608 6
  21700124.255    21700124.658   115836762.637 7
  20958219.632    20958218.6584  110136195.421 8
  21138742.073    21138741.3004  111084835.321 8
  19885686.731    19885686.980   106263095.656 8
  21141547.370    21141546.8294  111099586.922 8
  23408539.510    23408538.9564  123012672.017 6
  21643763.503    21643762.1084  113738770.090 7
  22784325.252    22784326.113   121795273.568 7
  22464995.162    22464995.007   119877528.588 6
  19794629.694    19794629.865   105925087.416 8
  21904629.789    21904629.653   116764002.943 7
  21513428.965    21513428.580   115042028.382 6
 20  4  9 20  4 47.0000000  0 16G17G15G01R16R18G28G30R15G13G07G19R05
                                R06R17R14R24
  20568246.006    20568245.5334  108086883.899 8
  22668225.116    22668224.7814  119122330.932 7
  23542110.580    23542110.3214  123714640.225 6
  22037055.307    22037055.060   117718005.327 6
  21699347.263    21699347.526   115832614.479 7
  20958400.931    20958399.9524  110137148.189 8
  21139082.276    21139081.5034  111086622.916 8
  19885630.348    19885630.539   106262794.005 8
  21141671.184    21141670.6434  111100237.762 8
  23409100.511    23409099.9574  123015620.574 6
  21643194.945    21643193.5504  113735781.717 7
  22784975.499    22784976.546   121798749.911 7
  22465078.812    22465078.322   119877973.592 6
  19794450.604    19794450.580   105924128.135 8
  21905037.331    21905037.335   116766176.190 7
  21513914.937    21513915.066   115044629.907 6
 20  4  9 20  4 48.0000000  0 16G17G15G01R16R18G28G30R15G13G07G19R05
                                R06R17R14R24
  20568058.270    20568057.7924  108085897.406 8
  22668145.893    22668145.5584  119121914.411 7
  23542101.975    23542101.7164  123714595.325 6
  22036555.958    22036555.694   117715337.832 6
  21698570.395    21698570.366   115828466.420 7
  20958582.215    20958581.2414  110138100.857 8
  21139422.391    21139421.6134  111088410.673 8
  19885573.784    19885574.128   106262492.392 8
  21141795.211    21141794.6704  111100889.002 8
  23409661.637    23409661.0834  123018569.145 6
  21642626.340    21642624.9414  113732793.537 7
  22785626.000    22785626.848   121802226.257 7
  22465162.279    22465161.627   119878419.107 6
  19794271.507    19794271.423   105923169.503 8
  21905444.901    21905445.083   116768349.387 7
  21514401.347    21514401.287   115047231.908 6
 20  4  9 20  4 49.0000000  0 16G17G15G01R16R18G28G30R15G13G07G19R05
                                R06R17R14R24
  20567870.721    20567870.2484  108084911.510 8
  22668066.819    22668066.4844  119121498.533 7
  23542093.446    23542093.1874  123714551.073 6
  22036056.287    22036056.330   117712670.339 6
  21697793.428    21697793.256   115824318.720 7
  20958763.557    20958762.5834  110139053.688 8
  21139762.727    21139761.9544  111090198.860 8
  19885517.230    19885517.808   106262191.081 8
  21141919.276    21141918.7354  111101540.900 8
  23410222.751    23410222.2014  123021518.006 6
  21642057.741    21642056.3464  113729805.757 7
  22786276.407    22786277.228   121805702.918 7
  22465245.487    22465245.273   119878865.444 6
  19794092.440    19794092.504   105922211.779 8
  21905852.539    21905852.993   116770522.791 7
  21514887.755    21514887.965   115049834.635 6
 20  4  9 20  4 50.0000000  0 16G17G15G01R16R18G28G30R15G13G07G19R05
                                R06R17R14R24
  20567683.174    20567682.7014  108083925.746 8
  22667987.741    22667987.4114  119121082.849 7
  23542085.038    23542084.7794  123714507.075 6
  22035556.873    22035556.740   117710002.448 6
  21697016.528    21697016.116   115820170.912 7
  20958944.813    20958943.8394  110140006.250 8
  21140102.982    21140102.2044  111091987.038 8
  19885460.746    19885461.306   106261889.602 8
  21142043.405    21142042.8644  111102193.030 8
  23410783.766    23410783.2164  123024466.694 6
  21641489.178    21641487.7794  113726817.985 7
  22786926.896    22786927.551   121809179.433 7
  22465329.295    22465329.033   119879312.159 6
  19793913.623    19793913.440   105921254.513 8
  21906260.272    21906260.780   116772695.992 7
  21515374.563    21515374.814   115052437.656 6
 20  4  9 20  4 51.0000000  0 16G17G15G01R16R18G28G30R15G13G07G19R05
                                R06R17R14R24
  20567495.731    20567495.2584  108082940.623 8
  22667908.773    22667908.4434  119120667.870 7
  23542076.716    23542076.4574  123714463.785 6
  22035057.646    22035057.227   117707334.640 6
  21696239.484    21696239.193   115816023.507 7
  20959126.151    20959125.1774  110140959.027 8
  21140443.385    21140442.6124  111093775.705 8
  19885404.405    19885405.047   106261588.480 8
  21142167.620    21142167.0754  111102845.902 8
  23411344.824    23411344.2794  123027415.788 6
  21640920.611    21640919.2124  113723830.702 7
  22787577.134    22787577.871   121812656.282 7
  22465412.750    22465412.664   119879759.743 6
  19793735.179    19793734.855   105920298.195 8
  21906668.196    21906668.640   116774869.510 7
  21515861.354    21515861.839   115055041.431 6
 20  4  9 20  4 52.0000000  0 16G17G15G01R16R18G28G30R15G13G07G19R05
                                R06R17R14R24
  20567308.314    20567307.8414  108081955.698 8
  22667829.905    22667829.5704  119120253.129 7
  23542068.630    23542068.3714  123714420.764 6
  22034557.720    22034557.784   117704666.494 6
  21695462.536    21695462.299   115811876.058 7
  20959307.378    20959306.3994  110141911.590 8
  21140783.799    21140783.0264  111095564.413 8
  19885348.006    19885348.676   106261287.264 8
  21142291.828    21142291.2874  111103499.049 8
  23411905.961    23411905.4164  123030364.714 6
  21640352.112    21640350.7134  113720843.473 7
  22788227.396    22788228.185   121816132.981 7
  22465496.911    22465496.666   119880207.780 6
  19793556.601    19793556.180   105919342.402 8
  21907076.106    21907076.404   116777042.888 7
  21516348.245    21516348.846   115057645.556 6
 20  4  9 20  4 53.0000000  0 16G17G15G01R16R18G28G30R15G13G07G19R05
                                R06R17R14R24
  20567121.005    20567120.5274  108080971.452 8
  22667751.084    22667750.7494  119119839.121 7
  23542060.568    23542060.3094  123714378.505 6
  22034057.568    22034058.355   117701998.526 6
  21694685.774    21694685.464   115807729.083 7
  20959488.672    20959487.6984  110142864.415 8
  21141124.271    21141123.4984  111097353.643 8
  19885291.869    19885292.393   106260986.432 8
  21142416.254    21142415.7134  111104152.955 8
  23412467.286    23412466.7454  123033314.027 6
  21639783.749    21639782.3544  113717856.739 7
  22788877.678    22788878.656   121819610.065 7
  22465580.782    22465581.069   119880656.720 6
  19793378.164    19793377.782   105918387.640 8
  21907484.110    21907484.281   116779216.605 7
  21516835.495    21516836.058   115060250.501 6
 20  4  9 20  4 54.0000000  0 16G17G15G01R16R18G28G30R15G13G07G19R05
                                R06R17R14R24
  20566933.768    20566933.2954  108079987.352 8
  22667672.334    22667671.9994  119119425.311 7
  23542052.579    23542052.3204  123714336.458 6
  22033557.737    22033558.917   117699330.178 6
  21693908.469    21693908.646   115803582.034 7
  20959669.932    20959668.9584  110143816.961 8
  21141464.772    21141463.9994  111099142.876 8
  19885235.546    19885235.990   106260685.410 8
  21142540.655    21142540.1104  111104807.098 8
  23413028.612    23413028.0714  123036263.181 6
  21639215.332    21639213.9374  113714870.021 7
  22789528.384    22789528.988   121823087.001 7
  22465664.776    22465665.093   119881106.029 6
  19793199.789    19793199.406   105917433.356 8
  21907891.969    21907891.991   116781390.095 7
  21517322.354    21517323.462   115062855.728 6
 20  4  9 20  4 55.0000000  0 16G17G15G01R16R18G28G30R15G13G07G19R05
                                R06R17R14R24
  20566746.573    20566746.0954  108079003.309 8
  22667593.673    22667593.3434  119119011.616 7
  23542044.624    23542044.3654  123714294.546 6
  22033058.111    22033059.282   117696661.315 6
  21693131.650    21693131.860   115799434.803 7
  20959851.175    20959850.2014  110144769.152 8
  21141805.251    21141804.4784  111100932.001 8
  19885179.188    19885179.627   106260384.154 8
  21142665.149    21142664.6044  111105461.373 8
  23413589.876    23413589.3354  123039212.110 6
  21638646.876    21638645.4814  113711883.190 7
  22790178.477    22790179.437   121826563.693 7
  22465749.123    22465749.183   119881555.564 6
  19793021.612    19793021.191   105916479.433 8
  21908299.793    21908299.649   116783563.254 7
  21517810.221    21517810.445   115065461.174 6
 20  4  9 20  4 56.0000000  0 16G17G15G01R16R18G28G30R15G13G07G19R05
                                R06R17R14R24
  20566559.453    20566558.9754  108078020.230 8
  22667515.086    22667514.7514  119118598.928 7
  23542036.800    23542036.5374  123714253.693 6
  22032558.691    22032559.673   117693992.914 6
  21692354.933    21692355.163   115795288.309 7
  20960032.380    20960031.4014  110145721.901 8
  21142145.863    21142145.0904  111102721.949 8
  19885122.912    19885123.370   106260083.610 8
  21142789.852    21142789.3114  111106116.715 8
  23414151.192    23414150.6514  123042161.688 6
  21638078.670    21638077.2804  113708897.190 7
  22790829.248    22790829.849   121830041.089 7
  22465834.040    22465833.761   119882006.296 6
  19792843.637    19792843.155   105915526.811 8
  21908707.531    21908707.435   116785737.041 7
  21518297.498    21518297.702   115068067.721 6
 20  4  9 20  4 57.0000000  0 16G17G15G01R16R18G28G30R15G13G07G19R05
                                R06R17R14R24
  20566372.648    20566372.1704  108077038.670 8
  22667436.823    22667436.4884  119118187.809 7
  23542029.401    23542029.1424  123714214.424 6
  22032059.624    22032060.336   117691325.500 6
  21691578.496    21691578.626   115791143.102 7
  20960213.886    20960212.9124  110146675.739 8
  21142486.713    21142485.9404  111104513.257 8
  19885066.939    19885067.372   106259784.309 8
  21142914.864    21142914.3194  111106773.648 8
  23414712.667    23414712.1264  123045112.494 6
  21637510.647    21637509.2574  113705912.533 7
  22791480.312    22791480.586   121833519.728 7
  22465919.307    22465918.793   119882458.758 6
  19792665.872    19792665.569   105914576.068 8
  21909115.496    21909115.323   116787912.010 7
  21518785.501    21518785.502   115070675.949 6
 20  4  9 20  4 58.0000000  0 16G17G15G01R16R18G28G30R15G13G07G19R05
                                R06R17R14R24
  20566186.029    20566185.5564  108076058.002 8
  22667358.797    22667358.4624  119117777.643 7
  23542022.305    23542022.0424  123714176.135 6
  22031560.310    22031561.066   117688658.460 6
  21690802.136    21690802.316   115786998.574 7
  20960395.587    20960394.6134  110147630.067 8
  21142827.691    21142826.9184  111106305.307 8
  19885011.015    19885011.441   106259485.593 8
  21143040.040    21143039.4994  111107431.570 8
  23415274.309    23415273.7684  123048063.884 6
  21636942.816    21636941.4264  113702928.639 7
  22792131.182    22792131.538   121836998.950 7
  22466004.561    22466003.589   119882912.357 6
  19792488.345    19792488.081   105913626.569 8
  21909523.665    21909523.408   116790087.557 7
  21519273.290    21519273.311   115073285.218 6
 20  4  9 20  4 59.0000000  0 16G17G15G01R16R18G28G30R15G13G07G19R05
                                R06R17R14R24
  20565999.435    20565998.9624  108075077.944 8
  22667280.864    22667280.5294  119117368.124 7
  23542015.169    23542014.9064  123714138.535 6
  22031061.137    22031061.729   117685991.476 6
  21690025.958    21690026.060   115782854.434 7
  20960577.237    20960576.2634  110148584.579 8
  21143168.806    21143168.0334  111108097.807 8
  19884955.311    19884955.671   106259187.173 8
  21143165.391    21143164.8504  111108090.186 8
  23415836.005    23415835.4644  123051015.569 6
  21636375.076    21636373.6864  113699945.198 7
  22792782.262    22792782.468   121840478.458 7
  22466089.239    22466088.755   119883366.804 6
  19792310.997    19792310.907   105912677.977 8
  21909931.846    21909931.560   116792263.379 7
  21519761.668    21519761.376   115075895.230 6
 20  4  9 20  5  0.0000000  0 16G17G15G01R16R18G28G30R15G13G07G19R05
                                R06R17R14R24
  20565813.025    20565812.5474  108074098.209 8
  22667202.964    22667202.6294  119116958.985 7
  23542008.038    23542007.7794  123714101.334 6
  22030561.968    22030562.356   117683324.285 6
  21689249.662    21689249.827   115778710.428 7
  20960758.897    20960757.9184  110149538.996 8
  21143509.914    21143509.1414  111109890.479 8
  19884899.510    19884899.834   106258888.785 8
  21143290.780    21143290.2394  111108749.213 8
  23416397.643    23416397.1024  123053967.306 6
  21635807.413    21635806.0274  113696961.924 7
  22793433.459    22793433.340   121843957.977 7
  22466174.736    22466174.007   119883821.783 6
  19792134.054    19792133.777   105911730.029 8
  21910340.076    21910339.707   116794439.184 7
  21520249.034    21520249.771   115078505.714 6
 20  4  9 20  5  1.0000000  0 16G17G15G01R16R18G28G30R15G13G07G19R05
                                R06R17R14R24
  20565626.695    20565626.2174  108073118.840 8
  22667125.125    22667124.7904  119116550.262 7
  23542000.980    23542000.7174  123714064.551 6
  22030062.649    22030062.941   117680656.911 6
  21688473.463    21688473.530   115774566.563 7
  20960940.533    20960939.5594  110150493.377 8
  21143851.076    21143850.3034  111111683.356 8
  19884843.579    19884843.969   106258590.487 8
  21143416.284    21143415.7434  111109408.678 8
  23416959.562    23416959.0214  123056919.085 6
  21635239.841    21635238.4514  113693978.863 7
  22794084.237    22794084.205   121847437.526 7
  22466259.668    22466259.324   119884277.371 6
  19791956.884    19791956.775   105910782.779 8
  21910748.046    21910747.929   116796614.985 7
  21520737.271    21520738.062   115081116.662 6
 20  4  9 20  5  2.0000000  0 16G17G15G01R16R18G28G30R15G13G07G19R05
                                R06R17R14R24
  20565440.475    20565440.0024  108072140.273 8
  22667047.366    22667047.0274  119116142.396 7
  23541994.032    23541993.7694  123714028.655 6
  22029563.205    22029563.657   117677989.841 6
  21687697.343    21687697.332   115770423.277 7
  20961122.247    20961121.2734  110151448.132 8
  21144192.305    21144191.5364  111113476.883 8
  19884787.718    19884788.189   106258292.719 8
  21143541.976    21143541.4354  111110069.039 8
  23417521.381    23417520.8404  123059871.352 6
  21634672.344    21634670.9544  113690996.447 7
  22794735.526    22794735.175   121850917.600 7
  22466344.801    22466344.741   119884734.014 6
  19791779.978    19791779.936   105909836.688 8
  21911156.113    21911156.103   116798791.234 7
  21521225.580    21521226.492   115083728.600 6
 20  4  9 20  5  3.0000000  0 16G17G15G01R16R18G28G30R15G13G07G19R05
                                R06R17R14R24
  20565254.489    20565254.0164  108071162.594 8
  22666969.912    22666969.5774  119115735.466 7
  23541987.414    23541987.1514  123713993.732 6
  22029064.046    22029064.367   117675323.142 6
  21686921.497    21686921.301   115766280.638 7
  20961304.019    20961303.0454  110152403.349 8
  21144533.724    21144532.9514  111115271.141 8
  19884732.104    19884732.645   106257995.544 8
  21143667.823    21143667.2784  111110730.368 8
  23418083.224    23418082.6794  123062824.205 6
  21634104.969    21634103.5794  113688014.767 7
  22795386.687    22795386.392   121854398.290 7
  22466430.539    22466430.361   119885191.749 6
  19791603.446    19791603.443   105908891.802 8
  21911564.401    21911564.547   116800967.999 7
  21521713.874    21521715.050   115086341.571 6
 20  4  9 20  5  4.0000000  0 16G17G15G01R16R18G28G30R15G13G07G19R05
                                R06R17R14R24
  20565068.445    20565067.9724  108070185.053 8
  22666892.418    22666892.0794  119115328.758 7
  23541980.943    23541980.6844  123713959.027 6
  22028565.034    22028565.119   117672656.032 6
  21686145.641    21686145.179   115762137.913 7
  20961485.725    20961484.7514  110153358.301 8
  21144875.153    21144874.3844  111117065.384 8
  19884676.411    19884676.897   106257698.177 8
  21143793.795    21143793.2544  111111391.928 8
  23418644.976    23418644.4354  123065776.924 6
  21633537.526    21633536.1364  113685033.070 7
  22796037.733    22796037.509   121857878.809 7
  22466517.176    22466516.305   119885649.859 6
  19791426.953    19791426.898   105907947.380 8
  21911972.392    21911972.757   116803144.529 7
  21522202.751    21522203.708   115088954.819 6
 20  4  9 20  5  5.0000000  0 16G17G15G01R16R18G28G30R15G13G07G19R05
                                R06R17R14R24
  20564882.536    20564882.0634  108069208.037 8
  22666815.111    22666814.7724  119114922.623 7
  23541974.468    23541974.2054  123713924.916 6
  22028066.174    22028065.831   117669988.916 6
  21685369.697    21685369.094   115757995.468 7
  20961667.493    20961666.5144  110154313.359 8
  21145216.722    21145215.9534  111118860.005 8
  19884620.902    19884621.279   106257401.036 8
  21143919.759    21143919.2144  111112054.098 8
  23419206.936    23419206.4004  123068729.843 6
  21632970.160    21632968.7704  113682051.749 7
  22796688.591    22796688.739   121861359.560 7
  22466603.357    22466602.236   119886108.702 6
  19791250.512    19791250.596   105907003.802 8
  21912380.569    21912381.110   116805321.246 7
  21522691.832    21522692.404   115091568.749 6
 20  4  9 20  5  6.0000000  0 16G17G15G01R16R18G28G30R15G13G07G19R05
                                R06R17R14R24
  20564696.821    20564696.3434  108068232.250 8
  22666738.034    22666737.6994  119114517.774 7
  23541968.181    23541967.9224  123713892.115 6
  22027566.771    22027566.540   117667322.448 6
  21684594.014    21684593.308   115753854.032 7
  20961849.381    20961848.4074  110155269.225 8
  21145558.520    21145557.7474  111120655.691 8
  19884565.604    19884565.912   106257104.872 8
  21144045.973    21144045.4284  111112717.572 8
  23419769.220    23419768.6884  123071683.721 6
  21632403.074    21632401.6844  113679071.498 7
  22797340.090    22797340.041   121864841.240 7
  22466689.517    22466688.486   119886569.000 6
  19791074.511    19791074.706   105906061.792 8
  21912789.158    21912789.688   116807498.854 7
  21523180.972    21523181.618   115094184.037 6
 20  4  9 20  5  7.0000000  0 16G17G15G01R16R18G28G30R15G13G07G19R05
                                R06R17R14R24
  20564511.089    20564510.6164  108067256.180 8
  22666660.958    22666660.6234  119114112.683 7
  23541961.861    23541961.5984  123713859.107 6
  22027067.330    22027067.117   117664655.133 6
  21683818.050    21683817.293   115749712.099 7
  20962031.126    20962030.1474  110156224.393 8
  21145900.133    21145899.3604  111122450.954 8
  19884509.943    19884510.343   106256808.149 8
  21144172.193    21144171.6484  111113380.858 8
  23420331.121    23420330.5854  123074637.008 6
  21631835.857    21631834.4674  113676090.821 7
  22797991.182    22797991.198   121868322.308 7
  22466775.522    22466774.837   119887029.219 6
  19790898.472    19790898.577   105905119.836 8
  21913197.804    21913198.179   116809675.878 7
  21523669.683    21523670.639   115096799.165 6
 20  4  9 20  5  8.0000000  0 16G17G15G01R16R18G28G30R15G13G07G19R05
                                R06R17R14R24
  20564325.586    20564325.1134  108066281.259 8
  22666584.093    22666583.7584  119113708.795 7
  23541955.846    23541955.5834  123713827.349 6
  22026568.106    22026568.119   117661988.452 6
  21683042.233    21683041.520   115745571.107 7
  20962213.008    20962212.0344  110157180.301 8
  21146241.987    21146241.2184  111124247.201 8
  19884454.522    19884454.984   106256512.295 8
  21144298.607    21144298.0624  111114045.378 8
  23420893.220    23420892.6794  123077591.128 6
  21631268.861    21631267.4714  113673111.138 7
  22798642.966    22798642.498   121871804.260 6
  22466861.901    22466861.331   119887490.807 6
  19790722.595    19790722.819   105904179.360 8
  21913606.346    21913606.827   116811853.728 7
  21524158.698    21524159.869   115099415.629 6
 20  4  9 20  5  9.0000000  0 16G17G15G01R16R18G28G30R15G13G07G19R05
                                R06R17R14R24
  20564140.160    20564139.6874  108065306.822 8
  22666507.383    22666507.0484  119113305.441 7
  23541949.731    23541949.4684  123713796.132 6
  22026068.786    22026068.638   117659321.733 6
  21682266.314    21682265.814   115741430.375 7
  20962394.850    20962393.8764  110158136.274 8
  21146583.861    21146583.0924  111126043.784 8
  19884399.119    19884399.602   106256216.616 8
  21144425.201    21144424.6564  111114710.467 8
  23421455.229    23421454.6934  123080545.450 6
  21630701.905    21630700.5154  113670131.792 7
  22799294.146    22799293.758   121875286.384 6
  22466948.573    22466947.843   119887953.115 6
  19790546.837    19790547.160   105903239.667 8
  21914015.199    21914015.568   116814031.701 7
  21524648.021    21524649.127   115102032.702 6
 20  4  9 20  5 10.0000000  0 16G17G15G01R16R18G28G30R15G13G07G19R05
                                R06R17R14R24
  20563954.921    20563954.4484  108064333.375 8
  22666430.934    22666430.5994  119112903.133 7
  23541943.899    23541943.6404  123713765.986 6
  22025568.884    22025569.621   117656655.529 6
  21681490.709    21681490.352   115737290.429 7
  20962576.755    20962575.7814  110159092.818 8
  21146925.883    21146925.1144  111127841.210 8
  19884343.901    19884344.429   106255921.636 8
  21144551.944    21144551.4034  111115376.636 8
  23422017.559    23422017.0234  123083500.449 6
  21630135.138    21630133.7484  113667153.288 7
  22799945.116    22799945.226   121878769.231 6
  22467035.168    22467034.814   119888416.646 6
  19790371.390    19790371.758   105902301.312 8
  21914423.941    21914424.393   116816210.291 7
  21525137.763    21525138.754   115104650.901 6
 20  4  9 20  5 11.0000000  0 16G17G15G01R16R18G28G30R15G13G07G19R05
                                R06R17R14R24
  20563769.606    20563769.1284  108063359.900 8
  22666354.406    22666354.0674  119112500.841 7
  23541937.972    23541937.7094  123713735.891 6
  22025069.523    22025070.264   117653988.774 6
  21680714.890    21680714.689   115733150.208 7
  20962758.704    20962757.7304  110160048.921 8
  21147267.860    21147267.0914  111129638.441 8
  19884288.638    19884289.167   106255626.318 8
  21144678.744    21144678.2034  111116042.861 8
  23422579.760    23422579.2244  123086455.128 6
  21629568.248    21629566.8584  113664174.600 7
  22800596.624    22800596.597   121882251.707 6
  22467121.926    22467121.624   119888880.376 6
  19790196.259    19790196.505   105901363.271 8
  21914832.710    21914833.142   116818388.467 7
  21525627.930    21525628.229   115107269.199 6
 20  4  9 20  5 12.0000000  0 16G17G15G01R16R18G28G30R15G13G07G19R05
                                R06R17R14R24
  20563584.433    20563583.9604  108062386.844 8
  22666277.942    22666277.6034  119112099.028 7
  23541932.415    23541932.1564  123713706.301 6
  22024570.483    22024571.167   117651321.920 6
  21679939.127    21679939.179   115729010.177 7
  20962940.660    20962939.6864  110161005.034 8
  21147609.931    21147609.1624  111131435.951 8
  19884233.469    19884233.941   106255331.144 8
  21144805.589    21144805.0444  111116709.593 8
  23423141.955    23423141.4194  123089409.911 6
  21629001.500    21629000.1104  113661196.195 7
  22801248.347    22801248.183   121885734.271 6
  22467209.188    22467208.829   119889344.742 6
  19790021.138    19790021.319   105900425.977 8
  21915241.486    21915241.834   116820566.722 7
  21526118.152    21526117.987   115109888.054 6
 20  4  9 20  5 13.0000000  0 16G17G15G01R16R18G28G30R15G13G07G19R05
                                R06R17R14R24
  20563399.439    20563398.9614  108061414.940 8
  22666201.693    22666201.3544  119111698.418 7
  23541927.128    23541926.8694  123713677.949 6
  22024071.618    22024072.058   117648655.652 6
  21679163.717    21679163.817   115724871.094 7
  20963122.708    20963121.7344  110161961.870 8
  21147952.198    21147951.4254  111133234.463 8
  19884178.359    19884178.828   106255036.868 8
  21144932.761    21144932.2204  111117377.559 8
  23423704.511    23423703.9754  123092365.554 6
  21628434.939    21628433.5494  113658218.775 7
  22801900.107    22801899.809   121889217.669 7
  22467296.726    22467296.092   119889810.498 6
  19789846.346    19789846.339   105899490.149 8
  21915650.271    21915650.750   116822745.824 7
  21526608.226    21526608.059   115112508.243 6
 20  4  9 20  5 14.0000000  0 16G17G15G01R16R18G28G30R15G13G07G19R05
                                R06R17R14R24
  20563214.514    20563214.0414  108060443.430 8
  22666125.435    22666125.0964  119111298.247 7
  23541922.040    23541921.7864  123713650.063 6
  22023572.401    22023573.002   117645989.216 6
  21678388.244    21678388.478   115720732.191 7
  20963304.855    20963303.8764  110162918.691 8
  21148294.474    21148293.7014  111135033.199 8
  19884123.434    19884123.733   106254742.677 8
  21145060.114    21145059.5694  111118046.008 8
  23424266.970    23424266.4344  123095321.280 6
  21627868.443    21627867.0484  113655241.609 7
  22802551.726    22802551.482   121892701.194 7
  22467384.404    22467383.517   119890276.860 6
  19789671.367    19789671.562   105898555.057 8
  21916059.051    21916059.573   116824924.977 7
  21527098.930    21527098.207   115115128.971 6
 20  4  9 20  5 15.0000000  0 16G17G15G01R16R18G28G30R15G13G07G19R05
                                R06R17R14R24
  20563029.664    20563029.1864  108059472.009 8
  22666049.291    22666048.9524  119110898.219 7
  23541917.000    23541916.7414  123713622.326 6
  22023073.655    22023073.758   117643322.306 6
  21677613.052    21677613.151   115716593.165 7
  20963486.955    20963485.9814  110163875.188 8
  21148636.691    21148635.9224  111136831.875 8
  19884068.274    19884068.611   106254448.239 8
  21145187.398    21145186.8574  111118714.631 8
  23424829.355    23424828.8194  123098276.800 6
  21627301.805    21627300.4104  113652264.377 7
  22803203.224    22803203.135   121896184.514 7
  22467472.044    22467471.061   119890743.530 6
  19789496.626    19789496.872   105897620.406 8
  21916467.759    21916468.305   116827103.866 7
  21527589.391    21527588.524   115117749.909 6
 20  4  9 20  5 16.0000000  0 16G17G15G01R16R18G28G30R15G13G07G19R05
                                R06R17R14R24
  20562844.878    20562844.4054  108058500.820 8
  22665973.200    22665972.8614  119110498.474 7
  23541911.816    23541911.5574  123713594.922 6
  22022574.711    22022574.504   117640655.100 6
  21676837.809    21676837.775   115712454.130 7
  20963668.895    20963667.9214  110164831.500 8
  21148978.934    21148978.1654  111138630.640 8
  19884013.142    19884013.460   106254153.738 8
  21145314.708    21145314.1634  111119383.579 8
  23425391.877    23425391.3454  123101232.255 6
  21626735.258    21626733.8684  113649287.230 7
  22803854.487    22803854.671   121899667.787 7
  22467559.573    22467558.462   119891210.643 6
  19789321.961    19789322.263   105896686.317 8
  21916876.581    21916877.032   116829282.626 7
  21528080.096    21528078.616   115120371.247 6
 20  4  9 20  5 17.0000000  0 16G17G15G01R16R18G28G30R15G13G07G19R05
                                R06R17R14R24
  20562660.228    20562659.7554  108057530.348 8
  22665897.246    22665896.9074  119110099.493 7
  23541906.645    23541906.3864  123713568.302 6
  22022075.000    22022075.208   117637988.091 6
  21676062.599    21676062.481   115708315.583 7
  20963850.967    20963849.9934  110165788.106 8
  21149321.327    21149320.5584  111140429.954 8
  19883958.129    19883958.424   106253859.697 8
  21145442.124    21145441.5834  111120053.317 8
  23425954.375    23425953.8434  123104188.121 6
  21626168.759    21626167.3694  113646310.638 7
  22804506.343    22804506.419   121903151.450 6
  22467647.531    22467646.147   119891678.698 6
  19789147.567    19789147.906   105895753.254 8
  21917285.382    21917285.846   116831461.728 7
  21528570.134    21528568.989   115122993.417 6
 20  4  9 20  5 18.0000000  0 16G17G15G01R16R18G28G30R15G13G07G19R05
                                R06R17R14R24
  20562475.722    20562475.2494  108056560.600 8
  22665821.423    22665821.0844  119109701.294 7
  23541901.718    23541901.4594  123713542.488 6
  22021575.650    22021576.193   117635321.338 6
  21675287.616    21675287.321   115704177.548 7
  20964033.057    20964032.0834  110166745.025 8
  21149663.915    21149663.1464  111142229.844 8
  19883903.249    19883903.495   106253566.112 8
  21145569.669    21145569.1244  111120723.874 8
  23426517.100    23426516.5644  123107144.416 6
  21625602.413    21625601.0184  113643334.628 7
  22805158.379    22805158.190   121906635.540 6
  22467735.190    22467734.090   119892147.708 6
  19788973.587    19788973.750   105894821.238 8
  21917694.261    21917694.731   116833641.215 7
  21529060.783    21529059.566   115125616.474 6
 20  4  9 20  5 19.0000000  0 16G17G15G01R16R18G28G30R15G13G07G19R05
                                R06R17R14R24
  20562291.398    20562290.9204  108055591.838 8
  22665745.809    22665745.4704  119109304.126 7
  23541896.866    23541896.6074  123713517.714 6
  22021076.361    22021077.046   117632655.051 6
  21674512.777    21674512.217   115700040.277 7
  20964215.282    20964214.3084  110167702.504 8
  21150006.688    21150005.9194  111144030.574 8
  19883848.433    19883848.573   106253273.213 8
  21145697.386    21145696.8454  111121395.489 8
  23427079.965    23427079.4294  123110101.377 6
  21625036.221    21625034.8264  113640359.445 7
  22805810.121    22805809.940   121910120.289 6
  22467823.017    22467822.220   119892617.944 6
  19788799.507    19788799.730   105893890.539 8
  21918103.348    21918103.762   116835821.379 7
  21529551.433    21529550.088   115128240.637 6
 20  4  9 20  5 20.0000000  0 16G17G15G01R16R18G28G30R15G13G07G19R05
                                R06R17R14R24
  20562107.213    20562106.7404  108054623.605 8
  22665670.418    22665670.0794  119108907.550 7
  23541892.283    23541892.0204  123713493.584 6
  22020577.165    22020577.958   117629988.748 6
  21673737.704    21673737.251   115695903.313 7
  20964397.588    20964396.6144  110168660.109 8
  21150349.514    21150348.7454  111145831.671 8
  19883793.618    19883793.847   106252980.547 8
  21145825.360    21145824.8194  111122067.729 8
  23427642.698    23427642.1574  123113058.575 6
  21624470.020    21624468.6254  113637384.650 7
  22806462.031    22806461.941   121913605.268 6
  22467910.824    22467910.411   119893088.892 6
  19788625.833    19788626.001   105892960.719 8
  21918512.527    21918512.883   116838001.739 7
  21530041.736    21530040.869   115130865.498 6
 20  4  9 20  5 21.0000000  0 16G17G15G01R16R18G28G30R15G13G07G19R05
                                R06R17R14R24
  20561923.034    20561922.5564  108053655.720 8
  22665594.984    22665594.6494  119108511.367 7
  23541887.656    23541887.3934  123713469.857 6
  22020078.037    22020078.831   117627322.236 6
  21672962.744    21672962.270   115691766.475 7
  20964579.775    20964578.8014  110169617.635 8
  21150692.288    21150691.5194  111147632.967 8
  19883738.874    19883739.039   106252687.907 8
  21145953.408    21145952.8634  111122740.397 8
  23428205.315    23428204.7704  123116015.829 6
  21623903.930    21623902.5354  113634410.050 7
  22807114.119    22807113.917   121917090.320 6
  22467999.327    22467998.766   119893560.427 6
  19788452.187    19788452.382   105892031.603 8
  21918921.654    21918921.880   116840182.093 7
  21530531.938    21530531.683   115133490.817 6
 20  4  9 20  5 22.0000000  0 16G17G15G01R16R18G28G30R15G13G07G19R05
                                R06R17R14R24
  20561738.963    20561738.4904  108052688.356 8
  22665519.711    22665519.3724  119108115.763 7
  23541883.153    23541882.8904  123713446.742 6
  22019579.068    22019579.676   117624655.673 6
  21672187.875    21672187.426   115687629.942 7
  20964761.986    20964761.0124  110170575.279 8
  21151035.080    21151034.3114  111149434.628 8
  19883684.033    19883684.349   106252395.511 8
  21146081.557    21146081.0164  111123413.680 8
  23428768.169    23428767.6194  123118973.302 6
  21623337.924    21623336.5344  113631435.839 7
  22807765.763    22807765.941   121920575.616 6
  22468087.779    22468087.012   119894032.720 6
  19788278.798    19788278.953   105891103.315 8
  21919330.552    21919331.000   116842362.610 7
  21531022.573    21531022.514   115136116.818 6
 20  4  9 20  5 23.0000000  0 16G17G15G01R16R18G28G30R15G13G07G19R05
                                R06R17R14R24
  20561555.008    20561554.5304  108051721.636 8
  22665444.632    22665444.2934  119107720.848 7
  23541878.928    23541878.6654  123713424.345 6
  22019079.984    22019080.585   117621989.218 6
  21671412.975    21671412.580   115683493.838 7
  20964944.290    20964943.3114  110171533.139 8
  21151377.972    21151377.2034  111151236.786 8
  19883629.287    19883629.653   106252103.485 8
  21146209.779    21146209.2384  111124087.685 8
  23429331.079    23429330.5294  123121931.121 6
  21622772.058    21622770.6634  113628462.108 7
  22808417.655    22808417.922   121924061.246 6
  22468176.510    22468175.556   119894505.892 6
  19788105.362    19788105.518   105890175.971 8
  21919739.697    21919739.971   116844543.408 7
  21531513.380    21531513.629   115138743.612 6
 20  4  9 20  5 24.0000000  0 16G17G15G01R16R18G28G30R15G13G07G19R05
                                R06R17R14R24
  20561371.150    20561370.6774  108050755.541 8
  22665369.554    22665369.2154  119107326.605 7
  23541874.908    23541874.6494  123713402.637 6
  22018581.005    22018581.554   117619322.864 6
  21670638.098    21670637.792   115679358.125 7
  20965126.537    20965125.5634  110172491.209 8
  21151720.922    21151720.1534  111153039.409 8
  19883574.564    19883575.146   106251811.800 8
  21146338.166    21146337.6254  111124762.400 8
  23429893.997    23429893.4474  123124889.263 6
  21622206.301    21622204.9114  113625488.860 7
  22809069.950    22809070.092   121927547.193 6
  22468265.347    22468264.364   119894979.905 6
  19787932.321    19787932.400   105889249.592 8
  21920148.803    21920149.019   116846724.472 7
  21532003.819    21532005.048   115141371.173 6
 20  4  9 20  5 25.0000000  0 16G17G15G01R16R18G28G30R15G13G07G19R05
                                R06R17R14R24
  20561187.471    20561186.9984  108049790.184 8
  22665294.696    22665294.3664  119106933.159 7
  23541871.148    23541870.8894  123713381.757 6
  22018082.067    22018082.522   117616656.732 6
  21669863.284    21669863.143   115675222.951 7
  20965308.914    20965307.9354  110173449.591 8
  21152064.062    21152063.2894  111154842.622 8
  19883520.079    19883520.634   106251520.566 8
  21146466.740    21146466.1954  111125437.933 8
  23430456.920    23430456.3664  123127847.838 6
  21621640.602    21621639.2124  113622516.179 7
  22809722.160    22809722.311   121931033.556 7
  22468354.203    22468353.319   119895454.890 6
  19787759.526    19787759.421   105888324.319 8
  21920558.087    21920558.129   116848905.948 7
  21532496.713    21532496.651   115143999.606 6
 20  4  9 20  5 26.0000000  0 16G17G15G01R16R18G28G30R15G13G07G19R05
                                R06R17R14R24
  20561004.003    20561003.5304  108048825.936 8
  22665219.995    22665219.6604  119106540.871 7
  23541867.342    23541867.0794  123713362.081 6
  22017583.170    22017583.460   117613991.193 6
  21669088.754    21669088.737   115671088.662 7
  20965491.391    20965490.4124  110174408.671 8
  21152407.391    21152406.6224  111156646.775 8
  19883465.785    19883466.337   106251230.135 8
  21146595.514    21146594.9734  111126114.657 8
  23431020.025    23431019.4674  123130807.205 6
  21621075.134    21621073.7444  113619544.468 7
  22810374.931    22810374.755   121934520.733 7
  22468443.087    22468442.674   119895931.193 6
  19787586.782    19787586.900   105887400.490 8
  21920967.479    21920967.486   116851088.184 7
  21532988.845    21532988.988   115146629.289 6
 20  4  9 20  5 27.0000000  0 16G17G15G01R16R18G28G30R15G13G07G19R05
                                R06R17R14R24
  20560820.542    20560820.0694  108047861.909 8
  22665145.372    22665145.0424  119106148.850 7
  23541863.771    23541863.5084  123713342.705 6
  22017084.318    22017084.432   117611325.314 6
  21668314.192    21668314.261   115666954.375 7
  20965673.875    20965672.8924  110175367.546 8
  21152750.794    21152750.0254  111158451.000 8
  19883411.417    19883412.043   106250939.621 8
  21146724.346    21146723.8054  111126791.686 8
  23431583.297    23431582.7344  123133766.503 6
  21620509.741    21620508.3464  113616572.826 7
  22811027.852    22811027.219   121938007.829 7
  22468532.159    22468532.058   119896407.937 6
  19787414.320    19787414.381   105886477.185 8
  21921376.763    21921376.927   116853270.302 7
  21533481.073    21533481.314   115149259.317 6
 20  4  9 20  5 28.0000000  0 16G17G15G01R16R18G28G30R15G13G07G19R05
                                R06R17R14R24
  20560637.196    20560636.7234  108046898.602 8
  22665070.755    22665070.4204  119105757.596 7
  23541860.210    23541859.9474  123713324.092 6
  22016585.518    22016585.254   117608659.608 6
  21667539.788    21667539.739   115662820.582 7
  20965856.323    20965855.3444  110176326.725 8
  21153094.256    21153093.4874  111160255.789 8
  19883357.147    19883357.725   106250649.540 8
  21146853.276    21146852.7354  111127469.526 8
  23432146.384    23432145.8264  123136726.215 6
  21619944.393    21619943.0034  113613601.745 7
  22811679.967    22811679.649   121941495.332 7
  22468621.496    22468621.650   119896885.619 6
  19787242.192    19787241.962   105885554.911 8
  21921786.140    21921786.307   116855452.788 7
  21533972.816    21533973.249   115151890.224 6
 20  4  9 20  5 29.0000000  0 16G17G15G01R16R18G28G30R15G13G07G19R05
                                R06R17R14R24
  20560454.012    20560453.5394  108045936.174 8
  22664996.372    22664996.0374  119105367.270 7
  23541856.783    23541856.5154  123713306.444 6
  22016086.242    22016086.199   117605994.263 6
  21666765.477    21666765.375   115658687.462 7
  20966038.948    20966037.9654  110177286.363 8
  21153437.839    21153437.0664  111162061.300 8
  19883303.147    19883303.578   106250360.054 8
  21146982.368    21146981.8234  111128148.319 8
  23432709.787    23432709.2244  123139686.507 6
  21619379.164    21619377.7744  113610631.392 7
  22812331.782    22812332.319   121944983.407 7
  22468711.266    22468711.471   119897364.413 6
  19787070.082    19787069.805   105884633.881 8
  21922195.534    21922195.822   116857635.799 7
  21534465.845    21534465.114   115154522.140 6
 20  4  9 20  5 30.0000000  0 16G17G15G01R16R18G28G30R15G13G07G19R05
                                R06R17R14R24
  20560270.892    20560270.4194  108044973.877 8
  22664922.070    22664921.7404  119104977.126 7
  23541853.480    23541853.2174  123713289.014 6
  22015587.112    22015586.980   117603328.502 6
  21665991.119    21665991.079   115654554.258 7
  20966221.474    20966220.4954  110178245.725 8
  21153781.384    21153780.6154  111163866.790 8
  19883248.894    19883249.375   106250070.411 8
  21147111.579    21147111.0384  111128827.339 8
  23433273.135    23433272.5634  123142646.626 6
  21618814.045    21618812.6504  113607661.027 7
  22812984.127    22812984.940   121948471.301 7
  22468800.773    22468801.308   119897843.573 6
  19786898.104    19786897.761   105883713.332 8
  21922604.773    21922605.371   116859818.587 7
  21534957.327    21534957.303   115157154.333 6
